# LAS format log file from PETREL
# Project units are specified as depth units
#==================================================================
~Version information
VERS.   2.0:
WRAP.   NO:
#==================================================================
~Well
STRT .m      871.77679443 :
STOP .m      3117.6955566 :
STEP .m     0.00000000 :
NULL .        -999.250000 :
COMP.           : COMPANY
WELL.  7/4-1   : WELL
FLD.            : FIELD
LOC.            : LOCATION
SRVC.           : SERVICE COMPANY
DATE.  2018-09-11 21:49:21   : Log Export Date {yyyy-MM-dd HH:mm:ss}
PROV.           : PROVINCE
UWI.   7/4-1   : UNIQUE WELL ID
API.            : API NUMBER
#==================================================================
~Curve
DEPT .m                   : DEPTH
DCAL .in                  : DCAL
CALI .in                  : CALI
NPHI .m3/m3               : NPHI
RHOB .g/cm3               : RHOB
GR .gAPI                  : GR
DTC .us/ft                : DTC
RDEP .ohm.m               : RDEP
SP .mV                    : SP
RMED .ohm.m               : RMED
~Parameter
#==================================================================
~Ascii
# ...
 2808.7807617 12.258700371 12.258700371  -999.250000 2.6621999741 27.181699753 55.032600403 9.9482002258 -24.33141518 5.2038998604
 2808.9331055 12.258700371 12.258700371  -999.250000 2.6610000134 27.673000336 55.374500275 10.066200256 -24.55838585 4.9096999168
 2809.0856934 12.258700371 12.258700371  -999.250000 2.6579999924 27.859100342 56.054298401 10.154100418 -24.67514610 4.7529001236
 2809.2380371 12.258700371 12.258700371  -999.250000 2.6552000046 28.170900345 57.054103851 9.9849996567 -24.80315399 4.7666997910
 2809.3903809 12.258700371 12.258700371  -999.250000 2.6542999744 28.858200073 57.936298370 9.4062004089 -25.03784752 4.7842998505
 2809.5427246 12.258700371 12.258700371  -999.250000 2.6565999985 29.607900620 58.083999634 8.3949003220 -25.42871666 4.5873999596
 2809.6950684 12.258700371 12.258700371  -999.250000 2.6596999168 29.874099731 57.582195282 7.2993001938 -25.92208290 4.1821999550
 2809.8476563 12.258700371 12.258700371  -999.250000 2.6598999500 29.905000687 57.313499451 6.5047001839 -26.41478539 3.7372000217
 2810.0000000 12.258700371 12.258700371  -999.250000 2.6570000648 30.505800247 58.157798767 6.0564999580 -26.79614258 3.4663999081
 2810.1523438 12.258700371 12.258700371  -999.250000 2.6535000801 31.933500290 60.337398529 5.8256001472 -26.99280548 3.4658999443
 2810.3046875 12.258700371 12.258700371  -999.250000 2.6533000469 33.373298645 62.579502106 5.5588998795 -27.06643486 3.5652000904
 2810.4572754 12.258700371 12.258700371  -999.250000 2.6580998898 34.049800873 63.506401062 5.2006998062 -27.03098106 3.6034998894
 2810.6096191 12.258700371 12.258700371  -999.250000 2.6638000011 33.778900146 63.093898773 4.8821997643 -26.96438789 3.5446999073
 2810.7619629 12.258700371 12.258700371  -999.250000 2.6651999950 32.970199585 62.242599487 4.7358999252 -26.96871948 3.4572000504
 2810.9143066 12.258700371 12.258700371  -999.250000 2.6617000103 32.467899323 62.071701050 4.7452001572 -27.10160828 3.4223001003
 2811.0668945 12.258700371 12.258700371  -999.250000 2.6570000648 32.729900360 62.852798462 4.7947001457 -27.29154205 3.4346001148
 2811.2192383 12.258700371 12.258700371  -999.250000 2.6559000015 33.494800568 63.875198364 4.7458000183 -27.37725639 3.4205999374
 2811.3715820 12.258700371 12.258700371  -999.250000 2.6593999863 33.949501038 64.347702026 4.5611000061 -27.30465889 3.3304998875
 2811.5239258 12.258700371 12.258700371  -999.250000 2.6628999710 33.276699066 64.144500732 4.3101000786 -27.19194412 3.1728000641
 2811.6762695 12.258700371 12.258700371  -999.250000 2.6612000465 31.833999634 63.787998199 4.0809998512 -27.17044258 3.0011000633
 2811.8288574 12.258700371 12.258700371  -999.250000 2.6528000832 30.757600784 63.981998444 3.9307000637 -27.24170303 2.8833999634
 2811.9812012 12.258199692 12.258199692  -999.250000 2.6424002647 30.598100662 64.915397644 3.8547000885 -27.26335907 2.8457999229
 2812.1335449 12.253801346 12.253801346  -999.250000 2.6363999844 31.343799591 66.226196289 3.8359999657 -27.11860657 2.8828999996
 2812.2858887 12.245800018 12.245800018  -999.250000 2.6366000175 32.477500916 67.298797607 3.8631999493 -26.91395760 2.9642000198
 2812.4384766 12.239700317 12.239700317  -999.250000 2.6415998936 33.349998474 67.603599548 3.9577000141 -26.85524750 3.0755000114
 2812.5908203 12.240400314 12.240400314  -999.250000 2.6484000683 33.622898102 67.188400269 4.1181001663 -27.01206207 3.1993000507
 2812.7431641 12.247900009 12.247900009  -999.250000 2.6552999020 33.178398132 66.226303101 4.3269000053 -27.25040627 3.3010001183
 2812.8955078 12.255499840 12.255499840  -999.250000 2.6609001160 32.467601776 65.021301270 4.5272002220 -27.34649658 3.3431999683
 2813.0480957 12.260399818 12.260399818  -999.250000 2.6635000706 32.039398193 63.694099426 4.6556000710 -27.21831322 3.2802000046
 2813.2004395 12.266900063 12.266900063  -999.250000 2.6626999378 31.941699982 62.517700195 4.7005000114 -27.06725693 3.1356000900
 2813.3527832 12.277400017 12.277400017  -999.250000 2.6568000317 32.044300079 61.975894928 4.6491999626 -27.05964661 2.9386000633
 2813.5051270 12.291500092 12.291500092  -999.250000 2.6475000381 32.089000702 62.298000336 4.5213999748 -27.15396690 2.7456998825
 2813.6574707 12.310600281 12.310600281  -999.250000 2.6386001110 32.322498322 63.634201050 4.2916998863 -27.25339508 2.5882999897
 2813.8100586 12.332099915 12.332099915  -999.250000 2.6322999001 33.182098389 65.508201599 3.9695999622 -27.28002548 2.4591999054
 2813.9624023 12.350999832 12.350999832  -999.250000 2.6273000240 34.932300568 67.553199768 3.5852000713 -27.20197296 2.3427999020
 2814.1147461 12.362600327 12.362600327  -999.250000 2.6205999851 37.059700012 69.450599670 3.2167000771 -27.05238914 2.2309000492
 2814.2670898 12.366100311 12.366100311  -999.250000 2.6136999130 38.996799469 71.083900452 2.9165000916 -26.92597580 2.1294000149
 2814.4196777 12.370200157 12.370200157  -999.250000 2.6108000278 40.393199921 72.494903564 2.6747999191 -26.97361374 2.0360000134
 2814.5720215 12.380499840 12.380499840  -999.250000 2.6122000217 41.282199860 73.617202759 2.4523000717 -27.26069260 1.9342999458
 2814.7243652 12.396900177 12.396900177  -999.250000 2.6129000187 41.625499725 74.331802368 2.2291998863 -27.65513611 1.8151999712
 2814.8767090 12.418399811 12.418399811  -999.250000 2.6092998981 41.635299683 74.789802551 2.0250000954 -27.95409584 1.6943999529
 2815.0292969 12.436900139 12.436900139  -999.250000 2.6033999920 42.067001343 75.325401306 1.8707000017 -28.00063515 1.5979000330
 2815.1816406 12.441100121 12.441100121  -999.250000 2.5994000435 43.139999390 76.152297974 1.7770999670 -27.83930779 1.5355000496
 2815.3339844 12.424900055 12.424900055  -999.250000 2.5991001129 44.106399536 77.257003784 1.7487000227 -27.69305801 1.5124000311
 2815.4863281 12.400600433 12.400600433  -999.250000 2.5996000767 44.282501221 78.361999512 1.7756999731 -27.77633095 1.5350999832
 2815.6386719 12.386199951 12.386199951  -999.250000 2.5975000858 43.939498901 79.186203003 1.8631999493 -28.13001251 1.6277999878
 2815.7912598 12.384699821 12.384699821  -999.250000 2.5940999985 43.829399109 79.645103455 2.0018000603 -28.49185753 1.7790999413
 2815.9436035 12.385299683 12.385299683  -999.250000 2.5943000317 43.653598785 79.540802002 2.1965000629 -28.57035828 1.9680000544
 2816.0959473 12.383199692 12.383199692  -999.250000 2.5996999741 42.604801178 78.833007813 2.4349999428 -28.39692497 2.1659998894
 2816.2482910 12.387700081 12.387700081  -999.250000 2.6087999344 40.473201752 77.240997314 2.7167000771 -28.14794922 2.3696000576
 2816.4008789 12.398500443 12.398500443  -999.250000 2.6180999279 38.348300934 75.078002930 3.0088000298 -28.00764084 2.5678000450
 2816.5532227 12.404100418 12.404100418  -999.250000 2.6270999908 37.009601593 72.696998596 3.2764000893 -28.02439880 2.7212998867
 2816.7055664 12.396699905 12.396699905  -999.250000 2.6354999542 36.111499786 70.473602295 3.4964001179 -28.05898857 2.8057000637
 2816.8579102 12.380900383 12.380900383  -999.250000 2.6393001080 35.456798553 68.671997070 3.6475000381 -27.99298859 2.8197999001
 2817.0104980 12.369199753 12.369199753  -999.250000 2.6359000206 35.188400269 67.430801392 3.7392001152 -27.81911850 2.8101000786
 2817.1628418 12.365999222 12.365999222  -999.250000 2.6282000542 35.437900543 67.017402649 3.7706000805 -27.59322548 2.7997000217
 2817.3151855 12.365799904 12.365799904  -999.250000 2.6236999035 35.851600647 67.281700134 3.7585999966 -27.42275238 2.7874999046
 2817.4675293 12.365799904 12.365799904  -999.250000 2.6252999306 35.918098450 67.720397949 3.7246999741 -27.36408234 2.7725000381
 2817.6201172 12.365799904 12.365799904  -999.250000 2.6291000843 35.477798462 67.827003479 3.6995000839 -27.39757347 2.7702999115
 2817.7724609 12.365799904 12.365799904  -999.250000 2.6308000088 34.967098236 67.564102173 3.6967999935 -27.49159813 2.7939999104
 2817.9248047 12.365799904 12.365799904  -999.250000 2.6308999062 34.630901337 67.170402527 3.7074000835 -27.58104897 2.8354001045
 2818.0771484 12.365799904 12.365799904  -999.250000 2.6319999695 34.309101105 66.858398438 3.7097001076 -27.58624077 2.8743999004
