# LAS format log file from PETREL
# Project units are specified as depth units
#==================================================================
~Version information
VERS.   2.0:
WRAP.   NO:
#==================================================================
~Well
STRT .m      871.77679443 :
STOP .m      3117.6955566 :
STEP .m     0.00000000 :
NULL .        -999.250000 :
COMP.           : COMPANY
WELL.  7/4-1   : WELL
FLD.            : FIELD
LOC.            : LOCATION
SRVC.           : SERVICE COMPANY
DATE.  2018-09-11 21:49:21   : Log Export Date {yyyy-MM-dd HH:mm:ss}
PROV.           : PROVINCE
UWI.   7/4-1   : UNIQUE WELL ID
API.            : API NUMBER
#==================================================================
~Curve
DEPT .m                   : DEPTH
DCAL .in                  : DCAL
CALI .in                  : CALI
NPHI .m3/m3               : NPHI
RHOB .g/cm3               : RHOB
GR .gAPI                  : GR
DTC .us/ft                : DTC
RDEP .ohm.m               : RDEP
SP .mV                    : SP
RMED .ohm.m               : RMED
~Parameter
#==================================================================
~Ascii
# ...
 2959.9616699  -999.250000  -999.250000 0.4888010025  -999.250000 49.306499481 88.401000977 1.1301000118 -27.03064537 1.1023999453
 2960.1140137  -999.250000  -999.250000 0.4766499996  -999.250000 48.452800751 88.533897400 1.1696000099 -27.29903030 1.1303999424
 2960.2663574  -999.250000  -999.250000 0.4923619926  -999.250000 48.047401428 89.259094238 1.2144999504 -27.30030060 1.1526999474
 2960.4187012  -999.250000  -999.250000 0.5187849998  -999.250000 48.169200897 90.249488831 1.2526999712 -27.14849472 1.1715999842
 2960.5712891  -999.250000  -999.250000 0.5450530052  -999.250000 48.500099182 91.013397217 1.2731000185 -26.98525620 1.1870000362
 2960.7236328  -999.250000  -999.250000 0.5735729933  -999.250000 48.563899994 91.117507935 1.2713999748 -26.92704391 1.1969000101
 2960.8759766  -999.250000  -999.250000 0.6065039635  -999.250000 48.111900330 90.485488892 1.2532000542 -26.95195007 1.2003999949
 2961.0283203  -999.250000  -999.250000 0.6304399967  -999.250000 47.368400574 89.252197266 1.2331000566 -26.91511917 1.2029999495
 2961.1806641  -999.250000  -999.250000 0.6307150126  -999.250000 46.607200623 87.643203735 1.2275999784 -26.71209335 1.2173999548
 2961.3332520  -999.250000  -999.250000 0.6072530150  -999.250000 45.785701752 85.890197754 1.2496000528 -26.37034225 1.2632999420
 2961.4855957  -999.250000  -999.250000 0.5744209886  -999.250000 44.887401581 84.220497131 1.2941000462 -26.01406479 1.3459000587
 2961.6379395  -999.250000  -999.250000 0.5385940075  -999.250000 44.233398438 82.938301086 1.3481999636 -25.76774597 1.4522999525
 2961.7902832  -999.250000  -999.250000 0.5018529892  -999.250000 44.121700287 82.208198547 1.3990000486 -25.69196892 1.5448999405
 2961.9428711  -999.250000  -999.250000 0.4723440111  -999.250000 44.546901703 82.174598694 1.4450000525 -25.81410408 1.5809999704
 2962.0952148  -999.250000  -999.250000 0.4569090009  -999.250000 44.893699646 82.602294922 1.4973000288 -26.05228043 1.5657000542
 2962.2475586  -999.250000  -999.250000 0.4585520029  -999.250000 44.956001282 83.238990784 1.5695999861 -26.33935928 1.5248999596
 2962.3999023  -999.250000  -999.250000 0.4636320174  -999.250000 44.947700500 83.627403259 1.6521999836 -26.62860107 1.4983999729
 2962.5524902  -999.250000  -999.250000 0.4570410252  -999.250000 44.602401733 83.351501465 1.7195999622 -26.89364243 1.4995000362
 2962.7048340  -999.250000  -999.250000 0.4392209947  -999.250000 43.848598480 82.599998474 1.7481000423 -27.11293983 1.5039000511
 2962.8571777  -999.250000  -999.250000 0.4234620035  -999.250000 43.143501282 82.002799988 1.7197999954 -27.22352409 1.4811999798
 2963.0095215  -999.250000  -999.250000 0.4247190058  -999.250000 43.221199036 82.394203186 1.6520999670 -27.20459557 1.4217000008
 2963.1621094  -999.250000  -999.250000 0.4491920173  -999.250000 44.473701477 84.180297852 1.5630999804 -27.06639099 1.3296999931
 2963.3144531  -999.250000  -999.250000 0.4853110015  -999.250000 46.013198853 86.670700073 1.4754999876 -26.90756226 1.2309000492
 2963.4667969  -999.250000  -999.250000 0.5189490318  -999.250000 46.650901794 89.071296692 1.3985999823 -26.81384468 1.1478999853
 2963.6191406  -999.250000  -999.250000 0.5409709811  -999.250000 46.012100220 90.810295105 1.3315000534 -26.80571747 1.0929000378
 2963.7714844  -999.250000  -999.250000 0.5501089692  -999.250000 44.735000610 91.582099915 1.2711000443 -26.83966827 1.0647000074
 2963.9240723  -999.250000  -999.250000 0.5483580232  -999.250000 43.750701904 91.119796753 1.2185000181 -26.81581116 1.0534000397
 2964.0764160  -999.250000  -999.250000 0.5362280011  -999.250000 43.273601532 89.352302551 1.1801999807 -26.67078781 1.0528999567
 2964.2287598  -999.250000  -999.250000 0.5148350000  -999.250000 42.724399567 86.673797607 1.1684999466 -26.40769386 1.0659999847
 2964.3811035  -999.250000  -999.250000 0.4899739921  -999.250000 42.065498352 83.907302856 1.1919000149 -26.07884789 1.0997999907
 2964.5336914  -999.250000  -999.250000 0.4696580172  -999.250000 41.921501160 81.721107483 1.2578999996 -25.77890587 1.1661000252
 2964.6860352  -999.250000  -999.250000 0.4559740126  -999.250000 41.993301392 80.120498657 1.3586000204 -25.59590912 1.2651000023
 2964.8383789  -999.250000  -999.250000 0.4434970021  -999.250000 41.261299133 78.802597046 1.4819999933 -25.59677124 1.3851000071
 2964.9907227  -999.250000  -999.250000 0.4270859957  -999.250000 39.626800537 77.492401123 1.6073999405 -25.76991653 1.4977999926
 2965.1433105  -999.250000  -999.250000 0.4132879972  -999.250000 37.867599487 76.390098572 1.7166999578 -26.10665703 1.5705000162
 2965.2956543  -999.250000  -999.250000 0.4150980115  -999.250000 36.868499756 75.920799255 1.8052999973 -26.52721024 1.5980000496
 2965.4479980  -999.250000  -999.250000 0.4480899870  -999.250000 36.941398621 76.801803589 1.8634999990 -26.97486305 1.5760999918
 2965.6003418  -999.250000  -999.250000 0.5017669797  -999.250000 37.736499786 78.844001770 1.8870999813 -27.39535141 1.5254000425
 2965.7526855  -999.250000  -999.250000 0.5548020005  -999.250000 39.548900604 81.815597534 1.8510999680 -27.71582031 1.4552999735
 2965.9052734  -999.250000  -999.250000 0.5864950418  -999.250000 42.272300720 84.960601807 1.7584999800 -27.90274429 1.3803000450
 2966.0576172  -999.250000  -999.250000 0.5897119641  -999.250000 45.520198822 87.752098083 1.6164000034 -27.90185165 1.3061000109
 2966.2099609  -999.250000  -999.250000 0.5761209726  -999.250000 48.356601715 89.993110657 1.4607000351 -27.78598213 1.2343000174
 2966.3623047  -999.250000  -999.250000 0.5560820103  -999.250000 49.968498230 91.672897339 1.3228000402 -27.63100052 1.1690000296
 2966.5148926  -999.250000  -999.250000 0.5428609848  -999.250000 50.390899658 93.018302917 1.2231999636 -27.48661423 1.1184999943
 2966.6672363  -999.250000  -999.250000 0.5432410240  -999.250000 50.359298706 94.153297424 1.1744999886 -27.31703758 1.0937999487
 2966.8195801  -999.250000  -999.250000 0.5484650135  -999.250000 51.036998749 94.990303040 1.1696000099 -27.07822609 1.0937999487
 2966.9719238  -999.250000  -999.250000 0.5423610210  -999.250000 52.563301086 95.030990601 1.1938999891 -26.77595139 1.1117000580
 2967.1245117  -999.250000  -999.250000 0.5167340040  -999.250000 53.723598480 93.622291565 1.2295000553 -26.46717834 1.1432000399
 2967.2768555  -999.250000  -999.250000 0.4790029824  -999.250000 53.317798615 90.596900940 1.2690999508 -26.18830109 1.1914999485
 2967.4291992  -999.250000  -999.250000 0.4414730072  -999.250000 51.223598480 86.638000488 1.3161000013 -25.98699760 1.2592999935
 2967.5815430  -999.250000  -999.250000 0.4095080197  -999.250000 48.892101288 83.042304993 1.3802000284 -25.92604446 1.3408000469
 2967.7338867  -999.250000  -999.250000 0.3862529993  -999.250000 48.055599213 81.010902405 1.4720000029 -26.04426956 1.4278999567
 2967.8864746  -999.250000  -999.250000 0.3748449981  -999.250000 48.842601776 80.449409485 1.5845999718 -26.26179886 1.5145000219
 2968.0388184  -999.250000  -999.250000 0.3770080209  -999.250000 50.271400452 80.609397888 1.6969000101 -26.44990158 1.6045999527
 2968.1911621  -999.250000  -999.250000 0.3792720139  -999.250000 50.827301025 80.539199829 1.7790000439 -26.60365486 1.7071000338
 2968.3435059  -999.250000  -999.250000 0.3773780167  -999.250000 49.301101685 79.459602356 1.7917000055 -26.85995674 1.8148000240
 2968.4960938  -999.250000  -999.250000 0.3807059824  -999.250000 46.630001068 77.436096191 1.7388999462 -27.24916649 1.8806999922
 2968.6484375  -999.250000  -999.250000 0.3980799913  -999.250000 44.919300079 75.202003479 1.6303999424 -27.60981750 1.8191000223
 2968.8007813  -999.250000  -999.250000 0.4273540080  -999.250000 46.588901520 74.108299255 1.5130000114 -27.74052238 1.6461999416
 2968.9531250  -999.250000  -999.250000 0.4691289961  -999.250000 54.645999908 75.656898499 1.4226000309 -27.59379768 1.4273999929
 2969.1057129  -999.250000  -999.250000 0.5114189982  -999.250000 66.585998535 79.447799683 1.3652000427 -27.45163918 1.2631000280
 2969.2580566  -999.250000  -999.250000 0.5352659822  -999.250000 76.924102783 85.051597595 1.3320000172 -27.54562187 1.1988999844
