# LAS format log file from PETREL
# Project units are specified as depth units
#==================================================================
~Version information
VERS.   2.0:
WRAP.   NO:
#==================================================================
~Well
STRT .m      2290.9255371 :
STOP .m      2985.5649414 :
STEP .m     0.00000000 :
NULL .        -999.250000 :
COMP.           : COMPANY
WELL.  7/4-3 Carlsberg   : WELL
FLD.            : FIELD
LOC.            : LOCATION
SRVC.           : SERVICE COMPANY
DATE.  2018-09-11 21:49:22   : Log Export Date {yyyy-MM-dd HH:mm:ss}
PROV.           : PROVINCE
UWI.   7/4-3   : UNIQUE WELL ID
API.            : API NUMBER
#==================================================================
~Curve
DEPT .m                   : DEPTH
CALI .in                  : CALI
BS .in                    : BS
ROP .m/h                  : ROP
DRHO .g/cm3               : DRHO
NPHI .m3/m3               : NPHI
RHOB .g/cm3               : RHOB
PEF .b/e                  : PEF
GR .gAPI                  : GR
DTC .us/ft                : DTC
DTS .us/ft                : DTS
RDEP .ohm.m               : RDEP
RMED .ohm.m               : RMED
~Parameter
#==================================================================
~Ascii
# ...
 2386.0231934 13.639499664 12.250000954 242338.56250 0.0924796462 0.2705999911 2.3238747120 13.772988319 13.146499634 80.699996948 154.55130005 0.5820000172 0.5830000043
 2386.1755371 13.305899620 12.250000954 243531.48438 0.0935982317 0.2797000110 2.3359806538 13.885622025 21.485399246 79.364196777 153.26789856 0.5203999877 0.5191000104
 2386.3278809 12.525698662 12.250000954 243107.46875 0.0714355782 0.2695163190 2.3545701504 10.864749908 16.171516418 77.946876526 151.29760742 0.4850566685 0.4606935978
 2386.4802246 12.323500633 12.250000954 242724.79688 0.0286685899 0.2525272369 2.3447160721 6.9271130562 17.850492477 76.654670715 151.46220398 0.5211420059 0.4875567257
 2386.6325684 12.445698738 12.250000954 242453.15625 0.0261080004 0.2518011332 2.3676631451 6.5866365433 19.298480988 76.021812439 152.05529785 0.5833003521 0.5463057756
 2386.7851563 12.936600685 12.250000954 241168.10938 0.0292948727 0.2538999915 2.3415999413 7.4298000336 14.985099792 75.821197510 153.53919983 0.6456999779 0.6227999926
 2386.9375000 13.266500473 12.250000954 241042.92188 0.0472711548 0.2528017461 2.3300185204 9.0746641159 13.901436806 76.185317993 154.96870422 0.6332200170 0.6271929741
 2387.0898438 13.346700668 12.250000954 241614.56250 0.0788493603 0.2303360552 2.3379871845 10.932722092 13.144512177 76.864311218 155.46220398 0.6309037209 0.6063334942
 2387.2421875 12.991100311 12.250000954 237126.37500 0.0253718402 0.2205157131 2.2955682278 11.650652885 16.694999695 77.093437195 154.63659668 0.7120696902 0.6805807948
 2387.3947754 13.091200829 12.250000954 204535.04688 0.0601439103 0.2025000006 2.3417999744 12.284700394 13.371299744 76.883392334 153.49569702 0.7965999842 0.7721999884
 2387.5471191 13.243600845 12.250000954 166048.81250 0.0791695490 0.1749999970 2.3717000484 12.318799973 16.515100479 76.633903503 153.69859314 0.8041999936 0.7846000195
 2387.6994629 13.333499908 12.250000954 125116.53125 0.0865881369 0.1866812855 2.3745954037 12.406659126 18.771682739 76.645980835 152.78192139 0.7745475173 0.7421680093
 2387.8518066 13.219899178 12.250000954 93206.695313 0.0899891257 0.2875381410 2.3765969276 12.354683876 16.401010513 77.443321228 152.25700378 0.8197274208 0.7776429653
 2388.0043945 13.197999954 12.250000954 82458.664063 0.0806150660 0.2687000036 2.3693997860 11.809200287 16.307199478 78.441299438 153.98229980 0.8460999727 0.8439000249
 2388.1567383 13.272299767 12.250000954 131829.92188 0.0826966316 0.2579999864 2.3659999371 11.954700470 18.745300293 79.637611389 156.51840210 0.7451000214 0.7519000173
 2388.3090820 13.419699669 12.250000954 186625.98438 0.0804036856 0.2609952092 2.3442347050 12.355458260 15.680012703 80.523681641 156.00619507 0.6579396725 0.6458699107
 2388.4614258 13.551301003 12.250000954 216109.84375 0.0827961564 0.2495184392 2.3216362000 12.572652817 12.590650558 81.290664673 154.28729248 0.6389302611 0.6135516167
 2388.6137695 13.563799858 12.250000954 225483.07813 0.0889801607 0.2705661654 2.3232972622 13.266587257 14.902880669 81.369178772 152.90139771 0.6407969594 0.6137995124
 2388.7663574 13.457799911 12.250000954 227800.39063 0.0913961530 0.2579999864 2.3380000591 13.157799721 14.292699814 80.989898682 152.21139526 0.6398000121 0.6147000194
 2388.9187012 13.369099617 12.250000954 230910.23438 0.0848105773 0.2490143925 2.3396973610 12.533000946 14.795095444 80.679092407 150.85929871 0.6333103776 0.6004228592
 2389.0710449 13.463499069 12.250000954 239313.78125 0.0858982354 0.2341238707 2.3377029896 12.459915161 16.010450363 80.075569153 148.97430420 0.6696416736 0.6290540099
 2389.2233887 13.436200142 12.250000954 257688.20313 0.0880929604 0.2299067378 2.3387982845 12.390111923 13.904782295 79.013893127 146.67959595 0.7385894060 0.7201538682
 2389.3759766 13.478899002 12.250000954 276101.59375 0.0829083323 0.2264000028 2.3471999168 12.612799644 13.605699539 77.449897766 144.20210266 0.7096999884 0.6977999806
 2389.5283203 13.045399666 12.250000954 284000.78125 0.1116538420 0.2041999996 2.4375000000 12.584199905 20.909299850 75.714103699 142.88549805 0.7067000270 0.6737999916
 2389.6806641 12.190500259 12.250000954 277433.87500 0.0647753179 0.1701545566 2.4350039959 9.3049545288 15.703442574 74.202621460 142.49560547 0.7420433760 0.6729014516
 2389.8330078 12.003898621 12.250000954 230847.64063 0.0080817593 0.1576200277 2.4082429409 7.5642857552 15.308719635 73.298149109 142.95910645 0.9894030094 0.9699231982
 2389.9855957 12.067500114 12.250000954 167919.68750 -0.009272436 0.1766999960 2.4274001122 9.7073001862 12.432100296 73.159103394 142.84660339 1.0004999638 1.0063999891
 2390.1379395 12.199199677 12.250000954 100846.06250 0.0110673076 0.1630000025 2.4553000927 8.5065002441 12.341300011 73.156898499 142.36289978 0.9179000258 0.9190000296
 2390.2902832 12.183600426 12.250000954 56919.683594 0.0127972756 0.1558115184 2.4475123882 7.8185024261 16.797058105 73.201332092 141.33830261 0.8799607754 0.8757692575
 2390.4426270 12.133198738 12.250000954 66883.460938 0.0103040067 0.1796617061 2.4214417934 6.3664288521 17.067775726 73.073905945 141.15130615 0.8630270362 0.8311714530
 2390.5949707 12.033498764 12.250000954 98188.585938 0.0063128001 0.1461538523 2.4077219963 6.0929355621 17.748506546 72.552642822 140.71969604 0.9671328664 0.9058799744
 2390.7475586 12.059000969 12.250000954 115688.97656 0.0033048077 0.1259000003 2.4195001125 6.4734001160 17.382099152 72.306602478 140.40780640 1.0886000395 1.0085999966
 2390.8999023 12.165299416 12.250000954 128017.32031 0.0185754802 0.1349854469 2.4529464245 8.1122732162 21.493312836 72.452865601 140.19180298 1.1636797190 1.0998537540
 2391.0522461 12.115200043 12.250000954 148059.45313 0.0295823719 0.1400918365 2.4868457317 8.9376792908 14.613952637 72.290756226 138.89199829 1.1583088636 1.1281548738
 2391.2045898 12.121199608 12.250000954 177451.18750 0.0148473596 0.1422964633 2.4806101322 8.0314559937 21.819215775 71.831039429 138.09519958 1.0336002111 0.9859283566
 2391.3571777 12.052801132 12.250000954 202929.92188 0.0068128207 0.1350000054 2.4518001080 6.6912999153 14.270199776 71.387397766 137.47090149 1.0410000086 0.9772999883
 2391.5095215 12.016400337 12.250000954 211554.32813 0.0031059296 0.1420000046 2.4412000179 6.0934000015 10.192899704 70.995597839 136.16810608 1.0980999470 1.0480999947
 2391.6618652 12.025099754 12.250000954 209276.00000 -0.000094872 0.1556780785 2.4476895332 6.2906837463 6.4013762474 71.137870789 136.85629272 1.0981998444 1.0169498920
 2391.8142090 12.048700333 12.250000954 206438.98438 0.0025913599 0.1563988775 2.4580833912 6.4738068581 10.815904617 71.736839294 138.40939331 1.1101808548 1.0147036314
 2391.9667969 12.068898201 12.250000954 206585.43750 -0.000295353 0.1705999970 2.4444000721 5.2978000641 13.474499702 72.571296692 138.77310181 1.0298999548 0.9592999816
 2392.1191406 12.097599983 12.250000954 207206.70313 -0.003195352 0.1715999991 2.4286000729 5.6868000031 13.989899635 72.801803589 139.33259583 0.8719000220 0.7928000093
 2392.2714844 12.111100197 12.250000954 209219.29688 0.0028902243 0.1635129601 2.4093310833 7.0431265831 15.446266174 71.748786926 139.93119812 0.8593201637 0.7661427259
 2392.4238281 12.107500076 12.250000954 211957.09375 0.0128839752 0.1509201974 2.4202823639 6.9574413300 11.518608093 70.952674866 139.50979614 0.9631333351 0.8670380116
 2392.5761719 12.232701302 12.250000954 213654.32813 0.0161894411 0.1558919847 2.4376721382 7.0114130974 10.526482582 71.237640381 139.39370728 1.0454682112 0.9526628256
 2392.7287598 12.250699997 12.250000954 211724.42188 0.0268828534 0.1675000042 2.4614999294 6.8565998077 11.212100029 71.326797485 139.41879272 1.0959999561 1.0054999590
 2392.8811035 12.280499458 12.250000954 209474.40625 0.0207099356 0.1804791987 2.4588043690 6.3343367577 13.672457695 71.353553772 138.89070129 0.9821823835 0.8970737457
 2393.0334473 12.421500206 12.250000954 209101.17188 0.0194020849 0.1779041737 2.4263520241 5.9034905434 10.059604645 71.577140808 140.10389709 0.9152072072 0.8534697294
 2393.1857910 12.731200218 12.250000954 212291.34375 0.0323584005 0.1700126678 2.4067313671 6.9723834991 15.176377296 72.313613892 141.20249939 0.9056152105 0.8755643964
