# LAS format log file from PETREL
# Project units are specified as depth units
#==================================================================
~Version information
VERS.   2.0:
WRAP.   NO:
#==================================================================
~Well
STRT .m      2290.9255371 :
STOP .m      2985.5649414 :
STEP .m     0.00000000 :
NULL .        -999.250000 :
COMP.           : COMPANY
WELL.  7/4-3 Carlsberg   : WELL
FLD.            : FIELD
LOC.            : LOCATION
SRVC.           : SERVICE COMPANY
DATE.  2018-09-11 21:49:22   : Log Export Date {yyyy-MM-dd HH:mm:ss}
PROV.           : PROVINCE
UWI.   7/4-3   : UNIQUE WELL ID
API.            : API NUMBER
#==================================================================
~Curve
DEPT .m                   : DEPTH
CALI .in                  : CALI
BS .in                    : BS
ROP .m/h                  : ROP
DRHO .g/cm3               : DRHO
NPHI .m3/m3               : NPHI
RHOB .g/cm3               : RHOB
PEF .b/e                  : PEF
GR .gAPI                  : GR
DTC .us/ft                : DTC
DTS .us/ft                : DTS
RDEP .ohm.m               : RDEP
RMED .ohm.m               : RMED
~Parameter
#==================================================================
~Ascii
# ...
 2656.6855469 12.138298988 12.250000954 206232.29688 0.0145198712 0.1189022437 2.4725000858 5.1477999687 20.850099564 75.057502747 140.45730591 1.3862999678 1.2962000370
 2656.8378906 12.149300575 12.250000954 221071.64063 0.0173907205 0.1201958433 2.4955999851 5.3081002235 21.615100861 74.517196655 140.43940735 1.4257999659 1.3530999422
 2656.9904785 12.117199898 12.250000954 255121.65625 0.0192969553 0.1162064075 2.5144999027 5.4615001678 24.777799606 75.081398010 141.45599365 1.4529999495 1.3957999945
 2657.1428223 12.100899696 12.250000954 262589.75000 0.0140084941 0.1106089801 2.5179998875 5.6529998779 25.340700150 76.326301575 142.90539551 1.4636000395 1.3980000019
 2657.2951660 12.131099701 12.250000954 257692.92188 0.0097068921 0.1128963083 2.5188999176 5.3113999367 30.704500198 77.165000916 143.59970093 1.5202000141 1.4262000322
 2657.4475098 12.113599777 12.250000954 250609.84375 0.0120961536 0.1076084971 2.5174999237 5.6030001640 30.276899338 77.492698669 143.93290710 1.6295000315 1.5180000067
 2657.5998535 12.098500252 12.250000954 246675.59375 0.0206724796 0.1070019230 2.5453999043 5.9829001427 29.234199524 76.974296570 143.99780273 1.7584999800 1.6503000259
 2657.7524414 12.170900345 12.250000954 247420.87500 0.0103166671 0.0937213153 2.5385999680 5.4289999008 32.038398743 76.169601440 143.96589661 1.9149999619 1.8114999533
 2657.9047852 12.178400040 12.250000954 248896.06250 0.0265738778 0.0901057646 2.5664999485 5.7276000977 38.187000275 75.337898254 143.87030029 1.9562000036 1.8780000210
 2658.0571289 12.110300064 12.250000954 248495.68750 0.0103261219 0.0942932740 2.5473001003 5.0566000938 27.707399368 75.007102966 143.69580078 1.9206999540 1.8446999788
 2658.2094727 12.208999634 12.250000954 250324.01563 0.0138884792 0.1076571196 2.5425000191 5.4263000488 35.343799591 74.936096191 143.86070251 1.8223999739 1.7798999548
 2658.3620605 12.229698181 12.250000954 249575.18750 0.0207889415 0.1104955152 2.5286002159 5.8034000397 26.318500519 75.029502869 143.88369751 1.6583000422 1.6262999773
 2658.5144043 12.176898956 12.250000954 248172.06250 0.0190028846 0.1072052866 2.5150001049 5.6944999695 26.805400848 74.982208252 143.35169983 1.5131000280 1.4731999636
 2658.6667480 12.132200241 12.250000954 242163.78125 0.0160048082 0.1159858927 2.4988999367 5.6820001602 35.289501190 74.478103638 142.14140320 1.4713000059 1.3989000320
 2658.8190918 12.378199577 12.250000954 232248.42188 0.0172958411 0.1239743978 2.4721000195 5.8478999138 30.028799057 73.645698547 140.39079285 1.4443000555 1.3747999668
 2658.9716797 12.195799828 12.250000954 235779.92188 0.0447559282 0.1266956776 2.5141000748 6.8962001801 26.298700333 72.518798828 137.81610107 1.3681000471 1.3016999960
 2659.1240234 12.254899025 12.250000954 252587.00000 0.0150477560 0.1361847669 2.4690999985 5.2734999657 24.150499344 71.640296936 135.25920105 1.2604000568 1.1893999577
 2659.2763672 12.308498383 12.250000954 264621.25000 0.0273801275 0.1321065724 2.4788000584 5.8481998444 19.051599503 71.396102905 134.50239563 1.2158999443 1.1477999687
 2659.4287109 12.174201012 12.250000954 273229.12500 0.0281987190 0.1358939111 2.4797000885 5.9005999565 20.664300919 71.723602295 134.75559998 1.1559000015 1.1079000235
 2659.5812988 12.333201408 12.250000954 278130.71875 0.0157199986 0.1378967911 2.4505999088 5.6968998909 22.812200546 72.593696594 136.61540222 1.0868999958 1.0489000082
 2659.7336426 12.297100067 12.250000954 278064.56250 0.0266823713 0.1349048167 2.4611001015 6.2533998489 28.527200699 73.574203491 139.08070374 1.0638999939 1.0061000586
 2659.8859863 12.135899544 12.250000954 272284.25000 0.0325905457 0.1291092932 2.4835999012 6.2697000504 32.087001801 74.131797791 141.48210144 1.1556999683 1.0628999472
 2660.0383301 12.079600334 12.250000954 261949.60938 0.0182230771 0.1258052886 2.5083000660 5.8709998131 30.195499420 74.187797546 142.64819336 1.4501999617 1.3449000120
 2660.1906738 12.152700424 12.250000954 249801.96875 0.0190971196 0.1091534421 2.5411999226 5.9428000450 23.221500397 73.455101013 141.82539368 1.5726000071 1.4686000347
 2660.3432617 12.154400826 12.250000954 238759.85938 0.0156056089 0.0972190723 2.5429000854 5.7848000526 23.288700104 72.013801575 138.78799438 1.7536000013 1.6601999998
 2660.4956055 12.243900299 12.250000954 233501.57813 0.0195935909 0.0900115445 2.5494999886 6.0460000038 25.075099945 70.346801758 135.37359619 1.8588000536 1.8401000500
 2660.6479492 12.317899704 12.250000954 234412.20313 0.0291846152 0.0894009620 2.5455000401 6.4183998108 21.320100784 69.377601624 132.08140564 1.7690999508 1.8387999535
 2660.8002930 12.330699921 12.250000954 240337.79688 0.0288012791 0.0971750394 2.5262999535 6.3138999939 19.762399673 69.565399170 132.13679504 1.5652999878 1.6354000568
 2660.9528809 12.236599922 12.250000954 246199.60938 0.0268032048 0.1089810878 2.5046999454 5.8148999214 21.955099106 71.182502747 135.24459839 1.3733999729 1.3718999624
 2661.1052246 12.180898666 12.250000954 253348.81250 0.0212089736 0.1233769283 2.4911999702 5.7888998985 29.575700760 73.730300903 138.96119690 1.3719999790 1.2904000282
 2661.2575684 12.120800018 12.250000954 259051.18750 0.0238956735 0.1191068888 2.5208001137 6.1321001053 26.800100327 76.431396484 141.90580750 1.5144000053 1.3878999949
 2661.4099121 12.172200203 12.250000954 257095.29688 0.0197067317 0.1235927865 2.5467000008 5.9435000420 34.707698822 78.436393738 142.86619568 1.6017999649 1.4776999950
 2661.5625000 12.279100418 12.250000954 249552.73438 0.0218964797 0.1142150462 2.5529999733 5.8484997749 39.874198914 78.564201355 142.13569641 1.5436999798 1.4337999821
 2661.7148438 12.275500298 12.250000954 244759.84375 0.0315844528 0.1110051274 2.5608999729 6.2965998650 35.256198883 77.366798401 141.67059326 1.6102000475 1.5133999586
 2661.8671875 12.298700333 12.250000954 246081.50000 0.0243116990 0.1155926287 2.5271000862 6.0321998596 27.955900192 75.065597534 138.51730347 1.6725000143 1.5937000513
 2662.0195313 12.241998672 12.250000954 250731.48438 0.0278942306 0.1092102602 2.5067999363 6.2849001884 25.580900192 72.133300781 134.97180176 1.7482999563 1.7151999474
 2662.1718750 12.233198166 12.250000954 255777.15625 0.0233147200 0.1028204784 2.5037999153 6.1072001457 21.292699814 70.092002869 132.22300720 1.8008999825 1.7853000164
 2662.3244629 12.280499458 12.250000954 256592.12500 0.0267943908 0.1005036905 2.5167000294 6.1613001823 29.326099396 69.426101685 132.66929626 1.7020000219 1.7044999599
 2662.4768066 12.277199745 12.250000954 251678.73438 0.0310931075 0.1088865399 2.5127000809 5.9619002342 28.871599197 71.154800415 136.58299255 1.5417000055 1.5081000328
 2662.6291504 12.393800735 12.250000954 245578.32813 0.0275057685 0.1130932719 2.4953999519 5.8906002045 30.622900009 73.560798645 139.92900085 1.4436999559 1.3557000160
 2662.7814941 12.413000107 12.250000954 244326.37500 0.0379664004 0.1147945598 2.5211000443 6.6761999130 39.474899292 74.961303711 141.49859619 1.5792000294 1.4515000582
 2662.9340820 12.540299416 12.250000954 243608.26563 0.0564703532 0.1138015985 2.5568997860 7.6999001503 41.282798767 74.253799438 139.84970093 1.7446999550 1.6126999855
 2663.0864258 12.317899704 12.250000954 235049.98438 0.0543035232 0.1024182662 2.5792000294 7.5920000076 36.608898163 71.672500610 135.48840332 1.8316999674 1.6505999565
 2663.2387695 12.385000229 12.250000954 222096.84375 0.0355301276 0.0952115431 2.5622000694 6.9421000481 33.854099274 69.031402588 130.39320374 1.9812999964 1.7446999550
 2663.3911133 12.463299751 12.250000954 206603.14063 0.0432750396 0.0904153660 2.5620000362 7.0773000717 28.432899475 67.551696777 128.43670654 2.1861000061 2.0406000614
 2663.5437012 12.533399582 12.250000954 198602.35938 0.0492903851 0.0856076926 2.5397000313 7.4496998787 26.375000000 68.466598511 130.68609619 2.2032001019 2.1547000408
 2663.6960449 12.476799011 12.250000954 213255.10938 0.0604000017 0.0836032033 2.5571000576 7.9977002144 19.912200928 70.480697632 135.60809326 2.1243999004 2.1728000641
 2663.8483887 12.202898979 12.250000954 231695.67188 0.0416000001 0.0849977583 2.5560998917 6.7024002075 24.986200333 72.418800354 140.13459778 1.9440000057 2.0004999638
