# LAS format log file from PETREL
# Project units are specified as depth units
#==================================================================
~Version information
VERS.   2.0:
WRAP.   NO:
#==================================================================
~Well
STRT .m      871.77679443 :
STOP .m      3117.6955566 :
STEP .m     0.00000000 :
NULL .        -999.250000 :
COMP.           : COMPANY
WELL.  7/4-1   : WELL
FLD.            : FIELD
LOC.            : LOCATION
SRVC.           : SERVICE COMPANY
DATE.  2018-09-11 21:49:21   : Log Export Date {yyyy-MM-dd HH:mm:ss}
PROV.           : PROVINCE
UWI.   7/4-1   : UNIQUE WELL ID
API.            : API NUMBER
#==================================================================
~Curve
DEPT .m                   : DEPTH
DCAL .in                  : DCAL
CALI .in                  : CALI
NPHI .m3/m3               : NPHI
RHOB .g/cm3               : RHOB
GR .gAPI                  : GR
DTC .us/ft                : DTC
RDEP .ohm.m               : RDEP
SP .mV                    : SP
RMED .ohm.m               : RMED
~Parameter
#==================================================================
~Ascii
# ...
 1467.0511475 20.159601212 20.159601212  -999.250000 1.9696999788 77.272003174 150.58380127 0.7329000235 18.693332672 0.5048999786
 1467.2036133 20.090799332 20.090799332  -999.250000 1.9862999916 76.302001953 149.12390137 0.7469999790 18.541284561 0.4663000107
 1467.3559570 19.791299820 19.791299820  -999.250000 2.0051000118 74.135299683 149.02549744 0.7878999710 18.439903259 0.4560999870
 1467.5084229 19.338100433 19.338100433  -999.250000 2.0213000774 71.435302734 150.02830505 0.8325999975 18.430910110 0.4808999896
 1467.6607666 18.881700516 18.881700516  -999.250000 2.0257000923 69.559600830 150.47599792 0.8572000265 18.503368378 0.5169000030
 1467.8132324 18.526199341 18.526199341  -999.250000 2.0236999989 69.501098633 149.44380188 0.8546000123 18.595909119 0.5426999927
 1467.9655762 18.331899643 18.331899643  -999.250000 2.0169000626 71.224800110 148.01190186 0.8403999805 18.678133011 0.5509999990
 1468.1179199 18.334999084 18.334999084  -999.250000 2.0023000240 74.309997559 147.84820557 0.8266999722 18.704650879 0.5422999859
 1468.2703857 18.479700089 18.479700089  -999.250000 2.0078001022 77.416000366 149.41789246 0.8167999983 18.634403229 0.5207999945
 1468.4227295 18.681600571 18.681600571  -999.250000 2.0153999329 79.099899292 151.97279358 0.8113999963 18.500564575 0.4909000099
 1468.5751953 18.882999420 18.882999420  -999.250000 2.0037000179 78.590103149 154.51969910 0.8144000173 18.364374161 0.4652000070
 1468.7275391 19.119300842 19.119300842  -999.250000 1.9833999872 76.346801758 156.82240295 0.8282999992 18.295404434 0.4560000002
 1468.8800049 19.487600327 19.487600327  -999.250000 1.9757000208 73.820800781 158.40269470 0.8453999758 18.335886002 0.4654999971
 1469.0323486 20.052000046 20.052000046  -999.250000 1.9601000547 72.288803101 158.38940430 0.8493000269 18.456027985 0.4826000035
 1469.1848145 20.794202805 20.794202805  -999.250000 1.9474999905 72.492897034 156.59790039 0.8271999955 18.605806351 0.4936000109
 1469.3371582 21.537900925 21.537900925  -999.250000 1.9515000582 73.902702332 154.45597839 0.7879999876 18.762287140 0.4943000078
 1469.4896240 21.946899414 21.946899414  -999.250000 1.9665000439 75.611099243 153.27297974 0.7508000135 18.895179749 0.4900000095
 1469.6419678 21.858802795 21.858802795  -999.250000 1.9859999418 76.888999939 152.86680603 0.7303000093 18.960103989 0.4889000058
 1469.7944336 21.393699646 21.393699646  -999.250000 2.0085999966 77.256896973 152.46170044 0.7318000197 18.936738968 0.4950000048
 1469.9467773 21.027700424 21.027700424  -999.250000 2.0253000259 76.702796936 151.75709534 0.7440999746 18.836128235 0.5059000254
 1470.0991211 21.042901993 21.042901993  -999.250000 2.0281999111 75.201599121 151.31300354 0.7598000169 18.741445541 0.5217000246
 1470.2515869 21.162799835 21.162799835  -999.250000 2.0176999569 73.657203674 151.50889587 0.7735000253 18.696949005 0.5440000296
 1470.4039307 20.979499817 20.979499817  -999.250000 1.9988000393 73.339797974 152.19161987 0.7803999782 18.655145645 0.5767999887
 1470.5563965 20.469499588 20.469499588  -999.250000 1.9805999994 74.701301575 152.64759827 0.7814000249 18.590141296 0.6148999929
 1470.7087402 19.943899155 19.943899155  -999.250000 1.9685000181 77.537002563 152.19700623 0.7806000113 18.524404526 0.6462000012
 1470.8612061 19.764400482 19.764400482  -999.250000 1.9631999731 80.715499878 151.05091858 0.7853999734 18.481437683 0.6595000029
 1471.0135498 20.065500259 20.065500259  -999.250000 1.9632999897 83.242897034 149.92759705 0.8040000200 18.445505142 0.6506999731
 1471.1660156 20.619499207 20.619499207  -999.250000 1.9642000198 84.175102234 149.56680298 0.8374999762 18.381834030 0.6312000155
 1471.3183594 21.146600723 21.146600723  -999.250000 1.9630000591 83.243698120 150.09899902 0.8797000051 18.283889771 0.6118000150
 1471.4708252 21.446100235 21.446100235  -999.250000 1.9605000019 81.423698425 150.98719788 0.9128999710 18.166719437 0.5971999764
 1471.6231689 21.513700485 21.513700485  -999.250000 1.9594000578 79.912597656 151.71580505 0.9171000123 18.052894592 0.5827999711
 1471.7756348 21.447099686 21.447099686  -999.250000 1.9632999897 79.341499329 152.08729553 0.8845000267 17.966606140 0.5606999993
 1471.9279785 21.296300888 21.296300888  -999.250000 1.9732999802 79.367599487 152.38059998 0.8284999728 17.926824570 0.5281000137
 1472.0803223 21.042100906 21.042100906  -999.250000 1.9846999645 79.396896362 153.15679932 0.7761999965 17.939496994 0.4907000065
 1472.2327881 20.671199799 20.671199799  -999.250000 1.9893000126 79.008399963 154.64790344 0.7445999980 17.994909286 0.4602000117
 1472.3851318 20.224399567 20.224399567  -999.250000 1.9808000326 77.817802429 156.53889465 0.7321000099 18.061298370 0.4472000003
 1472.5375977 19.795799255 19.795799255  -999.250000 1.9641000032 76.215797424 158.13729858 0.7199000120 18.128019333 0.4485999942
 1472.6899414 19.491399765 19.491399765  -999.250000 1.9510999918 74.967399597 158.84950256 0.6916000247 18.213142395 0.4523999989
 1472.8424072 19.325300217 19.325300217  -999.250000 1.9493999481 74.286399841 158.86920166 0.6535000205 18.332031250 0.4478000104
 1472.9947510 19.266799927 19.266799927  -999.250000 1.9559999704 73.728302002 158.78779602 0.6262000203 18.477939606 0.4377000034
 1473.1472168 19.247900009 19.247900009  -999.250000 1.9543000460 72.718299866 159.07020569 0.6201000214 18.636941910 0.4377000034
 1473.2995605 19.267400742 19.267400742  -999.250000 1.9376000166 71.381103516 159.63800049 0.6312999725 18.770441055 0.4593999982
 1473.4520264 19.342399597 19.342399597  -999.250000 1.9201999903 70.507400513 159.87847900 0.6412000060 18.825962067 0.4875000119
 1473.6043701 19.475599289 19.475599289  -999.250000 1.9203000069 70.385299683 159.15780640 0.6446999907 18.767669678 0.5022000074
 1473.7568359 19.610900879 19.610900879  -999.250000 1.9349000454 70.505401611 157.88029480 0.6552000046 18.566616058 0.5045999885
 1473.9091797 19.714700699 19.714700699  -999.250000 1.9485000372 70.725898743 156.94902039 0.6877999902 18.367637634 0.5109999776
 1474.0616455 19.811100006 19.811100006  -999.250000 1.9506000280 71.424400330 156.83819580 0.7361999750 18.322942734 0.5324000120
 1474.2139893 19.929201126 19.929201126  -999.250000 1.9485000372 73.059799194 157.12620544 0.7818999887 18.430047989 0.5627999902
 1474.3663330 20.040599823 20.040599823  -999.250000 1.9589999914 75.584503174 156.72500610 0.8066999912 18.617044449 0.5832999945
 1474.5187988 20.099300385 20.099300385  -999.250000 1.9775999784 78.578102112 155.01100159 0.8059999943 18.785200119 0.5820000172
 1474.6711426 20.146499634 20.146499634  -999.250000 1.9874999523 81.236801147 152.87460327 0.7921000123 18.872852325 0.5602999926
 1474.8236084 20.296899796 20.296899796  -999.250000 1.9930000305 83.081298828 152.50999451 0.7767999768 18.859489441 0.5267999768
 1474.9759521 20.620700836 20.620700836  -999.250000 2.0013999939 84.012603760 155.76910400 0.7637000084 18.746786118 0.4941000044
 1475.1284180 21.003799438 21.003799438  -999.250000 2.0076999664 83.925796509 162.00451660 0.7475000024 18.618579865 0.4674000144
 1475.2807617 21.180099487 21.180099487  -999.250000 1.9986000061 82.185302734 168.40649414 0.7231000066 18.565624237 0.4467999935
 1475.4332275 21.028301239 21.028301239  -999.250000 1.9716000557 78.751098633 172.71200562 0.6927000284 18.610496521 0.4332000017
 1475.5855713 20.645500183 20.645500183  -999.250000 1.9392999411 74.627502441 174.41560364 0.6632999778 18.706575394 0.4311999977
 1475.7380371 20.273000717 20.273000717  -999.250000 1.9220999479 71.463302612 175.00559998 0.6409999728 18.817680359 0.4413000047
 1475.8903809 20.069400787 20.069400787  -999.250000 1.9265999794 70.223503113 175.47991943 0.6294999719 18.922111511 0.4629000127
 1476.0428467 19.994300842 19.994300842  -999.250000 1.9391000271 69.906997681 175.80549622 0.6277999878 19.016229630 0.4925000072
 1476.1951904 19.995800018 19.995800018  -999.250000 1.9574999809 69.698799133 175.17399597 0.6398000121 19.121141434 0.5267000198
 1476.3475342 20.050699234 20.050699234  -999.250000 1.9836000204 69.931900024 173.05630493 0.6632000208 19.257892609 0.5559999943
