# LAS format log file from PETREL
# Project units are specified as depth units
#==================================================================
~Version information
VERS.   2.0:
WRAP.   NO:
#==================================================================
~Well
STRT .m      2290.9255371 :
STOP .m      2985.5649414 :
STEP .m     0.00000000 :
NULL .        -999.250000 :
COMP.           : COMPANY
WELL.  7/4-3 Carlsberg   : WELL
FLD.            : FIELD
LOC.            : LOCATION
SRVC.           : SERVICE COMPANY
DATE.  2018-09-11 21:49:22   : Log Export Date {yyyy-MM-dd HH:mm:ss}
PROV.           : PROVINCE
UWI.   7/4-3   : UNIQUE WELL ID
API.            : API NUMBER
#==================================================================
~Curve
DEPT .m                   : DEPTH
CALI .in                  : CALI
BS .in                    : BS
ROP .m/h                  : ROP
DRHO .g/cm3               : DRHO
NPHI .m3/m3               : NPHI
RHOB .g/cm3               : RHOB
PEF .b/e                  : PEF
GR .gAPI                  : GR
DTC .us/ft                : DTC
DTS .us/ft                : DTS
RDEP .ohm.m               : RDEP
RMED .ohm.m               : RMED
~Parameter
#==================================================================
~Ascii
# ...
 2934.6630859 8.6114997864 8.5000000000 67645.281250 0.0342006423 0.2192027271 2.5520029068 5.7358121872 105.42359924 86.777397156 167.83610535 3.7648999691 3.0141608715
 2934.8154297 8.6955003738 8.5000000000 73267.320313 0.0406792015 0.2259782404 2.5506045818 6.9501028061 102.43389893 87.910400391 167.04359436 3.6989998817 2.8903968334
 2934.9680176 8.6677999496 8.5000000000 76247.242188 0.0486871824 0.2300934345 2.5556919575 7.5344681740 104.30059814 88.811790466 166.22210693 3.6027998924 2.7718894482
 2935.1203613 8.6675996780 8.5000000000 76293.304688 0.0449060909 0.2225121707 2.5584955215 7.4384555817 113.06610107 88.724304199 165.84428406 3.4958000183 2.7754938602
 2935.2727051 8.5974998474 8.5000000000 74388.195313 0.0438017622 0.2248961627 2.5582003593 7.1439723969 108.44850159 88.559196472 165.58149719 3.4384999275 2.8199286461
 2935.4250488 8.5055999756 8.5000000000 69487.789063 0.0331342407 0.2239032090 2.5452415943 6.6959366798 107.24629974 87.930603027 164.43370056 3.3626999855 2.8952584267
 2935.5776367 8.6091003418 8.5000000000 66561.023438 0.0298052877 0.2245988846 2.5392096043 6.4466977119 107.11170197 87.413200378 163.35760498 3.3501000404 2.9883511066
 2935.7299805 8.5937995911 8.5000000000 64851.964844 0.0397839732 0.2227030396 2.5484850407 6.6037473679 111.86599731 87.182701111 162.69470215 3.3710999489 3.0389192104
 2935.8823242 8.5794000626 8.5000000000 63372.046875 0.0348080136 0.2253956795 2.5385160446 6.5230302811 107.23829651 87.097297668 162.41079712 3.3255000114 3.0761404037
 2936.0346680 8.5399999619 8.5000000000 62443.699219 0.0363974385 0.2257993519 2.5395982265 6.5168099403 109.91629791 87.050102234 163.19940186 3.2881999016 3.0849859715
 2936.1872559 8.5502996445 8.5000000000 60655.511719 0.0354015976 0.2339868844 2.5414969921 6.4713730812 117.95040131 87.489799500 165.26750183 3.2578001022 3.1643726826
 2936.3395996 8.5509996414 8.5000000000 58425.593750 0.0318057723 0.2344992012 2.5364081860 6.5370945930 115.13099670 88.107498169 165.35668945 3.1886999607 3.2461688519
 2936.4919434 8.5517997742 8.5000000000 57144.093750 0.0323990397 0.2359976023 2.5395946503 6.4401559830 117.64980316 88.275299072 165.31170654 3.1082000732 3.2165477276
 2936.6442871 8.5255002975 8.5000000000 57325.984375 0.0289056078 0.2278131396 2.5441925526 6.3069138527 115.31379700 88.192199707 166.11770630 3.0155000687 3.1877462864
 2936.7966309 8.5123996735 8.5000000000 60160.625000 0.0274048001 0.2260057628 2.5460937023 6.1274757385 109.56950378 87.985298157 165.60781860 2.9576001167 3.0817401409
 2936.9492188 8.5616998672 8.5000000000 62407.089844 0.0249040071 0.2270982414 2.5377132893 6.1107258797 106.43350220 87.735298157 162.48629761 2.8592998981 2.8711376190
 2937.1015625 8.6148996353 8.5000000000 63441.734375 0.0366810896 0.2256024033 2.5439898968 6.5239367485 108.61540222 87.720100403 162.41731262 2.7400999069 2.6753137112
 2937.2539063 8.5745000839 8.5000000000 62547.636719 0.0400945507 0.2304921448 2.5444993973 6.7770948410 113.92400360 87.885101318 164.10809326 2.6426999569 2.5420134068
 2937.4062500 8.5601997375 8.5000000000 61316.929688 0.0346175991 0.2327926457 2.5400142670 6.4921159744 111.30229950 87.818496704 164.77450562 2.5634000301 2.4249749184
 2937.5588379 8.5311002731 8.5000000000 60764.171875 0.0319043249 0.2361945510 2.5346086025 6.4766235352 111.05149841 87.778503418 164.88929749 2.5002000332 2.3222641945
 2937.7111816 8.5292997360 8.5000000000 60599.996094 0.0281060897 0.2337040156 2.5363972187 6.0383033752 109.86620331 87.665603638 164.41610718 2.4572999477 2.2227594852
 2937.8635254 8.5356998444 8.5000000000 61529.527344 0.0274011213 0.2279092968 2.5378975868 6.1061897278 110.27459717 87.274696350 163.48609924 2.4354000092 2.1059870720
 2938.0158691 8.5784997940 8.5000000000 62232.281250 0.0303904004 0.2319868803 2.5348100662 6.1334128380 105.48400116 86.960296631 162.02180481 2.4583001137 2.0465900898
 2938.1684570 8.5444002151 8.5000000000 63668.503906 0.0323967971 0.2337971032 2.5312056541 6.3566417694 110.43849945 86.892097473 161.66690063 2.5032000542 2.0451021194
 2938.3208008 8.5179996490 8.5000000000 66699.210938 0.0313017629 0.2290076911 2.5364913940 6.3317403793 112.94889832 86.994300842 162.98930359 2.5571999550 2.0354154110
 2938.4731445 8.5159997940 8.5000000000 67781.109375 0.0289038457 0.2313961536 2.5380973816 6.1868329048 118.60330200 87.051002502 164.13180542 2.6342999935 2.0425999165
 2938.6254883 8.5086002350 8.5000000000 66742.914063 0.0269032065 0.2321987152 2.5400969982 5.8554315567 113.84120178 86.740798950 164.37860107 2.7183001041 2.1401998997
 2938.7778320 8.5544004440 8.5000000000 67417.328125 0.0269000009 0.2309041619 2.5383057594 6.0900449753 110.68890381 85.887100220 163.04449463 2.8020000458 2.3143999577
 2938.9304199 8.5930995941 8.5000000000 67527.164063 0.0339886248 0.2246101052 2.5466866493 6.5095276833 113.94979858 84.540290833 161.04789734 2.8847000599 2.6156001091
 2939.0827637 8.5357999802 8.5000000000 65293.703125 0.0372947119 0.2221040130 2.5560848713 6.4916300774 111.21299744 83.568199158 159.39328003 2.9658000469 3.0346999168
 2939.2351074 8.4898004532 8.5000000000 62971.656250 0.0294126607 0.2118165046 2.5503091812 6.2683582306 106.78350067 83.080398560 159.16270447 3.0014998913 3.3747999668
 2939.3874512 8.5376996994 8.5000000000 63458.265625 0.0272070412 0.2105041593 2.5431232452 6.1787867546 106.31880188 82.896896362 159.47810364 3.0660998821 3.7283999920
 2939.5400391 8.5218000412 8.5000000000 66240.945313 0.0275993589 0.2090024054 2.5292222500 6.1661200523 112.84400177 83.123703003 160.09060669 3.1321001053 4.0096001625
 2939.6923828 8.5327997208 8.5000000000 68978.742188 0.0274003204 0.2122947127 2.5320954323 6.0933170319 110.21589661 83.338500977 160.82009888 3.1635999680 4.2582998276
 2939.8447266 8.5819997787 8.5000000000 69995.671875 0.0330908671 0.2139972746 2.5398876667 6.4046998024 107.42199707 82.792800903 160.74349976 3.2146000862 4.3684000969
 2939.9970703 8.5973997116 8.5000000000 69583.460938 0.0381836779 0.2133022398 2.5496685505 6.5878138542 109.48200226 81.598503113 160.84410095 3.2471001148 4.4197998047
 2940.1496582 8.5503997803 8.5000000000 68720.078125 0.0368022434 0.2068104148 2.5510978699 6.3102464676 112.07550049 80.303199768 160.18350220 3.2876999378 4.6205000877
 2940.3020020 8.5256004333 8.5000000000 69579.914063 0.0307097752 0.2054022551 2.5486040115 6.1528515816 107.27110291 79.179992676 159.55200195 3.3296999931 4.7848000526
 2940.4543457 8.5256996155 8.5000000000 69798.421875 0.0310993586 0.2072969675 2.5477013588 6.3310132027 106.04989624 78.051002502 160.12939453 3.3589999676 4.7340998650
 2940.6066895 8.5840997696 8.5000000000 69475.976563 0.0319985598 0.2072001696 2.5437064171 6.5426611900 106.65930176 77.727790833 160.43508911 3.3645000458 4.7178997993
 2940.7590332 8.6083002090 8.5000000000 70906.296875 0.0339936018 0.2072000057 2.5366227627 6.6685967445 106.68389893 78.174301147 160.83160400 3.3692998886 4.8656997681
 2940.9116211 8.5536003113 8.5000000000 71780.312500 0.0369951911 0.2090969533 2.5388963223 6.6067996025 109.74929810 79.103500366 161.13740540 3.3568000793 4.9937000275
 2941.0639648 8.5771999359 8.5000000000 72334.250000 0.0331062526 0.2060049623 2.5310125351 6.5501904488 109.99259949 78.713798523 161.62699890 3.4012000561 5.0696997643
 2941.2163086 8.5738000870 8.5000000000 74001.968750 0.0384913459 0.2059001625 2.5379889011 6.9083247185 107.89640045 79.527603149 162.04510498 3.3612999916 5.0023999214
 2941.3686523 8.5801000595 8.5000000000 74631.492188 0.0369051173 0.2034080029 2.5540485382 6.9135847092 100.51329803 79.653099060 162.29589844 3.3340001106 4.6940999031
 2941.5212402 8.6520004272 8.5000000000 74871.257813 0.0368999988 0.2040988803 2.5585927963 7.0792341232 95.175498962 79.470199585 162.37910461 3.2813999653 4.2575001717
 2941.6735840 8.6140003204 8.5000000000 75832.679688 0.0420916677 0.2010049671 2.5599977970 7.1150426865 94.684799194 79.212898254 160.72180176 3.2111001015 4.1395001411
 2941.8259277 8.5251998901 8.5000000000 76169.289063 0.0398036838 0.2079887837 2.5681869984 6.7229294777 101.48310089 79.657203674 159.64259338 3.1558001041 4.2263998985
