# LAS format log file from PETREL
# Project units are specified as depth units
#==================================================================
~Version information
VERS.   2.0:
WRAP.   NO:
#==================================================================
~Well
STRT .m      2290.9255371 :
STOP .m      2985.5649414 :
STEP .m     0.00000000 :
NULL .        -999.250000 :
COMP.           : COMPANY
WELL.  7/4-3 Carlsberg   : WELL
FLD.            : FIELD
LOC.            : LOCATION
SRVC.           : SERVICE COMPANY
DATE.  2018-09-11 21:49:22   : Log Export Date {yyyy-MM-dd HH:mm:ss}
PROV.           : PROVINCE
UWI.   7/4-3   : UNIQUE WELL ID
API.            : API NUMBER
#==================================================================
~Curve
DEPT .m                   : DEPTH
CALI .in                  : CALI
BS .in                    : BS
ROP .m/h                  : ROP
DRHO .g/cm3               : DRHO
NPHI .m3/m3               : NPHI
RHOB .g/cm3               : RHOB
PEF .b/e                  : PEF
GR .gAPI                  : GR
DTC .us/ft                : DTC
DTS .us/ft                : DTS
RDEP .ohm.m               : RDEP
RMED .ohm.m               : RMED
~Parameter
#==================================================================
~Ascii
# ...
 2517.6967773 12.307900429 12.250000954 232662.98438 0.0252999999 0.1167000011 2.5060999393 6.3393998146 30.378200531 73.949401855 142.40350342 1.5248999596 1.4197000265
 2517.8491211 12.274900436 12.250000954 231056.68750 0.0333000049 0.1187999994 2.5176999569 6.3045997620 19.918399811 73.309303284 141.21400452 1.5096999407 1.4099999666
 2518.0017090 12.340900421 12.250000954 225496.06250 0.0284000002 0.1203999966 2.5099000931 6.4288001060 17.444499969 72.867897034 140.28469849 1.4716999531 1.4319000244
 2518.1540527 12.392800331 12.250000954 219002.37500 0.0366999991 0.1231999993 2.5090999603 6.6599001884 16.467399597 73.054000854 139.98390198 1.3359999657 1.2790000439
 2518.3063965 12.275800705 12.250000954 221101.18750 0.0362000018 0.1328999996 2.5034000874 6.7012000084 16.045499802 73.008796692 139.90199280 1.3545999527 1.3063000441
 2518.4587402 12.350099564 12.250000954 231124.03125 0.0258000009 0.1228000000 2.4851999283 6.4376997948 20.841999054 72.277297974 138.06030273 1.3788000345 1.3016999960
 2518.6110840 12.366701126 12.250000954 236964.57813 0.0458999984 0.1230000034 2.5034999847 6.8861999512 20.843700409 72.112701416 137.34800720 1.4520000219 1.2802000046
 2518.7636719 12.223800659 12.250000954 238090.15625 0.0329999998 0.1150999963 2.4993999004 6.5260000229 28.326599121 71.883300781 136.83009338 1.6445000172 1.5302000046
 2518.9160156 12.271300316 12.250000954 232838.96875 0.0272999983 0.1062999964 2.5132000446 6.4534997940 24.504199982 71.854598999 137.10629272 1.6390999556 1.5131000280
 2519.0683594 12.349500656 12.250000954 228200.78125 0.0281000007 0.1155999973 2.5137999058 6.4787998199 19.582500458 72.484397888 137.81640625 1.5485999584 1.4592000246
 2519.2207031 12.197500229 12.250000954 228504.34375 0.0310999993 0.1159000024 2.5137999058 6.2634000778 22.641099930 72.911903381 139.08259583 1.4963999987 1.4960999489
 2519.3732910 12.228100777 12.250000954 225403.93750 0.0179999992 0.1119000018 2.5009000301 6.0528001785 24.752799988 73.339401245 139.58470154 1.3185000420 1.2467999458
 2519.5256348 12.325498581 12.250000954 223906.29688 0.0264999997 0.1272000074 2.5081999302 6.1036000252 24.128900528 73.287101746 139.79469299 1.3740999699 1.2819000483
 2519.6779785 12.149000168 12.250000954 224884.25000 0.0238000005 0.1216999963 2.5032999516 5.9829998016 22.798200607 72.843597412 138.57229614 1.5000000000 1.3751000166
 2519.8303223 12.076299667 12.250000954 225566.92188 0.0137000000 0.1150999963 2.4942998886 5.8017997742 17.950000763 72.239196777 137.99400330 1.5786000490 1.4537999630
 2519.9829102 12.183199883 12.250000954 227020.85938 0.0148000000 0.1178999990 2.4988000393 5.7346000671 20.270200729 72.132598877 139.88560486 1.6009999514 1.5518000126
 2520.1352539 12.204399109 12.250000954 229551.96875 0.0214000009 0.1150999963 2.5044000149 5.9903001785 15.535400391 73.676200867 142.80529785 1.4474999905 1.4136999846
 2520.2875977 12.239399910 12.250000954 235586.23438 0.0222999994 0.1220000014 2.5030000210 6.0187001228 25.524599075 74.929710388 145.74989319 1.2681000233 1.2244999409
 2520.4399414 12.207799911 12.250000954 243003.54688 0.0219000001 0.1352999955 2.4830000401 6.1883997917 24.900600433 76.110496521 147.81260681 1.2271000147 1.1627999544
 2520.5922852 12.307100296 12.250000954 243161.79688 0.0203000009 0.1314000040 2.4707999229 6.3352999687 31.258800507 76.203804016 147.06919861 1.3050999641 1.2098000050
 2520.7448730 12.247299194 12.250000954 237785.42188 0.0315999985 0.1213999987 2.4828999043 6.7620000839 24.218299866 75.455902100 144.95460510 1.3644000292 1.2531000376
 2520.8972168 12.230699539 12.250000954 235841.34375 0.0211999994 0.1167000011 2.4800000191 6.5594000816 20.254800797 74.348396301 142.80230713 1.4685000181 1.3408999443
 2521.0495605 12.210800171 12.250000954 236930.32813 0.0258000009 0.1108999997 2.4962000847 6.6571998596 14.955400467 73.609596252 142.10069275 1.5240999460 1.4451999664
 2521.2019043 12.233698845 12.250000954 238138.57813 0.0253999997 0.1115999967 2.5157001019 6.4261999130 17.325500488 73.098098755 141.80679321 1.4082000256 1.3410999775
 2521.3544922 12.208399773 12.250000954 241368.89063 0.0252999999 0.1193000004 2.5053999424 6.3963999748 22.423900604 73.184402466 141.79209900 1.4177999496 1.3546999693
 2521.5068359 12.195899963 12.250000954 242808.67188 0.0227000006 0.1181000024 2.5046999454 6.3559999466 26.944099426 73.794700623 141.93809509 1.3988000154 1.3731000423
 2521.6591797 12.200699806 12.250000954 242669.28125 0.0154999997 0.1189000010 2.4918000698 5.8165001869 25.528099060 73.984703064 141.09190369 1.3091000319 1.2476999760
 2521.8115234 12.250699997 12.250000954 245238.18750 0.0218000002 0.1269000024 2.4974999428 5.8976998329 24.495599747 73.980201721 140.54780579 1.4437999725 1.3392000198
 2521.9641113 12.227800369 12.250000954 246688.57813 0.0219000001 0.1215000004 2.4888000488 6.3000998497 21.015300751 73.527000427 139.75579834 1.4880000353 1.3665000200
 2522.1164551 12.223199844 12.250000954 244896.84375 0.0287999995 0.1142999977 2.5032999516 6.6971998215 25.415100098 73.106498718 140.29930115 1.4651000500 1.3552999496
 2522.2687988 12.156800270 12.250000954 244472.82813 0.0216000006 0.1094999984 2.5025000572 6.2765998840 21.073600769 72.923698425 141.17649841 1.5562000275 1.4549000263
 2522.4211426 12.083299637 12.250000954 244326.37500 0.0116999997 0.1093999967 2.4969000816 5.6642999649 18.084199905 73.197799683 142.18569946 1.5245000124 1.4498000145
 2522.5734863 12.199398994 12.250000954 244357.09375 0.0130000003 0.1119000018 2.5027000904 5.7340002060 23.961700439 73.325698853 142.60009766 1.4505000114 1.3883999586
 2522.7260742 12.229299545 12.250000954 244364.17188 0.0230000000 0.1112999991 2.5148000717 6.2118000984 24.089599609 73.028297424 141.56390381 1.4592000246 1.4092999697
 2522.8784180 12.298599243 12.250000954 236981.10938 0.0223999992 0.1107999980 2.4999001026 6.2318000793 18.760099411 72.417602539 140.72000122 1.4532999992 1.3645999432
 2523.0307617 12.394799232 12.250000954 229465.75000 0.0310999993 0.1155999973 2.4916999340 6.8350000381 22.729799271 72.265403748 140.04829407 1.5544999838 1.4732999802
 2523.1831055 12.408899307 12.250000954 229391.34375 0.0430999994 0.1120000035 2.5111000538 7.2744002342 21.425600052 72.471496582 139.69889832 1.5358999968 1.5019999743
 2523.3356934 12.430500984 12.250000954 231638.98438 0.0416000001 0.1124999970 2.5102000237 7.2362999916 21.784599304 72.522499084 139.61770630 1.3286999464 1.2855999470
 2523.4880371 12.538701057 12.250000954 233227.54688 0.0467000008 0.1208999977 2.5053999424 7.4446001053 24.310899734 72.345497131 139.32699585 1.1936000586 1.0988999605
 2523.6403809 12.520298958 12.250000954 230499.20313 0.0489999987 0.1295000017 2.4900999069 7.5859999657 25.815799713 72.542602539 139.47909546 1.2797000408 1.1720000505
 2523.7927246 12.418999672 12.250000954 224740.15625 0.0430999994 0.1300999969 2.4756999016 7.1399998665 24.518600464 72.735900879 140.44709778 1.3465000391 1.2819999456
 2523.9453125 12.423200607 12.250000954 221756.70313 0.0406999998 0.1208999977 2.4797000885 6.4254999161 23.830400467 73.454902649 141.02059937 1.3286999464 1.2637000084
 2524.0976563 12.437801361 12.250000954 221395.29688 0.0432999991 0.1238999963 2.4930999279 6.4530000687 17.384899139 74.440208435 143.29420471 1.2967000008 1.1833000183
 2524.2500000 12.371600151 12.250000954 219884.64063 0.0381000005 0.1289999932 2.4888999462 6.3028998375 24.955900192 75.453201294 144.44529724 1.3552999496 1.3086999655
 2524.4023438 12.413998604 12.250000954 220913.39063 0.0353999995 0.1312000006 2.4791998863 7.1732001305 24.043500900 75.982398987 145.19119263 1.2503000498 1.2483999729
 2524.5546875 12.474300385 12.250000954 224231.09375 0.0416000001 0.1331000030 2.4888999462 7.7091999054 31.074399948 76.110397339 145.34140015 1.0776000023 1.0622999668
 2524.7072754 12.581300735 12.250000954 222192.51563 0.0454000011 0.1454000026 2.4712998867 7.1712999344 28.194499969 76.211997986 145.11659241 1.0341999531 0.9681000113
 2524.8596191 12.396700859 12.250000954 216102.75000 0.0511000007 0.1457999945 2.4574000835 6.8046998978 22.958799362 76.082801819 144.66099548 1.0554000139 0.9991000295
