# LAS format log file from PETREL
# Project units are specified as depth units
#==================================================================
~Version information
VERS.   2.0:
WRAP.   NO:
#==================================================================
~Well
STRT .m      1845.0031738 :
STOP .m      3450.9943848 :
STEP .m     0.00000000 :
NULL .        -999.250000 :
COMP.           : COMPANY
WELL.  7/4-2 Brynhild Appr   : WELL
FLD.            : FIELD
LOC.            : LOCATION
SRVC.           : SERVICE COMPANY
DATE.  2018-09-11 21:49:22   : Log Export Date {yyyy-MM-dd HH:mm:ss}
PROV.           : PROVINCE
UWI.   7/4-2   : UNIQUE WELL ID
API.            : API NUMBER
#==================================================================
~Curve
DEPT .m                   : DEPTH
CALI .in                  : CALI
BS .in                    : BS
DRHO .g/cm3               : DRHO
THOR .ppm                 : THOR
NPHI .m3/m3               : NPHI
RHOB .g/cm3               : RHOB
PEF .b/e                  : PEF
GR .gAPI                  : GR
URAN .ppm                 : URAN
DTC .us/ft                : DTC
DTS .us/ft                : DTS
RDEP .ohm.m               : RDEP
RMED .ohm.m               : RMED
~Parameter
#==================================================================
~Ascii
# ...
 2790.4926758 12.415499687 12.250000954 0.0352076925  -999.250000 0.3181999922 2.2549235821 9.6079196930 9.6513996124  -999.250000 89.428199768 169.83360291 0.2484000027 0.2138999999
 2790.6450195 12.443799973 12.250000954 0.0334057584  -999.250000 0.3197000027 2.2488195896 10.230410576 11.772999763  -999.250000 89.439903259 168.73822021 0.2430000007 0.2110999972
 2790.7976074 12.514499664 12.250000954 0.0328009613  -999.250000 0.3158999979 2.2448065281 10.932265282 11.455200195  -999.250000 89.325897217 166.52635193 0.2398999929 0.2117000073
 2790.9499512 12.578100204 12.250000954 0.0322009623  -999.250000 0.3147000074 2.2428030968 11.187200546 12.175800323  -999.250000 89.069198608 165.39959717 0.2378000021 0.2117000073
 2791.1022949 12.648799896 12.250000954 0.0314012803  -999.250000 0.3143000007 2.2359108925 11.800288200 11.233200073  -999.250000 88.444999695 164.06803894 0.2339999974 0.2094999999
 2791.2546387 12.698300362 12.250000954 0.0318984017  -999.250000 0.3142000139 2.2332088947 12.527448654 12.174699783  -999.250000 87.949501038 164.91676331 0.2225999981 0.2057999969
 2791.4072266 12.740799904 12.250000954 0.0341963172  -999.250000 0.3095999956 2.2342982292 12.656485558 12.206700325  -999.250000 86.811607361 166.61558533 0.2257999927 0.2031999975
 2791.5595703 12.698300362 12.250000954 0.0366959944  -999.250000 0.3046999872 2.2434852123 12.304847717 12.972399712  -999.250000 85.962600708 167.45065308 0.2351000011 0.2110999972
 2791.7119141 12.670100212 12.250000954 0.0380977578  -999.250000 0.2849000096 2.2657642365 12.464661598 12.551799774  -999.250000 84.137901306 168.59046936 0.2592000067 0.2585999966
 2791.8642578 12.648799896 12.250000954 0.0355083197  -999.250000 0.2802999914 2.2670960426 12.025658607 11.218799591  -999.250000 82.944000244 167.99600220 0.2594999969 0.2552999854
 2792.0168457 12.578100204 12.250000954 0.0308075324  -999.250000 0.2815000117 2.2576153278 11.985853195 11.693599701  -999.250000 80.386489868 165.67990112 0.2707999945 0.2258999944
 2792.1691895 12.486200333 12.250000954 0.0309996791  -999.250000 0.2861999869 2.2539060116 11.434355736 10.730299950  -999.250000 78.662498474 161.58067322 0.2829999924 0.2389999926
 2792.3215332 12.415499687 12.250000954 0.0378889441  -999.250000 0.2682000101 2.2630851269 11.584537506 11.305899620  -999.250000 75.297401428 153.88703918 0.3555000126 0.3646000028
 2792.4738770 12.415499687 12.250000954 0.0520772412  -999.250000 0.2298000008 2.3338863850 11.136452675 10.492400169  -999.250000 72.455802917 149.38171387 0.5076000094 0.5414999723
 2792.6264648 12.401399612 12.250000954 0.0592000000  -999.250000 0.2100999951 2.3926000595 11.420293808 10.793499947  -999.250000 71.121597290 147.01338196 0.5831999779 0.6126999855
 2792.7788086 12.394300461 12.250000954 0.0623999983  -999.250000 0.1687999964 2.4760000706 10.995787621 13.859800339  -999.250000 69.053199768 141.49314880 0.8334000111 1.1014000177
 2792.9311523 12.415499687 12.250000954 0.0604000017  -999.250000 0.1438000053 2.5025999546 10.420125961 14.009099960  -999.250000 68.159202576 138.86859131 0.8962000012 1.5785000324
 2793.0834961 12.351900101 12.250000954 0.0518999994  -999.250000 0.1120000035 2.5448000431 9.8616437912 12.611599922  -999.250000 67.681297302 134.96026611 0.9646999836 1.7102999687
 2793.2358398 12.373100281 12.250000954 0.0445999987  -999.250000 0.1030000001 2.5522999763 9.1754474640 9.9069995880  -999.250000 67.514297485 133.29331970 0.9739999771 1.5506999493
 2793.3884277 12.330699921 12.250000954 0.0310999993  -999.250000 0.1160999984 2.5225000381 9.8432455063 11.305600166  -999.250000 68.159698486 133.89602661 0.7778000236 0.7946000099
 2793.5407715 12.330699921 12.250000954 0.0296000000  -999.250000 0.1323000044 2.4962000847 10.822848320 11.455499649  -999.250000 68.504699707 134.22248840 0.7236999869 0.7211999893
 2793.6931152 12.373100281 12.250000954 0.0344000012  -999.250000 0.1632999927 2.4530000687 10.799842834 11.284099579  -999.250000 69.712699890 135.37205505 0.5871999860 0.6029999852
 2793.8454590 12.373100281 12.250000954 0.0370999984  -999.250000 0.1774999946 2.4398999214 10.951621056 10.737600327  -999.250000 70.316299438 135.96061707 0.5615000129 0.5629000068
 2793.9980469 12.373100281 12.250000954 0.0417000018  -999.250000 0.1960999966 2.4214999676 11.492579460 12.025099754  -999.250000 71.506698608 137.93502808 0.5546000004 0.5342000127
 2794.1503906 12.426799774 12.250000954 0.0434000008  -999.250000 0.1956000030 2.4154000282 11.349253654 10.996899605  -999.250000 72.101898193 138.92440796 0.5331000090 0.5236999989
 2794.3027344 12.408499718 12.250000954 0.0436999984  -999.250000 0.2003999949 2.4128999710 9.9419784546 11.055299759  -999.250000 72.828399658 142.29029846 0.4659000039 0.4823000133
 2794.4550781 12.436700821 12.250000954 0.0427000001  -999.250000 0.1979999989 2.4138000011 10.554618835 11.223600388  -999.250000 73.189903259 143.98098755 0.4577000141 0.4736000001
 2794.6076660 12.439100266 12.250000954 0.0412000008  -999.250000 0.1965000033 2.4163000584 11.188901901 10.901000023  -999.250000 73.728698730 147.28511047 0.4339999855 0.4560000002
 2794.7600098 12.443799973 12.250000954 0.0414999984  -999.250000 0.1948000044 2.4193999767 11.295532227 11.620699883  -999.250000 73.995101929 148.93855286 0.4499999881 0.4526999891
 2794.9123535 12.443799973 12.250000954 0.0445000008  -999.250000 0.2028000057 2.4314999580 11.684319496 10.576399803  -999.250000 73.958900452 151.84014893 0.4866999984 0.5006999969
 2795.0646973 12.439100266 12.250000954 0.0456000008  -999.250000 0.2149000019 2.4370999336 11.670938492 10.698599815  -999.250000 73.924003601 153.28269958 0.5292999744 0.5965999961
 2795.2170410 12.341300011 12.250000954 0.0384000018  -999.250000 0.2522000074 2.4203000069 11.081816673 11.780699730  -999.250000 73.336303711 155.13574219 0.4803000093 0.6123999953
 2795.3696289 12.335399628 12.250000954 0.0311999992  -999.250000 0.2533999979 2.3952000141 10.543590546 12.283699989  -999.250000 73.019996643 156.02407837 0.4415000081 0.5673000216
 2795.5219727 12.433500290 12.250000954 0.0247000009  -999.250000 0.1981000006 2.3459999561 10.416403770 12.595399857  -999.250000 72.287300110 155.42535400 0.4555999935 0.3321000040
 2795.6743164 12.435700417 12.250000954 0.0447999984  -999.250000 0.1445000023 2.3780999184 11.479486465 11.785300255  -999.250000 71.700500488 153.16532898 0.6488000154 0.6869999766
 2795.8266602 12.373100281 12.250000954 0.0584000014  -999.250000 0.1384000033 2.4409000874 11.134112358 10.363200188  -999.250000 71.540199280 150.86726379 0.6851999760 1.0664999485
 2795.9792480 12.362499237 12.250000954 0.0634000003  -999.250000 0.1360000074 2.5362000465 11.823266983 10.191399574  -999.250000 71.588302612 147.59652710 0.8331000209 1.0914000273
 2796.1315918 12.347599983 12.250000954 0.0588000007  -999.250000 0.1412999928 2.5404000282 11.811861992 10.404500008  -999.250000 71.957901001 147.20791626 0.8550999761 1.0087000132
 2796.2839355 12.323599815 12.250000954 0.0449000001  -999.250000 0.1687999964 2.4681999683 11.842959404 11.762499809  -999.250000 72.967002869 147.14060974 0.8277999759 0.9495999813
 2796.4362793 12.302399635 12.250000954 0.0377000012  -999.250000 0.1940000057 2.4130001068 11.394027710 11.424900055  -999.250000 73.753196716 147.83636475 0.7670000196 0.8733999729
 2796.5888672 12.302399635 12.250000954 0.0296000000  -999.250000 0.2343000025 2.3262000084 10.575675964 10.526900291  -999.250000 75.358795166 150.03787231 0.6266000271 0.6349999905
 2796.7412109 12.302399635 12.250000954 0.0286999997  -999.250000 0.2476000041 2.3046000004 10.418936729 9.9534997940  -999.250000 76.199996948 152.07962036 0.5713000298 0.5443999767
 2796.8935547 12.330699921 12.250000954 0.0326000005  -999.250000 0.2741999924 2.2918999195 10.571635246 9.4018001556  -999.250000 77.802299500 155.99700928 0.4458999932 0.3856999874
 2797.0458984 12.330699921 12.250000954 0.0362000018  -999.250000 0.2827999890 2.2927000523 10.064525604 8.6140003204  -999.250000 78.497596741 157.74580383 0.4171999991 0.3583000004
