# LAS format log file from PETREL
# Project units are specified as depth units
#==================================================================
~Version information
VERS.   2.0:
WRAP.   NO:
#==================================================================
~Well
STRT .m      871.77679443 :
STOP .m      3117.6955566 :
STEP .m     0.00000000 :
NULL .        -999.250000 :
COMP.           : COMPANY
WELL.  7/4-1   : WELL
FLD.            : FIELD
LOC.            : LOCATION
SRVC.           : SERVICE COMPANY
DATE.  2018-09-11 21:49:21   : Log Export Date {yyyy-MM-dd HH:mm:ss}
PROV.           : PROVINCE
UWI.   7/4-1   : UNIQUE WELL ID
API.            : API NUMBER
#==================================================================
~Curve
DEPT .m                   : DEPTH
DCAL .in                  : DCAL
CALI .in                  : CALI
NPHI .m3/m3               : NPHI
RHOB .g/cm3               : RHOB
GR .gAPI                  : GR
DTC .us/ft                : DTC
RDEP .ohm.m               : RDEP
SP .mV                    : SP
RMED .ohm.m               : RMED
~Parameter
#==================================================================
~Ascii
# ...
 1022.9575806 20.768798828 20.768798828  -999.250000 1.9800999165 70.105201721 155.49771118 0.8903999925 25.904167175 0.5153031349
 1023.1099854 21.212099075 21.212099075  -999.250000 1.9873000383 68.867897034 155.25999451 0.8833000064 26.124479294 0.5136006474
 1023.2623901 21.716699600 21.716699600  -999.250000 1.9951000214 68.237503052 155.79248047 0.8813999891 26.281768799 0.5164988637
 1023.4147949 21.948902130 21.948902130  -999.250000 1.9938999414 68.905197144 156.79870605 0.8788999915 26.363796234 0.5247966647
 1023.5671997 21.892900467 21.892900467  -999.250000 1.9802000523 70.203300476 157.49153137 0.8683000207 26.340457916 0.5379946828
 1023.7196045 21.711799622 21.711799622  -999.250000 1.9615999460 71.393302917 157.34466553 0.8456000090 26.202386856 0.5503950715
 1023.8720093 21.615297318 21.615297318  -999.250000 1.9510999918 72.351196289 156.55502319 0.8166999817 25.977905273 0.5519993305
 1024.0244141 21.679700851 21.679700851  -999.250000 1.9526000023 73.313102722 155.78190613 0.7935000062 25.764312744 0.5403000116
 1024.1767578 21.825000763 21.825000763  -999.250000 1.9588999748 74.214401245 155.66499329 0.7894999981 25.643560410 0.5290090442
 1024.3292236 21.892698288 21.892698288  -999.250000 1.9603999853 74.868598938 156.17599487 0.8073999882 25.641653061 0.5372999907
 1024.4815674 21.689899445 21.689899445  -999.250000 1.9535000324 75.234100342 156.79809570 0.8353999853 25.708341599 0.5716724396
 1024.6340332 21.143699646 21.143699646  -999.250000 1.9430999756 75.428802490 157.11830139 0.8542000055 25.761137009 0.6148999929
 1024.7863770 20.324800491 20.324800491  -999.250000 1.9372999668 75.802398682 157.05235291 0.8506000042 25.744115829 0.6422780752
 1024.9388428 19.523599625 19.523599625  -999.250000 1.9383000135 76.884902954 156.80902100 0.8320000172 25.647825241 0.6459000111
 1025.0911865 19.095699310 19.095699310  -999.250000 1.9424999952 78.781501770 156.58018494 0.8170999885 25.520862579 0.6324107647
 1025.2435303 19.051399231 19.051399231  -999.250000 1.9471999407 80.442596436 156.52053833 0.8184000254 25.424299240 0.6197102070
 1025.3959961 19.137300491 19.137300491  -999.250000 1.9528000355 80.740196228 156.78207397 0.8386999965 25.405504227 0.6208990216
 1025.5483398 19.035200119 19.035200119  -999.250000 1.9594000578 80.102401733 157.21145630 0.8654000163 25.469316483 0.6343892217
 1025.7008057 18.650299072 18.650299072  -999.250000 1.9667999744 79.404701233 157.49710083 0.8858000040 25.537662506 0.6543999910
 1025.8531494 18.240499496 18.240499496  -999.250000 1.9731999636 78.981002808 157.38459778 0.8934000134 25.565700531 0.6711865067
 1026.0056152 18.040899277 18.040899277  -999.250000 1.9754999876 78.757301331 156.62699890 0.8840000033 25.588941574 0.6783000231
 1026.1579590 18.033300400 18.033300400  -999.250000 1.9733999968 79.149497986 155.49230957 0.8648999929 25.662561417 0.6772009134
 1026.3104248 18.113500595 18.113500595  -999.250000 1.9678000212 80.981300354 154.47418213 0.8431000113 25.784873962 0.6715999842
 1026.4627686 18.181600571 18.181600571  -999.250000 1.9618999958 83.860603333 154.09580994 0.8253999949 25.905736923 0.6675032973
 1026.6152344 18.214700699 18.214700699  -999.250000 1.9579000473 86.469802856 154.63800049 0.8154000044 25.987165451 0.6672000289
 1026.7675781 18.224899292 18.224899292  -999.250000 1.9565000534 87.612503052 155.74261475 0.8125000000 26.021846771 0.6681992412
 1026.9200439 18.235799789 18.235799789  -999.250000 1.9574000835 87.680801392 156.89779663 0.8144000173 26.016843796 0.6679000258
 1027.0723877 18.266500473 18.266500473  -999.250000 1.9594999552 87.891601563 157.66488647 0.8162000179 25.948045731 0.6659016013
 1027.2247314 18.317399979 18.317399979  -999.250000 1.9618999958 88.466903687 157.95549011 0.8145999908 25.815328598 0.6626026034
 1027.3771973 18.371299744 18.371299744  -999.250000 1.9637999535 88.622901917 157.94171143 0.8093000054 25.643783569 0.6586031914
 1027.5295410 18.409999847 18.409999847  -999.250000 1.9652999640 87.980499268 157.82949829 0.8022000194 25.459066391 0.6541035771
 1027.6820068 18.429700851 18.429700851  -999.250000 1.9673999548 87.069602966 157.71551514 0.7978000045 25.283460617 0.6499999762
 1027.8343506 18.440299988 18.440299988  -999.250000 1.9706000090 86.158500671 157.59579468 0.7990000248 25.156267166 0.6473021507
 1027.9868164 18.446300507 18.446300507  -999.250000 1.9756000042 84.859901428 157.44367981 0.8066999912 25.087163925 0.6474999785
 1028.1391602 18.450199127 18.450199127  -999.250000 1.9812999964 83.116897583 157.23910522 0.8191000223 25.058799744 0.6508972645
 1028.2916260 18.515899658 18.515899658  -999.250000 1.9855999947 81.819801331 156.93640137 0.8331000209 25.008646011 0.6565999985
 1028.4439697 18.742300034 18.742300034  -999.250000 1.9866000414 81.618301392 156.51350403 0.8439999819 24.869384766 0.6615999937
 1028.5964355 19.109600067 19.109600067  -999.250000 1.9850000143 82.389297485 155.89840698 0.8467000127 24.672098160 0.6615999937
 1028.7487793 19.372499466 19.372499466  -999.250000 1.9855999947 83.246200562 155.10249329 0.8420000076 24.483133316 0.6553999782
 1028.9012451 19.281400681 19.281400681  -999.250000 1.9951000214 83.440803528 154.19689941 0.8321999907 24.330850601 0.6420000196
 1029.0535889 18.960800171 18.960800171  -999.250000 2.0109999180 82.825996399 153.47320557 0.8230000138 24.222698212 0.6245999932
 1029.2059326 18.641399384 18.641399384  -999.250000 2.0232999325 81.510803223 153.39889526 0.8177000284 24.140602112 0.6068999767
 1029.3583984 18.480600357 18.480600357  -999.250000 2.0209999084 80.462196350 154.11489868 0.8159000278 24.097133636 0.5956000090
 1029.5107422 18.444299698 18.444299698  -999.250000 2.0016999245 80.392997742 155.65150452 0.8155000210 24.111394882 0.5965999961
 1029.6632080 18.431499481 18.431499481  -999.250000 1.9789999723 81.082496643 157.49450684 0.8119000196 24.201475143 0.6057000160
 1029.8155518 18.431400299 18.431400299  -999.250000 1.9651000500 81.809196472 159.05839539 0.8019999862 24.333101273 0.6144999862
 1029.9680176 18.448600769 18.448600769  -999.250000 1.9624999762 82.260803223 159.90299988 0.7872999907 24.443029404 0.6151999831
 1030.1203613 18.502799988 18.502799988  -999.250000 1.9673999548 82.834098816 159.87152100 0.7720999718 24.459058762 0.6068000197
 1030.2728271 18.601299286 18.601299286  -999.250000 1.9739999771 83.740898132 159.26409912 0.7627000213 24.348205566 0.5946000218
 1030.4251709 18.740900040 18.740900040  -999.250000 1.9797999859 84.368202209 158.51600647 0.7642999887 24.146080017 0.5849000216
 1030.5776367 18.892700195 18.892700195  -999.250000 1.9836000204 83.910301208 158.07679749 0.7766000032 23.916559219 0.5841000080
 1030.7299805 18.956399918 18.956399918  -999.250000 1.9842000008 82.722801208 158.19299316 0.7925000191 23.711626053 0.5918999910
 1030.8824463 18.817399979 18.817399979  -999.250000 1.9809000492 82.339401245 158.80769348 0.8008999825 23.533418655 0.6007000208
 1031.0347900 18.512399673 18.512399673  -999.250000 1.9753999710 83.333702087 159.50318909 0.7955999970 23.396915436 0.6028000116
 1031.1871338 18.211999893 18.211999893  -999.250000 1.9725999832 84.593902588 159.84118652 0.7753000259 23.331178665 0.5950999856
 1031.3395996 18.070899963 18.070899963  -999.250000 1.9752000570 84.529197693 159.76399231 0.7484999895 23.335681915 0.5828999877
 1031.4919434 18.120500565 18.120500565  -999.250000 1.9831999540 82.291297913 159.43942261 0.7278000116 23.344234467 0.5724999905
 1031.6444092 18.225999832 18.225999832  -999.250000 1.9918999672 79.265899658 159.14979553 0.7193999887 23.258003235 0.5669999719
 1031.7967529 18.308399200 18.308399200  -999.250000 1.9968998432 77.446899414 159.03399658 0.7220000029 23.069684982 0.5684000254
 1031.9492188 18.362899780 18.362899780  -999.250000 1.9968998432 77.442703247 159.08650208 0.7247999907 22.837980270 0.5733000040
 1032.1015625 18.398199081 18.398199081  -999.250000 1.9910000563 78.987197876 159.43078613 0.7214999795 22.654180527 0.5781000257
 1032.2540283 18.434099197 18.434099197  -999.250000 1.9821000099 80.642303467 160.07470703 0.7171999812 22.576417923 0.5817999840
