# LAS format log file from PETREL
# Project units are specified as depth units
#==================================================================
~Version information
VERS.   2.0:
WRAP.   NO:
#==================================================================
~Well
STRT .m      2290.9255371 :
STOP .m      2985.5649414 :
STEP .m     0.00000000 :
NULL .        -999.250000 :
COMP.           : COMPANY
WELL.  7/4-3 Carlsberg   : WELL
FLD.            : FIELD
LOC.            : LOCATION
SRVC.           : SERVICE COMPANY
DATE.  2018-09-11 21:49:22   : Log Export Date {yyyy-MM-dd HH:mm:ss}
PROV.           : PROVINCE
UWI.   7/4-3   : UNIQUE WELL ID
API.            : API NUMBER
#==================================================================
~Curve
DEPT .m                   : DEPTH
CALI .in                  : CALI
BS .in                    : BS
ROP .m/h                  : ROP
DRHO .g/cm3               : DRHO
NPHI .m3/m3               : NPHI
RHOB .g/cm3               : RHOB
PEF .b/e                  : PEF
GR .gAPI                  : GR
DTC .us/ft                : DTC
DTS .us/ft                : DTS
RDEP .ohm.m               : RDEP
RMED .ohm.m               : RMED
~Parameter
#==================================================================
~Ascii
# ...
 2612.7941895 12.280899048 12.250000954 278082.28125 0.0256423987 0.1328099221 2.4668011665 5.9918828011 22.081399918 72.379203796 137.03430176 1.2850999832 1.2369053364
 2612.9467773 12.243900299 12.250000954 279713.40625 0.0306919869 0.1219174713 2.4921591282 6.4932985306 22.368700027 71.539001465 136.48680115 1.3440999985 1.2953072786
 2613.0991211 12.172299385 12.250000954 278246.46875 0.0238110591 0.1126148999 2.5124676228 6.0571012497 25.640499115 70.845703125 135.09109497 1.3557000160 1.2837187052
 2613.2514648 12.246998787 12.250000954 274595.65625 0.0188080128 0.1141974404 2.5039138794 5.8130903244 30.506299973 70.100502014 133.92019653 1.4163000584 1.3245344162
 2613.4038086 12.233900070 12.250000954 270507.87500 0.0237840004 0.1127047986 2.5011091232 6.0796432495 24.778499603 69.917098999 132.51119995 1.5240999460 1.4785058498
 2613.5563965 12.364799500 12.250000954 270238.56250 0.0266953520 0.1049125046 2.5052933693 6.3977909088 21.389400482 69.362602234 131.30340576 1.4940999746 1.4783010483
 2613.7087402 12.290499687 12.250000954 275945.65625 0.0369834937 0.1052993611 2.5211744308 6.7953624725 23.610900879 68.674301147 130.49929810 1.4579000473 1.4057164192
 2613.8610840 12.151300430 12.250000954 285275.18750 0.0238211546 0.1061985567 2.5083208084 6.2674484253 21.017700195 68.444602966 130.74839783 1.5521999598 1.4401445389
 2614.0134277 12.099499702 12.250000954 286534.21875 0.0188080128 0.1029052883 2.4990150928 5.9936380386 21.874599457 68.834999084 132.51759338 1.7487000227 1.6633417606
 2614.1657715 12.002900124 12.250000954 281446.06250 -0.015489920 0.0976169556 2.4745783806 5.3263411522 18.112300873 69.920700073 134.81199646 1.7410000563 1.7200191021
 2614.3183594 12.038800240 12.250000954 277329.93750 -0.013203846 0.0980991945 2.4948673248 5.5515351295 21.847000122 71.108703613 137.39869690 1.5089999437 1.4497342110
 2614.4707031 12.171601295 12.250000954 278502.75000 0.0072671478 0.1045895815 2.5190610886 5.7323107719 27.813899994 72.298797607 139.51440430 1.5275000334 1.4336251020
 2614.6230469 12.206500053 12.250000954 276810.21875 0.0218766034 0.1156822070 2.5220952034 6.0626702309 32.145698547 73.207801819 140.92370605 1.5391999483 1.4394905567
 2614.7753906 12.145899773 12.250000954 265963.00000 0.0187102407 0.1055326387 2.5131287575 5.8777952194 21.860900879 73.486602783 141.29760742 1.5483000278 1.4662142992
 2614.9279785 12.258399963 12.250000954 251976.37500 0.0247902256 0.1023051292 2.5327684879 6.5368413925 19.555000305 73.210601807 140.96949768 1.4929000139 1.4643032551
 2615.0803223 12.257499695 12.250000954 248342.12500 0.0258982386 0.1126833335 2.5259108543 6.4923729897 23.244300842 72.931900024 140.13879395 1.4125000238 1.3199317455
 2615.2326660 12.248700142 12.250000954 256553.14063 0.0247019231 0.1141975969 2.5097260475 6.0926413536 23.507900238 72.852500916 140.07200623 1.4844000340 1.3421640396
 2615.3850098 12.150300026 12.250000954 262175.21875 0.0212111995 0.1114089638 2.4983365536 5.9448723793 20.964000702 72.834602356 140.46539307 1.7101000547 1.6259889603
 2615.5375977 12.157799721 12.250000954 261520.85938 0.0216991995 0.1025142595 2.5291504860 5.9576783180 19.933599472 72.736297607 139.89379883 1.7309999466 1.7391198874
 2615.6899414 12.269098282 12.250000954 257443.70313 0.0188046470 0.1070926338 2.5246074200 5.9678835869 26.360700607 72.426200867 138.35020447 1.4690999985 1.4316937923
 2615.8422852 12.412599564 12.250000954 254350.39063 0.0323782042 0.1240727529 2.5149154663 6.6259436607 23.019800186 72.433998108 137.04829407 1.4469000101 1.3154857159
 2615.9946289 12.216899872 12.250000954 251075.20313 0.0453791693 0.1191080064 2.5322721004 6.9532766342 24.920700073 72.688102722 137.12319946 1.6383999586 1.5462293625
 2616.1469727 12.197600365 12.250000954 249663.78125 0.0229720008 0.1170067191 2.5149557590 6.1687202454 20.713699341 72.884201050 137.65460205 1.5703999996 1.5849769115
 2616.2995605 12.333299637 12.250000954 254345.65625 0.0222011209 0.1237891018 2.5105071068 6.1204733849 25.906099319 73.113601685 137.99319458 1.3135000467 1.3022539616
 2616.4519043 12.424200058 12.250000954 258616.54688 0.0339810923 0.1319868565 2.4959232807 6.4059419632 24.871000290 73.176597595 137.94940186 1.1676000357 1.1162978411
 2616.6042480 12.245400429 12.250000954 259772.85938 0.0343993604 0.1395878196 2.4819223881 6.3542833328 25.645999908 72.718498230 136.95849609 1.1822999716 1.1045185328
 2616.7565918 12.383500099 12.250000954 259944.10938 0.0225380808 0.1353137493 2.4649543762 6.0406064987 22.172100067 72.111099243 136.39950562 1.2673000097 1.2027844191
 2616.9091797 12.335599899 12.250000954 262883.84375 0.0358785279 0.1275124997 2.4813735485 6.9439487457 23.109100342 71.783897400 136.06889343 1.2530000210 1.2025009394
 2617.0615234 12.263600349 12.250000954 264187.81250 0.0343025625 0.1284983903 2.5047626495 6.6219191551 22.785800934 71.880302429 136.30870056 1.1878000498 1.1343094110
 2617.2138672 12.265500069 12.250000954 263077.53125 0.0223192293 0.1327931136 2.4833345413 6.1116180420 23.958299637 72.364898682 137.11810303 1.1181999445 1.0590206385
 2617.3662109 12.247500420 12.250000954 262869.68750 0.0250910409 0.1351923198 2.4765217304 6.0394287109 20.712999344 72.510299683 137.55799866 1.0965000391 1.0552117825
 2617.5187988 12.242299080 12.250000954 166325.18750 0.0238020830 0.1475801170 2.4714078903 5.9764003754 15.243700027 72.510398865 137.27420044 1.0835000277 1.0482112169
 2617.6711426 12.305800438 12.250000954 113318.50781 0.0236003213 0.1379155368 2.4685044289 6.1595058441 19.821100235 72.304000854 137.43069458 1.0724999905 1.0323255062
 2617.8234863 12.237099648 12.250000954 70086.617188 0.0286918264 0.1262187511 2.4767866135 6.2026314735 19.992799759 72.178596497 137.62699890 1.1469000578 1.0799236298
 2617.9758301 12.193600655 12.250000954 46525.984375 0.0201137811 0.1284963191 2.4700109959 6.0907797813 14.957300186 72.409103394 138.57820129 1.1806999445 1.1372082233
 2618.1281738 12.115301132 12.250000954 59775.589844 0.0180067196 0.1344808042 2.4751832485 5.9343018532 19.032499313 72.793601990 139.28669739 1.0918999910 1.0939391851
 2618.2807617 12.272500038 12.250000954 127818.89844 0.0099129807 0.1413889378 2.4556314945 5.4319052696 19.580799103 73.061996460 140.27839661 0.9585999846 0.9397472739
 2618.4331055 12.428601265 12.250000954 179313.78125 0.0281706732 0.1412003338 2.4505081177 6.0234494209 12.948800087 73.639503479 141.40440369 0.9774000049 0.9198315740
 2618.5854492 12.312499046 12.250000954 278280.68750 0.0335913450 0.1374060959 2.4514982700 6.1950263977 20.792100906 73.473098755 141.38760376 1.0819000006 1.0073595047
 2618.7377930 12.340800285 12.250000954 289068.90625 0.0320051201 0.1296249628 2.4686448574 6.2947807312 23.855899811 72.872398376 140.49909973 1.2477999926 1.1659911871
 2618.8903809 12.161600113 12.250000954 281684.65625 0.0347955115 0.1209139377 2.5083363056 6.5113530159 19.551799774 72.318000793 138.80130005 1.3026000261 1.2296985388
 2619.0427246 12.372199059 12.250000954 273981.50000 0.0267129801 0.1280884594 2.5066027641 6.3519563675 28.139400482 72.058799744 137.88859558 1.2621999979 1.2133264542
 2619.1950684 12.203800201 12.250000954 269594.90625 0.0269995201 0.1298971027 2.4862327576 6.2541565895 23.122900009 72.613601685 138.23710632 1.1815999746 1.1619824171
 2619.3474121 12.256698608 12.250000954 268981.90625 0.0149387196 0.1342859119 2.4514114857 5.9602432251 21.191900253 73.884498596 140.38270569 1.1297999620 1.1153495312
 2619.5000000 12.353899956 12.250000954 268921.65625 0.0250836536 0.1342001706 2.4515995979 6.2222781181 25.396900177 75.249900818 142.61340332 1.1631000042 1.1186944246
 2619.6523438 12.259799957 12.250000954 260396.46875 0.0364817306 0.1285091341 2.4848465919 6.8641705513 27.466999054 76.122703552 143.49879456 1.2769000530 1.1992706060
 2619.8046875 12.297599792 12.250000954 245838.20313 0.0299105756 0.1284001619 2.4960820675 6.7114472389 30.690500259 76.129898071 143.38870239 1.3481999636 1.2665921450
 2619.9570313 12.227101326 12.250000954 219191.34375 0.0311979167 0.1275014430 2.5145704746 6.5458655357 30.387500763 75.420700073 142.66700745 1.3393000364 1.2377464771
