# LAS format log file from PETREL
# Project units are specified as depth units
#==================================================================
~Version information
VERS.   2.0:
WRAP.   NO:
#==================================================================
~Well
STRT .m      871.77679443 :
STOP .m      3117.6955566 :
STEP .m     0.00000000 :
NULL .        -999.250000 :
COMP.           : COMPANY
WELL.  7/4-1   : WELL
FLD.            : FIELD
LOC.            : LOCATION
SRVC.           : SERVICE COMPANY
DATE.  2018-09-11 21:49:21   : Log Export Date {yyyy-MM-dd HH:mm:ss}
PROV.           : PROVINCE
UWI.   7/4-1   : UNIQUE WELL ID
API.            : API NUMBER
#==================================================================
~Curve
DEPT .m                   : DEPTH
DCAL .in                  : DCAL
CALI .in                  : CALI
NPHI .m3/m3               : NPHI
RHOB .g/cm3               : RHOB
GR .gAPI                  : GR
DTC .us/ft                : DTC
RDEP .ohm.m               : RDEP
SP .mV                    : SP
RMED .ohm.m               : RMED
~Parameter
#==================================================================
~Ascii
# ...
 1315.8703613 18.679599762 18.679599762  -999.250000 1.8605999947 72.247497559 158.21049500 0.9542000294 22.389923096 0.7243999839
 1316.0228271 18.223100662 18.223100662  -999.250000 1.8624000549 74.084396362 157.93620300 0.9485999942 22.345323563 0.7217000127
 1316.1751709 17.843200684 17.843200684  -999.250000 1.8818000555 75.453300476 157.25280762 0.9261000156 22.375276566 0.7016000152
 1316.3275146 17.669399261 17.669399261  -999.250000 1.9128999710 76.202003479 156.28509521 0.8956000209 22.391107559 0.6786999702
 1316.4799805 17.688600540 17.688600540  -999.250000 1.9366999865 75.748596191 155.33039856 0.8679999709 22.345287323 0.6639999747
 1316.6323242 17.834800720 17.834800720  -999.250000 1.9344999790 73.719596863 154.62939453 0.8514000177 22.261184692 0.6575000286
 1316.7847900 18.073099136 18.073099136  -999.250000 1.9027999640 70.651901245 154.28588867 0.8503000140 22.198015213 0.6567000151
 1316.9371338 18.352600098 18.352600098  -999.250000 1.8647999763 67.915603638 154.28300476 0.8590999842 22.175762177 0.6596000195
 1317.0895996 18.654899597 18.654899597  -999.250000 1.8404999971 66.845001221 154.63450623 0.8659999967 22.084619522 0.6606000066
 1317.2419434 18.993999481 18.993999481  -999.250000 1.8303999901 67.339202881 155.29010010 0.8655999899 21.620494843 0.6607000232
 1317.3944092 19.379400253 19.379400253  -999.250000 1.8358000517 68.706497192 156.23071289 0.8629000187 20.596050262 0.6700999737
 1317.5467529 19.700700760 19.700700760  -999.250000 1.8423999548 69.848503113 157.24609375 0.8629999757 19.340969086 0.6906999946
 1317.6992188 19.686000824 19.686000824  -999.250000 1.8398000002 70.252197266 158.07998657 0.8650000095 18.598796844 0.7092000246
 1317.8515625 19.326499939 19.326499939  -999.250000 1.8368999958 70.121803284 158.52929688 0.8641999960 18.498292923 0.7107999921
 1318.0040283 18.746400833 18.746400833  -999.250000 1.8363000154 69.584602356 158.26049805 0.8554000258 18.038614273 0.6905999780
 1318.1563721 18.248600006 18.248600006  -999.250000 1.8377000093 68.916801453 157.54570007 0.8435000181 16.658987045 0.6610000134
 1318.3087158 18.081699371 18.081699371  -999.250000 1.8430000544 68.433197021 156.94070435 0.8446999788 15.521192551 0.6299999952
 1318.4611816 18.261600494 18.261600494  -999.250000 1.8504999876 68.149902344 156.90960693 0.8698999882 15.867599487 0.6105999947
 1318.6135254 18.820400238 18.820400238  -999.250000 1.8555999994 67.771003723 157.52619934 0.9211000204 16.911462784 0.6262999773
 1318.7659912 19.599100113 19.599100113  -999.250000 1.8565000296 67.165199280 158.21800232 0.9792000055 17.354097366 0.6794999838
 1318.9183350 20.172700882 20.172700882  -999.250000 1.8540999889 66.502601624 158.25621033 1.0181000233 17.108316422 0.7462999821
 1319.0708008 20.085300446 20.085300446  -999.250000 1.8475999832 66.281303406 157.33020020 1.0176000595 16.850646973 0.7835999727
 1319.2231445 19.325199127 19.325199127  -999.250000 1.8363000154 66.699096680 155.79769897 0.9750999808 16.797218323 0.7651000023
 1319.3756104 18.415000916 18.415000916  -999.250000 1.8280999660 67.487800598 154.71130371 0.9132999778 16.705522537 0.6995999813
 1319.5279541 17.835500717 17.835500717  -999.250000 1.8324999809 68.233802795 154.84622192 0.8654999733 16.854980469 0.6197000146
 1319.6804199 17.680299759 17.680299759  -999.250000 1.8466000557 68.576797485 156.14869690 0.8580999970 17.789903641 0.5673999786
 1319.8327637 17.698999405 17.698999405  -999.250000 1.8545999527 68.458297729 157.76420593 0.8866999745 19.411226273 0.5677000284
 1319.9852295 17.730699539 17.730699539  -999.250000 1.8394000530 68.517303467 158.68690491 0.9258000255 21.027315140 0.6236000061
 1320.1375732 17.796100616 17.796100616  -999.250000 1.8165999651 69.361198425 158.41680908 0.9459000230 22.145328522 0.7006000280
 1320.2899170 17.987100601 17.987100601  -999.250000 1.8219000101 70.884498596 156.85789490 0.9296000004 22.599655151 0.7565000057
 1320.4423828 18.287500381 18.287500381  -999.250000 1.8595000505 72.251296997 154.79539490 0.8931000233 21.955244064 0.7732999921
 1320.5947266 18.592199326 18.592199326  -999.250000 1.9128999710 72.995498657 153.32141113 0.8646000028 20.428209305 0.7529000044
 1320.7471924 18.761299133 18.761299133  -999.250000 1.9606000185 73.162803650 152.99600220 0.8619999886 18.601640701 0.7236999869
 1320.8995361 18.747699738 18.747699738  -999.250000 1.9802999496 72.594596863 154.03529358 0.8920999765 16.988977432 0.7088999748
 1321.0520020 18.693599701 18.693599701  -999.250000 1.9688999653 71.482597351 155.60490417 0.9369999766 16.129716873 0.7124000192
 1321.2043457 18.621500015 18.621500015  -999.250000 1.9305000305 70.073898315 156.84240723 0.9778000116 16.077972412 0.7303000093
 1321.3568115 18.451700211 18.451700211  -999.250000 1.8890000582 69.106597900 157.20910645 0.9977999926 16.687938690 0.7481999993
 1321.5091553 18.162000656 18.162000656  -999.250000 1.8573000431 69.262001038 156.55039978 0.9858999848 17.691862106 0.7581999898
 1321.6616211 17.892499924 17.892499924  -999.250000 1.8521000147 70.519302368 155.56120300 0.9559000134 18.926231384 0.7630000114
 1321.8139648 17.772300720 17.772300720  -999.250000 1.8767000437 72.824897766 154.92341614 0.9286000133 20.104841232 0.7680000067
 1321.9664307 17.754400253 17.754400253  -999.250000 1.9098999500 75.817703247 154.80479431 0.9193999767 21.254501343 0.7753999829
 1322.1187744 17.719499588 17.719499588  -999.250000 1.9342000484 78.733299255 154.90550232 0.9279999733 22.322006226 0.7817000151
 1322.2712402 17.651599884 17.651599884  -999.250000 1.9429999590 80.834297180 154.78959656 0.9398999810 23.216270447 0.7827000022
 1322.4235840 17.604799271 17.604799271  -999.250000 1.9427000284 82.019798279 154.34809875 0.9452000260 23.941726685 0.7786999941
 1322.5759277 17.597900391 17.597900391  -999.250000 1.9414000511 82.712501526 153.79519653 0.9452999830 24.300764084 0.7749000192
 1322.7283936 17.600500107 17.600500107  -999.250000 1.9406001568 83.247001648 153.35679626 0.9467999935 24.268423080 0.7732999921
 1322.8807373 17.591100693 17.591100693  -999.250000 1.9378999472 83.583702087 153.14320374 0.9513999820 24.160230637 0.7702000141
 1323.0332031 17.573900223 17.573900223  -999.250000 1.9321999550 83.392601013 153.21530151 0.9559000134 24.125123978 0.7616999745
 1323.1855469 17.563299179 17.563299179  -999.250000 1.9247000217 82.890701294 153.75619507 0.9567999840 24.163311005 0.7484999895
 1323.3380127 17.567100525 17.567100525  -999.250000 1.9185999632 82.613098145 154.79750061 0.9538000226 24.268039703 0.7353000045
 1323.4903564 17.583499908 17.583499908  -999.250000 1.9175000191 82.394996643 156.11549377 0.9491000175 24.414798737 0.7238000035
 1323.6428223 17.602199554 17.602199554  -999.250000 1.9220000505 82.029403687 157.13348389 0.9456999898 24.580701828 0.7111999989
 1323.7951660 17.636899948 17.636899948  -999.250000 1.9304000139 81.541801453 157.25239563 0.9473999739 24.737396240 0.6980999708
 1323.9476318 17.702999115 17.702999115  -999.250000 1.9345999956 81.134101868 156.65350342 0.9545999765 24.874515533 0.6905000210
 1324.0999756 17.791400909 17.791400909  -999.250000 1.9246000051 80.741996765 155.86929321 0.9657999873 24.997314453 0.6955999732
 1324.2524414 17.903499603 17.903499603  -999.250000 1.9113999605 79.880096436 155.52600098 0.9750999808 25.080556870 0.7089999914
 1324.4047852 18.162700653 18.162700653  -999.250000 1.9047000408 78.765701294 155.80290222 0.9758999944 25.092660904 0.7214000225
 1324.5571289 18.635900497 18.635900497  -999.250000 1.9027999640 78.208900452 156.14840698 0.9670000076 25.014350891 0.7228000164
 1324.7095947 19.139600754 19.139600754  -999.250000 1.9033000469 78.246696472 156.14680481 0.9477999806 24.896587372 0.7100999951
 1324.8619385 19.277200699 19.277200699  -999.250000 1.9067000151 77.998001099 155.91801453 0.9236000180 24.785703659 0.6930999756
 1325.0144043 18.849899292 18.849899292  -999.250000 1.9163999557 76.858497620 155.84550476 0.8986999989 24.712835312 0.6809999943
 1325.1667480 18.200399399 18.200399399  -999.250000 1.9285999537 75.368896484 156.14579773 0.8804000020 24.677961349 0.6744999886
