# LAS format log file from PETREL
# Project units are specified as depth units
#==================================================================
~Version information
VERS.   2.0:
WRAP.   NO:
#==================================================================
~Well
STRT .m      871.77679443 :
STOP .m      3117.6955566 :
STEP .m     0.00000000 :
NULL .        -999.250000 :
COMP.           : COMPANY
WELL.  7/4-1   : WELL
FLD.            : FIELD
LOC.            : LOCATION
SRVC.           : SERVICE COMPANY
DATE.  2018-09-11 21:49:21   : Log Export Date {yyyy-MM-dd HH:mm:ss}
PROV.           : PROVINCE
UWI.   7/4-1   : UNIQUE WELL ID
API.            : API NUMBER
#==================================================================
~Curve
DEPT .m                   : DEPTH
DCAL .in                  : DCAL
CALI .in                  : CALI
NPHI .m3/m3               : NPHI
RHOB .g/cm3               : RHOB
GR .gAPI                  : GR
DTC .us/ft                : DTC
RDEP .ohm.m               : RDEP
SP .mV                    : SP
RMED .ohm.m               : RMED
~Parameter
#==================================================================
~Ascii
# ...
 1769.4128418 18.415100098 18.415100098  -999.250000 2.1382000446 85.243202209 143.50610352 0.6309999824 8.3289718628 0.5387042165
 1769.5651855 18.377199173 18.377199173  -999.250000 2.1347999573 83.391998291 144.24499512 0.6190000176 8.4970769882 0.5336040854
 1769.7175293 18.302099228 18.302099228  -999.250000 2.1326999664 81.850502014 144.90980530 0.6097999811 8.5093984604 0.5284083486
 1769.8699951 18.220899582 18.220899582  -999.250000 2.1310000420 81.428703308 145.44470215 0.6035000086 8.4141426086 0.5239999890
 1770.0223389 18.153900146 18.153900146  -999.250000 2.1271998882 82.327903748 146.00920105 0.5996000171 8.3217191696 0.5221999884
 1770.1748047 18.137899399 18.137899399  -999.250000 2.1199998856 84.039901733 146.72880554 0.5971999764 8.2708377838 0.5243999958
 1770.3271484 18.197200775 18.197200775  -999.250000 2.1103999615 85.614898682 147.38580322 0.5956000090 8.2400159836 0.5307999849
 1770.4796143 18.279499054 18.279499054  -999.250000 2.1026000977 86.089698792 147.51370239 0.5960999727 8.2215509415 0.5389000177
 1770.6319580 18.308700562 18.308700562  -999.250000 2.1008999348 85.553100586 146.74740601 0.6000000238 8.2355480194 0.5447000265
 1770.7844238 18.270799637 18.270799637  -999.250000 2.1073999405 84.916297913 144.90420532 0.6065000296 8.2818183899 0.5454999804
 1770.9367676 18.221799850 18.221799850  -999.250000 2.1184000969 84.791099548 142.46099854 0.6129000187 8.3076181412 0.5436000228
 1771.0892334 18.194000244 18.194000244  -999.250000 2.1277000904 84.959396362 140.32249451 0.6173999906 8.2553720474 0.5447999835
 1771.2415771 18.159500122 18.159500122  -999.250000 2.1319000721 84.909400940 139.16419983 0.6215000153 8.1112117767 0.5525000095
 1771.3940430 18.106000900 18.106000900  -999.250000 2.1324000359 85.116600037 139.27799988 0.6268000007 7.9470810890 0.5626999736
 1771.5463867 18.082500458 18.082500458  -999.250000 2.1343998909 86.368797302 140.06669617 0.6322000027 7.8385171890 0.5666999817
 1771.6987305 18.132900238 18.132900238  -999.250000 2.1403999329 88.393302917 140.92999268 0.6371999979 7.7798209190 0.5598999858
 1771.8511963 18.222200394 18.222200394  -999.250000 2.1459999084 89.264602661 141.60569763 0.6442999840 7.7264328003 0.5518000126
 1772.0035400 18.295600891 18.295600891  -999.250000 2.1466999054 87.200500488 142.22279358 0.6567999721 7.6666321754 0.5551000237
 1772.1560059 18.327600479 18.327600479  -999.250000 2.1440999508 83.558403015 142.86830139 0.6719999909 7.6471304893 0.5683000088
 1772.3083496 18.315000534 18.315000534  -999.250000 2.1419999599 80.860298157 143.26269531 0.6843000054 7.6841759682 0.5807999969
 1772.4608154 18.279600143 18.279600143  -999.250000 2.1415998936 80.505096436 143.11099243 0.6916000247 7.7580480576 0.5837000012
 1772.6131592 18.243099213 18.243099213  -999.250000 2.1410999298 82.239501953 142.38439941 0.6955999732 7.8197474480 0.5763999820
 1772.7656250 18.245500565 18.245500565  -999.250000 2.1393001080 84.013000488 141.63490295 0.6995000243 7.8336033821 0.5659000278
 1772.9179688 18.326200485 18.326200485  -999.250000 2.1375999451 84.300399780 141.28480530 0.7034000158 7.8036794662 0.5559999943
 1773.0704346 18.480600357 18.480600357  -999.250000 2.1372001171 83.090103149 141.29800415 0.7050999999 7.7269220352 0.5485000014
 1773.2227783 18.676399231 18.676399231  -999.250000 2.1373000145 81.058502197 141.40629578 0.7027000189 7.6089510918 0.5418999791
 1773.3752441 18.853099823 18.853099823  -999.250000 2.1372001171 79.180801392 141.44450378 0.6970000267 7.4765172005 0.5335999727
 1773.5275879 18.986200333 18.986200333  -999.250000 2.1373000145 77.719902039 141.61480713 0.6908000112 7.3636665344 0.5241000056
 1773.6799316 19.089899063 19.089899063  -999.250000 2.1393001080 76.307701111 142.35800171 0.6876000166 7.2955970764 0.5194000006
 1773.8323975 19.140699387 19.140699387  -999.250000 2.1454999447 74.726898193 143.73399353 0.6888999939 7.3141818047 0.5252000093
 1773.9847412 19.037200928 19.037200928  -999.250000 2.1526999474 73.658996582 145.25799561 0.6917999983 7.4226789474 0.5414999723
 1774.1372070 18.744100571 18.744100571  -999.250000 2.1521999836 73.788398743 146.35899353 0.6902999878 7.5635347366 0.5601000190
 1774.2895508 18.334199905 18.334199905  -999.250000 2.1372001171 75.068298340 146.94740295 0.6818000078 7.6306762695 0.5722000003
 1774.4420166 17.980499268 17.980499268  -999.250000 2.1161999702 76.498298645 147.22929382 0.6697000265 7.5433650017 0.5763999820
 1774.5943604 17.849500656 17.849500656  -999.250000 2.1048998833 77.825302124 147.03210449 0.6571999788 7.3735227585 0.5727000237
 1774.7468262 17.910200119 17.910200119  -999.250000 2.1085999012 79.696701050 146.20390320 0.6467999816 7.2461910248 0.5633000135
 1774.8991699 18.043800354 18.043800354  -999.250000 2.1224000454 82.456199646 144.81660461 0.6395999789 7.2184410095 0.5503000021
 1775.0516357 18.110200882 18.110200882  -999.250000 2.1342000961 85.077201843 143.65550232 0.6355000138 7.2815995216 0.5389999747
 1775.2039795 18.055299759 18.055299759  -999.250000 2.1372001171 86.333801270 143.59539795 0.6373000145 7.3447275162 0.5371000171
 1775.3564453 17.957399368 17.957399368  -999.250000 2.1345999241 86.716003418 144.35569763 0.6442000270 7.3589916229 0.5454999804
 1775.5087891 17.906400681 17.906400681  -999.250000 2.1322000027 86.597602844 144.61090088 0.6524999738 7.3750600815 0.5625000000
 1775.6612549 17.939399719 17.939399719  -999.250000 2.1352000237 86.017196655 142.96690369 0.6565999985 7.4763188362 0.5802999735
 1775.8135986 18.006599426 18.006599426  -999.250000 2.1436998844 84.940803528 139.31019592 0.6539000273 7.6807069778 0.5921999812
 1775.9659424 18.018699646 18.018699646  -999.250000 2.1517999172 84.071502686 135.74920654 0.6485999823 7.9471993446 0.5957000256
 1776.1184082 17.919599533 17.919599533  -999.250000 2.1535000801 84.099998474 134.66270447 0.6468999982 8.1749362946 0.5928999782
 1776.2707520 17.759799957 17.759799957  -999.250000 2.1486999989 85.117599487 136.72380066 0.6510000229 8.2892885208 0.5888000131
 1776.4232178 17.670200348 17.670200348  -999.250000 2.1422998905 86.621002197 140.64169312 0.6596999764 8.2827072144 0.5859000087
 1776.5755615 17.738100052 17.738100052  -999.250000 2.1394000053 87.888099670 144.20930481 0.6697999835 8.1770658493 0.5852000117
 1776.7280273 17.890899658 17.890899658  -999.250000 2.1394000053 88.748901367 146.18539429 0.6773999929 8.0195894241 0.5881000161
 1776.8803711 18.012100220 18.012100220  -999.250000 2.1396999359 89.151802063 146.47599792 0.6780999899 7.8517966270 0.5949000120
 1777.0328369 18.080999374 18.080999374  -999.250000 2.1401000023 89.241401672 145.85139465 0.6722999811 7.6899189949 0.6015999913
 1777.1851807 18.108900070 18.108900070  -999.250000 2.1431000233 89.325798035 144.82760620 0.6649000049 7.5365571976 0.5989000201
 1777.3376465 18.100099564 18.100099564  -999.250000 2.1493999958 89.674003601 143.76100159 0.6621999741 7.3760333061 0.5842000246
 1777.4899902 18.032300949 18.032300949  -999.250000 2.1538999081 90.144996643 143.32200623 0.6697999835 7.1996116638 0.5659999847
 1777.6424561 17.951499939 17.951499939  -999.250000 2.1498000622 90.053298950 143.75439453 0.6844999790 7.0330924988 0.5593000054
 1777.7947998 17.938199997 17.938199997  -999.250000 2.1359999180 88.927001953 144.63229370 0.6981999874 6.9137783051 0.5717999935
 1777.9471436 17.974700928 17.974700928  -999.250000 2.1233999729 87.634300232 144.93229675 0.7042999864 6.8402352333 0.5885000229
 1778.0996094 18.001300812 18.001300812  -999.250000 2.1229999065 87.410697937 144.12469482 0.6998000145 6.7790646553 0.5888000131
 1778.2519531 18.033300400 18.033300400  -999.250000 2.1305000782 88.143402100 143.08079529 0.6916000247 6.7434468269 0.5738999844
 1778.4044189 18.103000641 18.103000641  -999.250000 2.1356000900 89.129798889 142.75430298 0.6863999963 6.7804164886 0.5576000214
 1778.5567627 18.179300308 18.179300308  -999.250000 2.1333999634 89.326103210 143.06820679 0.6858000159 6.9366793633 0.5509999990
 1778.7092285 18.220199585 18.220199585  -999.250000 2.1273999214 88.028503418 143.38960266 0.6873000264 7.1634712219 0.5521000028
