# LAS format log file from PETREL
# Project units are specified as depth units
#==================================================================
~Version information
VERS.   2.0:
WRAP.   NO:
#==================================================================
~Well
STRT .m      2290.9255371 :
STOP .m      2985.5649414 :
STEP .m     0.00000000 :
NULL .        -999.250000 :
COMP.           : COMPANY
WELL.  7/4-3 Carlsberg   : WELL
FLD.            : FIELD
LOC.            : LOCATION
SRVC.           : SERVICE COMPANY
DATE.  2018-09-11 21:49:22   : Log Export Date {yyyy-MM-dd HH:mm:ss}
PROV.           : PROVINCE
UWI.   7/4-3   : UNIQUE WELL ID
API.            : API NUMBER
#==================================================================
~Curve
DEPT .m                   : DEPTH
CALI .in                  : CALI
BS .in                    : BS
ROP .m/h                  : ROP
DRHO .g/cm3               : DRHO
NPHI .m3/m3               : NPHI
RHOB .g/cm3               : RHOB
PEF .b/e                  : PEF
GR .gAPI                  : GR
DTC .us/ft                : DTC
DTS .us/ft                : DTS
RDEP .ohm.m               : RDEP
RMED .ohm.m               : RMED
~Parameter
#==================================================================
~Ascii
# ...
 2473.8054199 12.379400253 12.250000954 164603.15625 0.0375961587 0.0882993564 2.5165967941 6.7075333595 18.498561859 68.982902527 129.99330139 1.3810290098 1.2456823587
 2473.9580078 12.215199471 12.250000954 151463.39063 0.0344051309 0.0820000023 2.5065000057 6.4777002335 25.544799805 69.523101807 131.53860474 1.5582000017 1.3496999741
 2474.1103516 12.165599823 12.250000954 130722.04688 0.0203225967 0.0876000002 2.5069999695 6.4120998383 20.500400543 69.466102600 131.08270264 1.7630000114 1.6399999857
 2474.2626953 12.327199936 12.250000954 109135.03906 0.0265899040 0.1011782363 2.5326590538 6.5857214928 16.565305710 69.403701782 130.91099548 1.7458275557 1.6644607782
 2474.4150391 12.239200592 12.250000954 92064.562500 0.0308931079 0.1088876650 2.5308032036 6.7613186836 17.341144562 69.125801086 130.35209656 1.5157692432 1.4684146643
 2474.5673828 12.282499313 12.250000954 110704.72656 0.0274112001 0.0981173068 2.5106325150 6.3931913376 21.568515778 68.798301697 130.28889465 1.3204128742 1.1699784994
 2474.7199707 12.255100250 12.250000954 173133.06250 0.0268009603 0.0922999978 2.4983999729 6.4931001663 26.143199921 68.836601257 131.94779968 1.5300999880 1.3975000381
 2474.8723145 12.252499580 12.250000954 183073.23438 0.0277983975 0.0938974395 2.5149736404 6.3783841133 18.692239761 69.071098328 133.25570679 1.6725716591 1.5569444895
 2475.0246582 12.281800270 12.250000954 182068.10938 0.0318934284 0.1029854193 2.5212900639 6.6908979416 19.994190216 69.447097778 132.85240173 1.6356595755 1.5380307436
 2475.1770020 12.332401276 12.250000954 181974.81250 0.0306041595 0.1178761199 2.5178058147 6.7656807899 21.920711517 69.857299805 132.05119324 1.4717630148 1.4180924892
 2475.3295898 12.348400116 12.250000954 182709.45313 0.0307000000 0.1077999994 2.4951000214 6.7074999809 27.319700241 69.824401855 131.34860229 1.1773999929 1.0792000294
 2475.4819336 12.252900124 12.250000954 182394.09375 0.0270000007 0.0992999971 2.4790999889 6.4281001091 23.879100800 69.402297974 130.89039612 1.2288000584 1.0880999565
 2475.6342773 12.203201294 12.250000954 180488.96875 0.0286972802 0.1034932807 2.4941759109 6.4677367210 20.329887390 69.727798462 132.67289734 1.3718707561 1.2684110403
 2475.7866211 12.276201248 12.250000954 179737.79688 0.0258046482 0.1052971184 2.5084772110 6.4506278038 17.450014114 70.941703796 134.32539368 1.4058458805 1.2743908167
 2475.9392090 12.295800209 12.250000954 180546.84375 0.0272999983 0.1023999974 2.5016999245 6.4475002289 17.663799286 71.597602844 137.42559814 1.4036999941 1.2618000507
 2476.0915527 12.318400383 12.250000954 181466.92188 0.0272999983 0.1028999984 2.4937000275 6.3309001923 13.185899734 72.099296570 139.58160400 1.3402999640 1.2328000069
 2476.2438965 12.319998741 12.250000954 182284.25000 0.0313934386 0.1039982438 2.5078773499 6.5378680229 17.529140472 72.197700500 142.65980530 1.3046571016 1.1979558468
 2476.3962402 12.184100151 12.250000954 182163.76563 0.0232131407 0.0991078541 2.5003120899 6.1898593903 24.496028900 72.864700317 146.25570679 1.3172795773 1.2015939951
 2476.5488281 12.237799644 12.250000954 183051.95313 0.0207000002 0.0971999988 2.4965999126 6.1508998871 19.138200760 73.468399048 147.34860229 1.4048999548 1.2743999958
 2476.7011719 12.245301247 12.250000954 182466.14063 0.0245999992 0.1067000031 2.5053999424 6.3670001030 18.845399857 74.389297485 150.01589966 1.5019999743 1.4026000500
 2476.8535156 12.301099777 12.250000954 181893.31250 0.0280944016 0.1230737567 2.5033032894 6.6132054329 21.349887848 75.652809143 148.51469421 1.3997638226 1.3628636599
 2477.0058594 12.387800217 12.250000954 181620.46875 0.0334913470 0.1167102605 2.4857280254 6.6395583153 27.398500443 76.278602600 144.64089966 1.1384192705 1.0593869686
 2477.1582031 12.332100868 12.250000954 181463.39063 0.0397899039 0.1202942356 2.4960832596 7.1855235100 30.766799927 76.098205566 143.68879700 1.1838264465 1.1060242653
 2477.3107910 12.327199936 12.250000954 179405.92188 0.0344999991 0.1180000007 2.4981999397 6.9500999451 30.621700287 75.338905334 143.37579346 1.1445000172 1.0848000050
 2477.4631348 12.172499657 12.250000954 176199.21875 0.0282100812 0.1054201648 2.4898133278 6.2989435196 29.483200073 74.838493347 143.08790588 1.1282261610 0.9958425760
 2477.6154785 12.143099785 12.250000954 175316.92188 0.0171177890 0.1083951965 2.4827115536 5.9417715073 27.548700333 74.570396423 143.88870239 1.3190935850 1.1742134094
 2477.7678223 12.202199936 12.250000954 174465.35938 0.0194961540 0.1153887808 2.5029675961 6.0440349579 28.461500168 74.508300781 143.78950500 1.4021672010 1.2923109531
 2477.9204102 12.229698181 12.250000954 175815.35938 0.0222999994 0.1156999990 2.5083999634 6.1065001488 19.514200211 74.540199280 143.15849304 1.3403999805 1.2576999664
 2478.0727539 12.304200172 12.250000954 178870.85938 0.0249000005 0.1014000028 2.5039000511 6.0423998833 24.315700531 74.883598328 142.81370544 1.1202000380 1.0609999895
 2478.2250977 12.155501366 12.250000954 180946.06250 0.0255988799 0.1000022441 2.5118870735 6.3857498169 31.056100845 74.619003296 141.64939880 1.1764098406 1.0609000921
 2478.3774414 12.136300087 12.250000954 181360.62500 0.0152166672 0.1093849316 2.5106022358 6.2339444160 24.729999542 73.976600647 139.74409485 1.4351848364 1.3555270433
 2478.5300293 12.272598267 12.250000954 182809.82813 0.0199999996 0.1111999974 2.5127999783 5.9208002090 22.279300690 73.705001831 138.46730042 1.3917000294 1.3292000294
 2478.6823730 12.265100479 12.250000954 189220.85938 0.0251000002 0.1055999994 2.4993999004 5.9435000420 27.317800522 73.211997986 137.63560486 1.2592999935 1.1447000504
 2478.8347168 12.284100533 12.250000954 192912.98438 0.0256990399 0.1065983996 2.4959053993 6.0654044151 25.630800247 72.677101135 137.22070313 1.3208013773 1.1916247606
 2478.9870605 12.196800232 12.250000954 190335.84375 0.0263988785 0.1061008051 2.4939031601 6.2149600983 24.785400391 71.877197266 137.08509827 1.3641306162 1.2504057884
 2479.1394043 12.199800491 12.250000954 187096.06250 0.0198105760 0.1026056111 2.4941995144 6.0711312294 23.395999908 71.632499695 138.18960571 1.3669954538 1.2594856024
 2479.2919922 12.259499550 12.250000954 186040.15625 0.0223999992 0.1023999974 2.5004999638 6.1786999702 20.565599442 72.067901611 138.76029968 1.4112999439 1.2941000462
 2479.4443359 12.267500877 12.250000954 187194.09375 0.0234982390 0.1050956771 2.5040943623 6.0941352844 23.960100174 72.656799316 139.36030579 1.4652135372 1.3571989536
 2479.5966797 12.291899681 12.250000954 188640.93750 0.0273937508 0.0989099368 2.5066959858 6.3477926254 18.346500397 72.837799072 139.00630188 1.4282594919 1.3058824539
 2479.7490234 12.239600182 12.250000954 189523.23438 0.0291971155 0.0968033671 2.5132894516 6.5399918556 22.597200394 72.478797913 137.94419861 1.4293980598 1.3191785812
 2479.9016113 12.198300362 12.250000954 191141.34375 0.0189999994 0.0938000008 2.5088000298 6.1352000237 22.824399948 71.974502563 136.98339844 1.5480999947 1.4383000135
 2480.0539551 12.255499840 12.250000954 193295.67188 0.0272000004 0.0935999975 2.5292999744 6.3193001747 21.523000717 71.317001343 135.50720215 1.6289999485 1.5219999552
 2480.2062988 12.197798729 12.250000954 194507.46875 0.0267007984 0.0956966430 2.5284013748 6.2487130165 20.574499130 70.683296204 133.89019775 1.6582531929 1.5342803001
 2480.3586426 12.324298859 12.250000954 178648.81250 0.0199108981 0.0922056139 2.5148217678 6.0783734322 24.298099518 69.762802124 132.63510132 1.6436235905 1.5419876575
 2480.5112305 12.183600426 12.250000954 151926.37500 0.0295000002 0.0935000032 2.5257999897 6.2744998932 20.610799789 69.130500793 132.56579590 1.5513000488 1.3631999493
 2480.6635742 12.102600098 12.250000954 111614.17188 0.0103000002 0.1002999991 2.5167996883 5.5504999161 18.857700348 69.340797424 134.67759705 1.7006000280 1.5414999723
 2480.8159180 12.165800095 12.250000954 69751.179688 0.0148926396 0.1136785597 2.5302782059 5.6093053818 15.881999969 70.222702026 139.75219727 1.7740821838 1.7298980951
 2480.9682617 12.180898666 12.250000954 98134.250000 0.0152993593 0.1212878153 2.5154237747 5.7089400291 16.085699081 71.267898560 144.30000305 1.5888974667 1.6143858433
