# LAS format log file from PETREL
# Project units are specified as depth units
#==================================================================
~Version information
VERS.   2.0:
WRAP.   NO:
#==================================================================
~Well
STRT .m      1845.0031738 :
STOP .m      3450.9943848 :
STEP .m     0.00000000 :
NULL .        -999.250000 :
COMP.           : COMPANY
WELL.  7/4-2 Brynhild Appr   : WELL
FLD.            : FIELD
LOC.            : LOCATION
SRVC.           : SERVICE COMPANY
DATE.  2018-09-11 21:49:22   : Log Export Date {yyyy-MM-dd HH:mm:ss}
PROV.           : PROVINCE
UWI.   7/4-2   : UNIQUE WELL ID
API.            : API NUMBER
#==================================================================
~Curve
DEPT .m                   : DEPTH
CALI .in                  : CALI
BS .in                    : BS
DRHO .g/cm3               : DRHO
THOR .ppm                 : THOR
NPHI .m3/m3               : NPHI
RHOB .g/cm3               : RHOB
PEF .b/e                  : PEF
GR .gAPI                  : GR
URAN .ppm                 : URAN
DTC .us/ft                : DTC
DTS .us/ft                : DTS
RDEP .ohm.m               : RDEP
RMED .ohm.m               : RMED
~Parameter
#==================================================================
~Ascii
# ...
 1958.9982910 12.443799973 12.250000954 0.0267003998  -999.250000 0.4932000041 2.2794013023 10.797906876 136.76016235  -999.250000 143.19259644 325.55291748 0.8609949350 0.8286868930
 1959.1507568 12.486200333 12.250000954 0.0281987991  -999.250000 0.4927999973 2.2825973034 11.521197319 131.44995117  -999.250000 143.13450623 326.26150513 0.8573029637 0.8449869752
 1959.3031006 12.556900024 12.250000954 0.0333958343  -999.250000 0.4860000014 2.2941906452 12.567833900 128.09518433  -999.250000 143.07310486 327.59823608 0.8436109424 0.8446003199
 1959.4555664 12.578100204 12.250000954 0.0346989594  -999.250000 0.4765999913 2.2995955944 12.376233101 126.47609711  -999.250000 143.13549805 328.13735962 0.8356063962 0.8265144825
 1959.6079102 12.627599716 12.250000954 0.0308031254  -999.250000 0.4720999897 2.3024976254 12.033136368 130.93553162  -999.250000 143.24989319 329.20831299 0.8070228696 0.7823354006
 1959.7603760 12.670100212 12.250000954 0.0272028819  -999.250000 0.4815999866 2.3020005226 12.554633141 133.59437561  -999.250000 143.28709412 329.73336792 0.7946099639 0.7581193447
 1959.9127197 12.740799904 12.250000954 0.0232032053  -999.250000 0.4905000031 2.3033988476 14.319228172 127.38428497  -999.250000 143.33380127 330.96853638 0.7578294873 0.7089393735
 1960.0650635 12.853899956 12.250000954 0.0214028824  -999.250000 0.4826999903 2.3015031815 14.388463020 126.06460571  -999.250000 143.29379272 332.00973511 0.7462186217 0.6894312501
 1960.2175293 12.882200241 12.250000954 0.0183024853  -999.250000 0.4912999868 2.2896094322 14.825944901 119.41653442  -999.250000 143.15310669 333.83355713 0.7418035269 0.6876014471
 1960.3698730 12.967000008 12.250000954 0.0182001609  -999.250000 0.5101000071 2.2829108238 13.928489685 115.31855774  -999.250000 142.91889954 334.04223633 0.7479900718 0.6920927763
 1960.5223389 12.959899902 12.250000954 0.0191992000  -999.250000 0.4797999859 2.2746067047 14.448893547 118.30230713  -999.250000 142.42979431 334.57574463 0.7615891099 0.7108849287
 1960.6746826 13.037699699 12.250000954 0.0219955165  -999.250000 0.4392000139 2.2861814499 14.783372879 121.29800415  -999.250000 141.80580139 335.88458252 0.7892556787 0.7760954499
 1960.8271484 12.995300293 12.250000954 0.0231990386  -999.250000 0.4393000007 2.2971911430 15.210330963 120.88363647  -999.250000 141.48869324 336.24038696 0.7898995280 0.7897890806
 1960.9794922 12.967000008 12.250000954 0.0255980771  -999.250000 0.4688000083 2.3156852722 14.022720337 122.83693695  -999.250000 140.81730652 334.76370239 0.7780095339 0.7595242858
 1961.1319580 12.889200211 12.250000954 0.0303961579  -999.250000 0.4878000021 2.3254921436 13.800069809 123.28564453  -999.250000 140.51429749 334.27633667 0.7710056305 0.7306231260
 1961.2843018 12.740799904 12.250000954 0.0440890230  -999.250000 0.4891000092 2.3432857990 14.198861122 127.34124756  -999.250000 140.23190308 335.80447388 0.7650048137 0.7042211890
 1961.4367676 12.740799904 12.250000954 0.0469976775  -999.250000 0.4893000126 2.3449985981 13.904191971 128.66044617  -999.250000 140.05900574 336.69052124 0.7674979568 0.7028011084
 1961.5891113 12.670100212 12.250000954 0.0434028842  -999.250000 0.4893000126 2.3337090015 13.526997566 128.50561523  -999.250000 139.24909973 340.22546387 0.7530116439 0.6720246673
 1961.7415771 12.627599716 12.250000954 0.0400027223  -999.250000 0.4717000127 2.3250069618 13.510617256 124.16886902  -999.250000 138.86839294 341.86807251 0.7419089079 0.6582110524
 1961.8939209 12.599399567 12.250000954 0.0327058472  -999.250000 0.4508000016 2.3047161102 12.898511887 125.14341736  -999.250000 138.73089600 341.85412598 0.7305091023 0.6642951369
 1962.0462646 12.599399567 12.250000954 0.0294052847  -999.250000 0.4578999877 2.2944164276 12.624630928 129.20738220  -999.250000 138.65289307 341.82174683 0.7402843237 0.6775787473
 1962.1987305 12.613499641 12.250000954 0.0301993601  -999.250000 0.4912999868 2.2918021679 13.072677612 124.26746368  -999.250000 137.74349976 339.75537109 0.7575861216 0.7318564653
 1962.3510742 12.599399567 12.250000954 0.0326959938  -999.250000 0.5023000240 2.3010852337 12.505888939 121.70320129  -999.250000 137.28869629 338.72116089 0.7642892599 0.7604542375
 1962.5035400 12.599399567 12.250000954 0.0336991996  -999.250000 0.4959000051 2.3221831322 10.070439339 121.99275970  -999.250000 137.21749878 333.53906250 0.7782887816 0.7149365544
 1962.6558838 12.599399567 12.250000954 0.0334004797  -999.250000 0.4781000018 2.3301870823 12.232699394 125.78501892  -999.250000 137.18699646 330.92782593 0.7712113857 0.6901397109
 1962.8083496 12.627599716 12.250000954 0.0333000869  -999.250000 0.4586000144 2.3399920464 13.453032494 128.71224976  -999.250000 136.54859924 330.20889282 0.7420234084 0.6659193635
 1962.9606934 12.670100212 12.250000954 0.0333999172  -999.250000 0.4596000016 2.3407993317 14.147983551 125.51916504  -999.250000 136.21850586 329.93493652 0.7388025522 0.6660998464
 1963.1131592 12.698300362 12.250000954 0.0339995213  -999.250000 0.4846999943 2.3299090862 14.692181587 123.17227936  -999.250000 135.03579712 334.87222290 0.7462939620 0.6883820891
 1963.2655029 12.698300362 12.250000954 0.0340999179  -999.250000 0.5019000173 2.3190088272 13.086162567 123.60404968  -999.250000 134.42770386 337.52020264 0.7653846741 0.7224727273
 1963.4179688 12.924599648 12.250000954 0.0321016014  -999.250000 0.4833999872 2.3019134998 14.725514412 119.95602417  -999.250000 134.19549561 342.62200928 0.7873823643 0.7723600864
 1963.5703125 12.995300293 12.250000954 0.0300016813  -999.250000 0.4523999989 2.3004012108 13.105804443 117.89215851  -999.250000 134.12449646 345.16766357 0.7935950756 0.8030753732
 1963.7227783 12.924599648 12.250000954 0.0272022430  -999.250000 0.4250000119 2.3065950871 14.452493668 117.85812378  -999.250000 134.52819824 346.60122681 0.7780125141 0.7677283883
 1963.8751221 12.945800781 12.250000954 0.0311967935  -999.250000 0.4490000010 2.3177909851 13.425332069 122.42784119  -999.250000 135.28500366 345.32604980 0.7409297228 0.7083476186
 1964.0274658 12.967000008 12.250000954 0.0320985578  -999.250000 0.4675000012 2.3179998398 14.578946114 117.15206909  -999.250000 135.90980530 342.74356079 0.7188354135 0.6740549207
 1964.1799316 12.924599648 12.250000954 0.0242063291  -999.250000 0.4939000010 2.2993149757 15.440891266 119.02558899  -999.250000 137.18699646 337.52996826 0.7068095803 0.6481207609
 1964.3322754 13.037699699 12.250000954 0.0189084858  -999.250000 0.5113999844 2.2868199348 15.671769142 117.42118073  -999.250000 137.85229492 334.88165283 0.7069997191 0.6568859220
 1964.4847412 12.853899956 12.250000954 0.0152029647  -999.250000 0.5191000104 2.2743101120 14.860431671 121.41429901  -999.250000 138.79389954 330.42526245 0.7252853513 0.6904730797
 1964.6370850 12.811499596 12.250000954 0.0164979175  -999.250000 0.4938000143 2.2759974003 13.946660042 124.19494629  -999.250000 138.85150146 329.08963013 0.7306913733 0.7083713412
 1964.7895508 12.882200241 12.250000954 0.0244935900  -999.250000 0.4648000002 2.2996809483 14.049306870 126.13664246  -999.250000 138.76379395 326.39028931 0.7325984240 0.7044032216
 1964.9418945 12.740799904 12.250000954 0.0297957528  -999.250000 0.4812000096 2.3183848858 14.608925819 127.66158295  -999.250000 138.47860718 325.00210571 0.7265048623 0.6824176311
 1965.0943604 12.627599716 12.250000954 0.0341964774  -999.250000 0.5148000121 2.3361856937 12.983117104 129.10015869  -999.250000 137.64909363 322.54876709 0.7285983562 0.6755055189
 1965.2467041 12.670100212 12.250000954 0.0326012820  -999.250000 0.5178999901 2.3311040401 12.433382988 124.63258362  -999.250000 136.88769531 321.74893188 0.7386918664 0.6903880835
 1965.3991699 12.627599716 12.250000954 0.0283034425  -999.250000 0.4697000086 2.3183102608 12.839995384 114.55886841  -999.250000 135.74310303 320.57885742 0.7653785944 0.7157796621
 1965.5515137 12.613499641 12.250000954 0.0284998398  -999.250000 0.4293999970 2.3209979534 11.757478714 119.00242615  -999.250000 135.74400330 320.63934326 0.7704958916 0.7597647309
