# LAS format log file from PETREL
# Project units are specified as depth units
#==================================================================
~Version information
VERS.   2.0:
WRAP.   NO:
#==================================================================
~Well
STRT .m      2290.9255371 :
STOP .m      2985.5649414 :
STEP .m     0.00000000 :
NULL .        -999.250000 :
COMP.           : COMPANY
WELL.  7/4-3 Carlsberg   : WELL
FLD.            : FIELD
LOC.            : LOCATION
SRVC.           : SERVICE COMPANY
DATE.  2018-09-11 21:49:22   : Log Export Date {yyyy-MM-dd HH:mm:ss}
PROV.           : PROVINCE
UWI.   7/4-3   : UNIQUE WELL ID
API.            : API NUMBER
#==================================================================
~Curve
DEPT .m                   : DEPTH
CALI .in                  : CALI
BS .in                    : BS
ROP .m/h                  : ROP
DRHO .g/cm3               : DRHO
NPHI .m3/m3               : NPHI
RHOB .g/cm3               : RHOB
PEF .b/e                  : PEF
GR .gAPI                  : GR
DTC .us/ft                : DTC
DTS .us/ft                : DTS
RDEP .ohm.m               : RDEP
RMED .ohm.m               : RMED
~Parameter
#==================================================================
~Ascii
# ...
 2795.6743164 8.5592002869 8.5000000000 47832.281250 0.0313003212 0.2424107492 2.5143988132 6.4739704132 109.92900085 91.524696350 182.72790527 0.9397000074 0.9343000054
 2795.8266602 8.5696001053 8.5000000000 48323.625000 0.0321971215 0.2453904003 2.5124063492 6.4335298538 108.38510132 91.476402283 184.35650635 0.9369000196 0.9316999912
 2795.9792480 8.5399999619 8.5000000000 48988.578125 0.0295043271 0.2447011173 2.4953274727 6.2859363556 108.22080231 91.503097534 184.86459351 0.9359999895 0.9312000275
 2796.1315918 8.5268001556 8.5000000000 50643.304688 0.0244081728 0.2427031994 2.4829196930 6.0027537346 106.25039673 91.326599121 183.50608826 0.9334999919 0.9226999879
 2796.2839355 8.5460996628 8.5000000000 53245.277344 0.0254982375 0.2453956753 2.4827003479 6.1743240356 103.37640381 91.191093445 181.27679443 0.9301000237 0.9120000005
 2796.4362793 8.6183996201 8.5000000000 54650.789063 0.0294872001 0.2498856038 2.4864878654 6.3815355301 97.723999023 91.194808960 180.31250000 0.9261999726 0.9190999866
 2796.5888672 8.6540002823 8.5000000000 54551.574219 0.0362891033 0.2488017529 2.4947867393 6.7870502472 98.681198120 91.071594238 180.65769958 0.9226999879 0.9258999825
 2796.7412109 8.6524000168 8.5000000000 54530.312500 0.0434884615 0.2440076917 2.5091769695 6.9704065323 104.38760376 90.970001221 179.50547791 0.9201999903 0.9247000217
 2796.8935547 8.6393995285 8.5000000000 54114.566406 0.0408043265 0.2433011234 2.5134930611 6.7613363266 105.51399994 90.846298218 178.45379639 0.9157000184 0.9190000296
 2797.0458984 8.6260004044 8.5000000000 52844.878906 0.0384038463 0.2483918369 2.5103051662 6.6783323288 101.42639923 90.950599670 179.43460083 0.9146000147 0.9200999737
 2797.1982422 8.5975999832 8.5000000000 52653.546875 0.0362070426 0.2479015887 2.5025250912 6.6757082939 103.01470184 90.944503784 178.69798279 0.9100999832 0.9197999835
 2797.3508301 8.6041002274 8.5000000000 53649.218750 0.0291113798 0.2430078536 2.4854273796 6.3376426697 104.14859772 90.827598572 177.09790039 0.9046999812 0.9054999948
 2797.5031738 8.6321001053 8.5000000000 54127.558594 0.0385847762 0.2477923036 2.4947850704 6.8181281090 97.751602173 90.890502930 177.12042236 0.8984000087 0.8973000050
 2797.6555176 8.6340999603 8.5000000000 53528.742188 0.0373020843 0.2444054484 2.4939014912 6.7120718956 103.16010284 91.007400513 178.70089722 0.8942999840 0.8946999907
 2797.8078613 8.6434001923 8.5000000000 53875.984375 0.0360041596 0.2471910417 2.4955945015 6.6377377510 104.41729736 91.190399170 178.53199768 0.8870999813 0.8855999708
 2797.9604492 8.5812997818 8.5000000000 54755.906250 0.0359001607 0.2504947186 2.4955999851 6.4901366234 101.76029968 91.349296570 180.80459595 0.8891999722 0.8772000074
 2798.1127930 8.5474996567 8.5000000000 55001.570313 0.0311076920 0.2552922964 2.4907078743 6.0889439583 100.98580170 91.648002625 182.87500000 0.8870999813 0.8756999969
 2798.2651367 8.5868997574 8.5000000000 55168.109375 0.0301016010 0.2585947216 2.4909994602 6.0367822647 103.07089996 91.791900635 182.12199402 0.8845999837 0.8748999834
 2798.4174805 8.5712995529 8.5000000000 55524.804688 0.0365792029 0.2578025758 2.4959840775 6.2077507973 106.21389771 91.552696228 180.51989746 0.8845000267 0.8639000058
 2798.5700684 8.5845003128 8.5000000000 56122.441406 0.0306096151 0.2582992017 2.4901094437 5.9015922546 108.30229950 91.283699036 177.21740723 0.8887000084 0.8665999770
 2798.7224121 8.5869998932 8.5000000000 56011.417969 0.0371894240 0.2572017610 2.5004832745 6.3120403290 106.41500092 91.037902832 176.97569275 0.8867999911 0.8805000186
 2798.8747559 8.5838003159 8.5000000000 55719.683594 0.0353030451 0.2525075376 2.4977045059 6.1255002022 99.685401917 90.626998901 176.85499573 0.8941000104 0.8916000128
 2799.0270996 8.5816001892 8.5000000000 54757.085938 0.0305076931 0.2507028878 2.4915099144 5.9816303253 100.40550232 90.637802124 177.41589355 0.8923000097 0.8996999860
 2799.1794434 8.5993995667 8.5000000000 53350.394531 0.0336897597 0.2460150421 2.4925963879 6.2976846695 97.689300537 90.780197144 179.98899841 0.8952999711 0.8949000239
 2799.3320313 8.5508003235 8.5000000000 51824.410156 0.0346983969 0.2420064062 2.4917013645 6.1371593475 102.70970154 90.927497864 178.64700317 0.8898000121 0.8838999867
 2799.4843750 8.5525999069 8.5000000000 50584.253906 0.0301073715 0.2467923164 2.4932973385 6.1168322563 102.71050262 91.024902344 177.60339355 0.8963000178 0.8851000071
 2799.6367188 8.5192003250 8.5000000000 49785.828125 0.0298004802 0.2491961569 2.4990906715 5.9852113724 100.87149811 90.962097168 178.10859680 0.8967000246 0.8963999748
 2799.7890625 8.5022001266 8.5000000000 48851.574219 0.0249156803 0.2520907223 2.4916241169 5.6574516296 96.244598389 90.852699280 176.24369812 0.8884999752 0.8963000178
 2799.9416504 8.5142002106 8.5000000000 48281.105469 0.0231028851 0.2449115366 2.4834132195 5.7324781418 99.398399353 91.046699524 177.45948792 0.8934000134 0.8902000189
 2800.0939941 8.5327997208 8.5000000000 48250.390625 0.0272932667 0.2487937510 2.4860956669 5.9331779480 101.15619659 91.380302429 178.53300476 0.8902999759 0.8978000283
 2800.2463379 8.5904998779 8.5000000000 48536.218750 0.0289972741 0.2477017641 2.4856007099 6.0260510445 103.19499969 91.655700684 179.85928345 0.8988000154 0.8888000250
 2800.3986816 8.6956996918 8.5000000000 49412.597656 0.0353795178 0.2422176003 2.4860982895 6.4980850220 109.14939880 91.761703491 182.04949951 0.9025999904 0.8754000068
 2800.5512695 8.7285003662 8.5000000000 49071.257813 0.0456834920 0.2517846227 2.4922900200 7.0469217300 107.80190277 91.958396912 183.30610657 0.9041000009 0.8804000020
 2800.7036133 8.7328996658 8.5000000000 48646.062500 0.0464987196 0.2521993518 2.4893047810 6.9933872223 102.09100342 92.087898254 183.99209595 0.9099000096 0.8934000134
 2800.8559570 8.6233997345 8.5000000000 49886.222656 0.0440040044 0.2516009510 2.4905979633 7.0690784454 98.481903076 92.039100647 182.81329346 0.9186999798 0.8985999823
 2801.0083008 8.6125001907 8.5000000000 50118.898438 0.0355136245 0.2507014275 2.4895017147 6.4997138977 103.00409698 91.999893188 180.77790833 0.9226999879 0.8992000222
 2801.1606445 8.6049995422 8.5000000000 48067.320313 0.0331076831 0.2483076751 2.4921913147 6.5510320663 106.32630157 91.980400085 182.63200378 0.9286999702 0.9081000090
 2801.3132324 8.6536998749 8.5000000000 45575.195313 0.0340983979 0.2508958280 2.4894044399 6.4301939011 102.49060059 91.888198853 183.56529236 0.9315000176 0.9236999750
 2801.4655762 8.6871995926 8.5000000000 46057.085938 0.0380935892 0.2492027283 2.4857058525 6.5847516060 102.95179749 91.928596497 182.54730225 0.9352999926 0.9341999888
 2801.6179199 8.6983995438 8.5000000000 48729.921875 0.0423931070 0.2479020804 2.4900927544 6.8573627472 105.15429688 91.957298279 183.92529297 0.9393000007 0.9358000159
 2801.7702637 8.7529001236 8.5000000000 50433.074219 0.0450913608 0.2474015951 2.4918942451 6.9302673340 106.17120361 91.928001404 183.95150757 0.9402999878 0.9358000159
 2801.9228516 8.6651000977 8.5000000000 50427.164063 0.0452996790 0.2454032004 2.4854104519 6.9052405357 104.86380005 92.038490295 183.94009399 0.9437999725 0.9326999784
 2802.0751953 8.5909004211 8.5000000000 50394.089844 0.0366139449 0.2436028868 2.4811069965 6.5509681702 99.514198303 92.357101440 185.92889404 0.9416000247 0.9169999957
 2802.2275391 8.6021003723 8.5000000000 50324.406250 0.0316080116 0.2453971058 2.4844944477 6.3030967712 95.906303406 92.769989014 185.54699707 0.9419000149 0.9064999819
 2802.3798828 8.5083999634 8.5000000000 49483.464844 0.0297060795 0.2414128035 2.4863936901 6.2008271217 99.385803223 92.760299683 183.89958191 0.9476000071 0.9121000171
 2802.5324707 8.5312995911 8.5000000000 48375.589844 0.0254068915 0.2481891066 2.4839041233 5.8231058121 101.33339691 92.554801941 181.21470642 0.9514999986 0.9253000021
 2802.6848145 8.5618000031 8.5000000000 47258.269531 0.0291939117 0.2489987165 2.4913880825 6.1939039230 103.62590027 92.296096802 180.51269531 0.9520000219 0.9358999729
 2802.8371582 8.5647001266 8.5000000000 47917.328125 0.0313964747 0.2507971227 2.4938960075 6.3479533195 105.89649963 91.810302734 179.26029968 0.9580000043 0.9405000210
