# LAS format log file from PETREL
# Project units are specified as depth units
#==================================================================
~Version information
VERS.   2.0:
WRAP.   NO:
#==================================================================
~Well
STRT .m      1845.0031738 :
STOP .m      3450.9943848 :
STEP .m     0.00000000 :
NULL .        -999.250000 :
COMP.           : COMPANY
WELL.  7/4-2 Brynhild Appr   : WELL
FLD.            : FIELD
LOC.            : LOCATION
SRVC.           : SERVICE COMPANY
DATE.  2018-09-11 21:49:22   : Log Export Date {yyyy-MM-dd HH:mm:ss}
PROV.           : PROVINCE
UWI.   7/4-2   : UNIQUE WELL ID
API.            : API NUMBER
#==================================================================
~Curve
DEPT .m                   : DEPTH
CALI .in                  : CALI
BS .in                    : BS
DRHO .g/cm3               : DRHO
THOR .ppm                 : THOR
NPHI .m3/m3               : NPHI
RHOB .g/cm3               : RHOB
PEF .b/e                  : PEF
GR .gAPI                  : GR
URAN .ppm                 : URAN
DTC .us/ft                : DTC
DTS .us/ft                : DTS
RDEP .ohm.m               : RDEP
RMED .ohm.m               : RMED
~Parameter
#==================================================================
~Ascii
# ...
 2475.3295898 12.393300056 12.250000954 0.0303000007  -999.250000 0.4018000066 2.4173998833 8.8983688354 71.433998108  -999.250000 128.89309692 327.76580811 0.4465999901 0.4575999975
 2475.4819336 12.373100281 12.250000954 0.0423000008  -999.250000 0.4034000039 2.4841001034 8.9913129807 82.503898621  -999.250000 129.62579346 332.93109131 0.4095999897 0.3795000017
 2475.6342773 12.373100281 12.250000954 0.0476913601  -999.250000 0.4065000117 2.5209407806 9.5983362198 82.720252991  -999.250000 130.09280396 335.44155884 0.4073036611 0.4078545570
 2475.7866211 12.373100281 12.250000954 0.0477998406  -999.250000 0.4063000083 2.5310838223 11.102781296 84.048873901  -999.250000 132.22610474 339.66839600 0.3847362101 0.3816421330
 2475.9392090 12.330699921 12.250000954 0.0417000018  -999.250000 0.4056999981 2.5000998974 10.599447250 87.501098633  -999.250000 133.28619385 341.87310791 0.3718000054 0.3434000015
 2476.0915527 12.373100281 12.250000954 0.0395999998  -999.250000 0.4415999949 2.4465000629 9.2448444366 85.402900696  -999.250000 135.28289795 347.83468628 0.3817999959 0.3700000048
 2476.2438965 12.373100281 12.250000954 0.0429945625  -999.250000 0.4675000012 2.4390118122 9.2613754272 85.201919556  -999.250000 136.26870728 350.76748657 0.3884892762 0.3961580694
 2476.3962402 12.415499687 12.250000954 0.0409033634  -999.250000 0.4857000113 2.4222269058 10.223194122 82.127639771  -999.250000 137.75340271 354.95639038 0.3854049742 0.3642512858
 2476.5488281 12.330699921 12.250000954 0.0368999988  -999.250000 0.4824000001 2.4038999081 8.2385654449 75.810096741  -999.250000 138.49580383 357.05859375 0.3910999894 0.3666999936
 2476.7011719 12.330699921 12.250000954 0.0394000001  -999.250000 0.4824000001 2.3884000778 7.8790831566 72.693199158  -999.250000 138.83720398 357.25753784 0.3882000148 0.3901000023
 2476.8535156 12.330699921 12.250000954 0.0424950421  -999.250000 0.4902999997 2.3986835480 8.3828468323 70.472358704  -999.250000 139.00790405 357.35675049 0.3880003393 0.3406792283
 2477.0058594 12.330699921 12.250000954 0.0413019210  -999.250000 0.4902000129 2.4209642410 8.3094358444 73.083801270  -999.250000 138.53460693 353.84625244 0.4159551263 0.3978081644
 2477.1582031 12.330699921 12.250000954 0.0385044888  -999.250000 0.4866999984 2.4199016094 8.3817329407 72.817535400  -999.250000 138.28799438 352.03948975 0.4319743812 0.4668892622
 2477.3107910 12.302399635 12.250000954 0.0322000012  -999.250000 0.4693000019 2.3819000721 9.3245964050 80.648902893  -999.250000 137.30209351 348.86288452 0.4408000112 0.4483999908
 2477.4631348 12.302399635 12.250000954 0.0339971222  -999.250000 0.4440999925 2.3666245937 8.4600067139 86.182533264  -999.250000 136.79670715 347.28952026 0.4240268767 0.3958841562
 2477.6154785 12.302399635 12.250000954 0.0423865356  -999.250000 0.4160999954 2.3841719627 8.3838653564 87.410842896  -999.250000 136.43009949 345.81375122 0.3969434202 0.3693424761
 2477.7678223 12.302399635 12.250000954 0.0402035229  -999.250000 0.4203000069 2.3950827122 9.1263637543 87.972900391  -999.250000 136.27169800 345.13946533 0.3938049674 0.3788846135
 2477.9204102 12.330699921 12.250000954 0.0313000008  -999.250000 0.4408999979 2.3810000420 8.7976818085 82.328002930  -999.250000 137.49819946 342.28240967 0.4066999853 0.3957999945
 2478.0727539 12.302399635 12.250000954 0.0386999995  -999.250000 0.4584999979 2.3833999634 8.9132452011 86.863296509  -999.250000 138.97239685 341.45138550 0.3968000114 0.3978999853
 2478.2250977 12.302399635 12.250000954 0.0422942415  -999.250000 0.4713000059 2.3988752365 9.1112194061 88.473220825  -999.250000 139.77799988 342.81658936 0.3906099200 0.3806276917
 2478.3774414 12.316200256 12.250000954 0.0363096148  -999.250000 0.4864999950 2.4114797115 8.7167825699 84.678993225  -999.250000 141.31919861 345.90121460 0.3602487147 0.3318782151
 2478.5300293 12.302399635 12.250000954 0.0295000002  -999.250000 0.4936999977 2.4000999928 9.3254394531 83.232299805  -999.250000 142.02630615 347.76901245 0.3610000014 0.3350000083
 2478.6823730 12.302399635 12.250000954 0.0190999992  -999.250000 0.5382000208 2.3469998837 8.8473701477 83.127403259  -999.250000 143.04510498 351.22680664 0.3734999895 0.3722000122
 2478.8347168 12.302399635 12.250000954 0.0205976013  -999.250000 0.5512999892 2.3254346848 8.6442747116 82.602836609  -999.250000 143.15699768 352.68478394 0.3734999895 0.3691049516
 2478.9870605 12.330699921 12.250000954 0.0310831722  -999.250000 0.4896000028 2.3268976212 8.9847278595 75.891876221  -999.250000 143.16160583 355.75628662 0.3808881342 0.3888682723
 2479.1394043 12.330699921 12.250000954 0.0343947113  -999.250000 0.4496000111 2.3408775330 8.9097127914 73.757308960  -999.250000 142.91780090 357.46786499 0.4021658897 0.4276378453
 2479.2919922 12.330699921 12.250000954 0.0362000018  -999.250000 0.4135000110 2.3773000240 9.1818370819 79.320098877  -999.250000 142.53169250 359.60580444 0.4122999907 0.4135999978
 2479.4443359 12.330699921 12.250000954 0.0341033600  -999.250000 0.4115999937 2.3938734531 9.1259975433 79.838371277  -999.250000 142.46690369 359.05676270 0.3953272104 0.3730649650
 2479.5966797 12.373100281 12.250000954 0.0255137812  -999.250000 0.4156000018 2.3971948624 9.5269060135 83.968971252  -999.250000 142.22790527 359.44515991 0.3614543378 0.3427485526
 2479.7490234 12.373100281 12.250000954 0.0225048084  -999.250000 0.4203999937 2.3842208385 12.299928665 87.134223938  -999.250000 141.95289612 361.75772095 0.3568073511 0.3455953598
 2479.9016113 12.428599358 12.250000954 0.0237000007  -999.250000 0.4280999899 2.3589000702 11.256886482 82.090599060  -999.250000 141.21629333 365.65478516 0.3617999852 0.3521000147
 2480.0539551 12.443799973 12.250000954 0.0271000005  -999.250000 0.4356999993 2.3552999496 12.099606514 83.188903809  -999.250000 140.54620361 366.40774536 0.3718999922 0.3643000126
 2480.2062988 12.443799973 12.250000954 0.0388811193  -999.250000 0.4419000149 2.3795611858 12.358502388 82.627601624  -999.250000 139.16200256 367.63134766 0.4122353494 0.4235050976
 2480.3586426 12.443799973 12.250000954 0.0467873402  -999.250000 0.4361999929 2.4079544544 12.271516800 80.597755432  -999.250000 138.38870239 367.72476196 0.4199876487 0.4118189216
 2480.5112305 12.443799973 12.250000954 0.0511000007  -999.250000 0.4255000055 2.4481000900 11.449886322 79.386703491  -999.250000 136.99139404 367.41848755 0.3752000034 0.3777000010
 2480.6635742 12.443799973 12.250000954 0.0474000014  -999.250000 0.4262000024 2.4484000206 11.039878845 78.385299683  -999.250000 136.61520386 366.20870972 0.3847999871 0.3944999874
 2480.8159180 12.486200333 12.250000954 0.0465014428  -999.250000 0.4284000099 2.4406123161 11.649478912 82.900169373  -999.250000 135.94590759 363.65048218 0.4173478484 0.4304423928
 2480.9682617 12.514499664 12.250000954 0.0484967977  -999.250000 0.4316999912 2.4389026165 11.844780922 83.071342468  -999.250000 135.82339478 362.00622559 0.4202953577 0.4153243601
 2481.1206055 12.599399567 12.250000954 0.0445064120  -999.250000 0.4596999884 2.4222266674 12.277409554 83.843063354  -999.250000 135.74600220 360.33929443 0.4058232605 0.4111067355
 2481.2731934 12.670100212 12.250000954 0.0388000049  -999.250000 0.4595000148 2.4079999924 11.881072998 78.456298828  -999.250000 136.69740295 368.60641479 0.3946000040 0.4005999863
 2481.4255371 12.698300362 12.250000954 0.0409964807  -999.250000 0.4433999956 2.4228761196 11.890629768 79.423950195  -999.250000 137.25000000 373.53579712 0.3806224167 0.3698492944
 2481.5778809 12.718900681 12.250000954 0.0410000011  -999.250000 0.4363999963 2.4596412182 12.025015831 79.298004150  -999.250000 138.86329651 388.70349121 0.3749091625 0.3557225764
 2481.7302246 12.698300362 12.250000954 0.0356086530  -999.250000 0.4472999871 2.4538094997 12.380722046 81.171295166  -999.250000 139.58799744 395.39819336 0.3772961497 0.3620897532
 2481.8828125 12.740799904 12.250000954 0.0322999991  -999.250000 0.4562000036 2.4142999649 12.746461868 84.772201538  -999.250000 140.31019592 400.69580078 0.3923999965 0.4415999949
