# LAS format log file from PETREL
# Project units are specified as depth units
#==================================================================
~Version information
VERS.   2.0:
WRAP.   NO:
#==================================================================
~Well
STRT .m      871.77679443 :
STOP .m      3117.6955566 :
STEP .m     0.00000000 :
NULL .        -999.250000 :
COMP.           : COMPANY
WELL.  7/4-1   : WELL
FLD.            : FIELD
LOC.            : LOCATION
SRVC.           : SERVICE COMPANY
DATE.  2018-09-11 21:49:21   : Log Export Date {yyyy-MM-dd HH:mm:ss}
PROV.           : PROVINCE
UWI.   7/4-1   : UNIQUE WELL ID
API.            : API NUMBER
#==================================================================
~Curve
DEPT .m                   : DEPTH
DCAL .in                  : DCAL
CALI .in                  : CALI
NPHI .m3/m3               : NPHI
RHOB .g/cm3               : RHOB
GR .gAPI                  : GR
DTC .us/ft                : DTC
RDEP .ohm.m               : RDEP
SP .mV                    : SP
RMED .ohm.m               : RMED
~Parameter
#==================================================================
~Ascii
# ...
 3111.1423340 8.6887998581 8.6887998581 0.0007610000 3.0006999969 25.096900940 53.156299591 63.417598724 39.987400055 33.598999023
 3111.2946777 8.6983003616 8.6983003616 0.0134669999 2.9897000790 25.250900269 53.157501221 55.898300171 40.234153748 40.712699890
 3111.4472656 8.7114000320 8.7114000320 0.0464820005 2.9798998833 26.008199692 53.120601654 94.380897522 40.457923889 38.328300476
 3111.5996094 8.7249002457 8.7249002457 0.0457799993 2.9709000587 25.567600250 53.083698273 478.85528564 40.525569916 30.059700012
 3111.7519531 8.7322998047 8.7322998047 0.0450780019 2.9649999142 25.754699707 53.037601471 1931.0798340 40.485282898 22.531200409
 3111.9042969 8.7348003387 8.7348003387 0.0443749987 2.9656999111 24.129600525 52.970100403 4351.9238281 40.515754700 20.035900116
 3112.0568848 8.7370004654 8.7370004654 0.0436730012 2.9746999741 26.281999588 52.845798492 7048.6865234 40.695262909 21.115699768
 3112.2092285 8.7337999344 8.7337999344 0.0429710001 2.9856998920 27.325599670 52.648002625 8841.0527344 40.904212952 21.163099289
 3112.3615723 8.7122001648 8.7122001648 0.0431279987 2.9942998886 24.945899963 52.388198853 9221.0488281 40.978214264 18.595800400
 3112.5139160 8.6759004593 8.6759004593 0.0433949977 3.0009000301 24.691499710 52.154701233 8988.1757813 40.870670319 17.343799591
 3112.6665039 8.6436996460 8.6436996460 0.0436340012 3.0072000027 24.319299698 52.087303162 8743.1367188 40.613666534 24.588499069
 3112.8188477 8.6269998550 8.6269998550 0.0437580012 3.0137000084 23.658700943 52.211101532 8072.9628906 40.327743530 39.254901886
 3112.9711914 8.6120004654 8.6120004654 0.0438700020 3.0176000595 25.189699173 52.408702850 6381.4345703 40.207035065 50.650501251
 3113.1235352 8.5739002228 8.5739002228 0.0441580005 3.0179998875 25.745000839 52.532001495 3941.3642578 40.323089600 48.773799896
 3113.2758789 8.5124998093 8.5124998093 0.0446260013 3.0160000324 25.271999359 52.539001465 1733.8698730 40.492313385 36.311000824
 3113.4284668 8.4552001953 8.4552001953 0.0450700000 3.0137000084 25.881399155 52.496196747 559.21301270 40.540374756 24.871900558
 3113.5808105 8.4214000702 8.4214000702 0.0453340001 3.0134000778 24.950199127 52.501998901 197.42720032 40.553977966 20.822599411
 3113.7331543 8.4086999893 8.4086999893 0.0454339981 3.0167996883 25.581899643 52.601299286 120.53420258 40.686279297 21.006299973
 3113.8854980 8.4015998840 8.4015998840 0.0454899967 3.0209999084 24.213800430 52.747303009 85.638496399 40.921417236 20.493299484
 3114.0380859 8.3947000504 8.3947000504 0.0455450006 3.0230998993 25.156200409 52.837100983 64.243301392 41.084011078 19.181400299
 3114.1904297 8.3902997971 8.3902997971 0.0455790013 3.0234000683 23.823499680 52.820800781 49.160900116 41.082576752 18.560300827
 3114.3427734 8.3896999359 8.3896999359 0.0455840006 3.0253999233 24.934299469 52.731700897 45.601001740 41.012294769 48.792301178
 3114.4951172 8.3896999359 8.3896999359 0.0455840006 3.0311000347 25.612699509 52.659000397 51.752998352 41.028343201 384.72769165
 3114.6477051 8.3896999359 8.3896999359 0.0455840006 3.0429999828 25.445400238 52.646598816 71.260597229 41.218891144 1567.8295898
 3114.8000488 8.3896999359 8.3896999359 0.0455840006 3.0611000061 23.875600815 52.687698364 107.46080017 41.463562012 3033.7812500
 3114.9523926 8.3896999359 8.3896999359 0.0455840006 3.0762000084 25.177200317 52.809505463 196.37640381 41.500392914 3619.0976563
 3115.1047363 8.3896999359 8.3896999359 0.0455840006 3.0745000839 25.917699814 52.994205475 559.83569336 41.254268646 2926.7177734
 3115.2570801 8.3896999359 8.3896999359 0.0455840006 3.0625000000 25.395099640 53.158401489 1796.7321777 40.884281158 1451.6696777
 3115.4096680 8.3896999359 8.3896999359 0.0455840006 3.0567998886 25.146200180 53.207500458 3982.5908203 40.668937683 354.69061279
 3115.5620117 8.3896999359 8.3896999359 0.0455840006 3.0624001026 25.150999069 53.120998383 6622.0146484 40.738319397 49.059700012
 3115.7143555 8.3896999359 8.3896999359 0.0455840006 3.0646998882 25.382600784 52.984699249 8708.3203125 40.980621338 21.285600662
 3115.8666992 8.3896999359 8.3896999359 0.0455840006 3.0522999763 24.087499619 52.872001648 9721.3769531 41.267173767 17.863199234
 3116.0192871 8.3896999359 8.3896999359 0.0455840006 3.0485000610 23.985200882 52.799201965 9985.2597656 41.497119904 17.322500229
 3116.1716309 8.3896999359 8.3896999359 0.0455840006 3.0689001083 24.870100021 52.718894958 9999.9140625 41.603919983 16.902200699
 3116.3239746 8.3898000717 8.3898000717 0.0455829985 3.2135999203 24.145999908 52.597499847 9861.5058594 41.537460327 15.043800354
 3116.4763184 8.3917999268 8.3917999268 0.0455670021 3.5176999569 24.724000931 52.472099304 9068.1445313 41.334987640 12.183899879
 3116.6289063 8.2650995255 8.2650995255 0.0465850011 3.8176000118 25.433500290 52.451400757 7127.2812500 41.124332428 9.6005001068
 3116.7812500 7.7048997879 7.7048997879 0.0514379963 3.9872000217 24.565700531 52.612499237 4409.7470703 40.998867035 7.9731001854
 3116.9335938 6.6972999573 6.6972999573 0.0615490004 3.9374001026 24.349300385 52.937900543 1953.6047363 40.994190216 7.4223999977
 3117.0859375 5.7379999161 5.7379999161 0.0725260004 3.5885999203 24.187299728 53.293399811 485.82168579 41.035747528 7.8740000725
 3117.2382813 5.3857002258 5.3857002258 0.0767790005 2.5868000984 23.630100250 53.533901215 69.379096985 41.016651154 10.366299629
 3117.3908691 5.5647001266 5.5647001266 0.0746069998  -999.250000 24.577800751 53.616001129 23.600500107 40.941276550 15.406200409
 3117.5432129 5.8786001205 5.8786001205 0.0708540007  -999.250000 26.258199692 53.514999390 18.174800873 40.836978912 22.135099411
 3117.6955566 5.9997000694 5.9997000694 0.0694290027  -999.250000 25.895500183 53.310100555 14.909799576 40.715770721 28.036800385
