# LAS format log file from PETREL
# Project units are specified as depth units
#==================================================================
~Version information
VERS.   2.0:
WRAP.   NO:
#==================================================================
~Well
STRT .m      1845.0031738 :
STOP .m      3450.9943848 :
STEP .m     0.00000000 :
NULL .        -999.250000 :
COMP.           : COMPANY
WELL.  7/4-2 Brynhild Appr   : WELL
FLD.            : FIELD
LOC.            : LOCATION
SRVC.           : SERVICE COMPANY
DATE.  2018-09-11 21:49:22   : Log Export Date {yyyy-MM-dd HH:mm:ss}
PROV.           : PROVINCE
UWI.   7/4-2   : UNIQUE WELL ID
API.            : API NUMBER
#==================================================================
~Curve
DEPT .m                   : DEPTH
CALI .in                  : CALI
BS .in                    : BS
DRHO .g/cm3               : DRHO
THOR .ppm                 : THOR
NPHI .m3/m3               : NPHI
RHOB .g/cm3               : RHOB
PEF .b/e                  : PEF
GR .gAPI                  : GR
URAN .ppm                 : URAN
DTC .us/ft                : DTC
DTS .us/ft                : DTS
RDEP .ohm.m               : RDEP
RMED .ohm.m               : RMED
~Parameter
#==================================================================
~Ascii
# ...
 2991.6608887 12.293899536 12.250000954 0.0397000015  -999.250000 0.0723000020 2.6631000042 10.338548660 10.869000435  -999.250000 57.944499969 108.16369629 5.5258998871 5.1266999245
 2991.8132324 12.302399635 12.250000954 0.0436000004  -999.250000 0.0688999966 2.6682999134 10.796800613 9.5928001404  -999.250000 57.685199738 107.97760010 5.6461000443 5.3814997673
 2991.9655762 12.302399635 12.250000954 0.0436999984  -999.250000 0.0671000034 2.6688001156 10.620327950 9.7571001053  -999.250000 57.547901154 107.87609863 5.7259998322 5.6414999962
 2992.1181641 12.285400391 12.250000954 0.0417999998  -999.250000 0.0615999997 2.6714999676 10.463664055 11.409299850  -999.250000 57.322105408 107.55829620 5.9159998894 6.4180002213
 2992.2705078 12.290300369 12.250000954 0.0405000001  -999.250000 0.0590999983 2.6754000187 10.317159653 11.752300262  -999.250000 57.211498260 107.39420319 6.0300998688 6.7074999809
 2992.4228516 12.302399635 12.250000954 0.0383000001  -999.250000 0.0564999990 2.6828999519 10.353758812 11.182399750  -999.250000 57.178100586 107.32540131 6.1985001564 7.2649002075
 2992.5751953 12.302399635 12.250000954 0.0384000018  -999.250000 0.0555000007 2.6840999126 10.171436310 11.604399681  -999.250000 57.232398987 107.32389832 6.3176999092 7.5295000076
 2992.7275391 12.302399635 12.250000954 0.0401000008  -999.250000 0.0555999987 2.6847999096 10.645993233 11.149999619  -999.250000 57.315299988 107.35389709 6.3379001617 7.5936999321
 2992.8801270 12.302399635 12.250000954 0.0432000011  -999.250000 0.0566000007 2.6868000031 10.726257324 10.704700470  -999.250000 57.467498779 107.43740082 6.3597002029 7.4320998192
 2993.0324707 12.302399635 12.250000954 0.0434999987  -999.250000 0.0571000017 2.6874001026 10.706851959 11.256600380  -999.250000 57.530700684 107.50140381 6.3327999115 7.3255000114
 2993.1848145 12.302399635 12.250000954 0.0428000018  -999.250000 0.0588000007 2.6879000664 10.782228470 10.971099854  -999.250000 57.635799408 107.59359741 6.2118000984 6.9279999733
 2993.3371582 12.302399635 12.250000954 0.0428000018  -999.250000 0.0601999983 2.6870000362 10.572833061 10.987099648  -999.250000 57.665699005 107.60160065 6.1378998756 6.5920000076
 2993.4897461 12.302399635 12.250000954 0.0436000004  -999.250000 0.0625000000 2.6826000214 10.613502502 10.272299767  -999.250000 57.638698578 107.58439636 5.9906001091 6.0989999771
 2993.6420898 12.302399635 12.250000954 0.0434999987  -999.250000 0.0631999969 2.6793000698 10.559497833 10.407400131  -999.250000 57.521900177 107.53639984 5.9071002007 5.9917998314
 2993.7944336 12.302399635 12.250000954 0.0428999998  -999.250000 0.0626000017 2.6745998859 10.343381882 10.831399918  -999.250000 57.343196869 107.51290131 5.7690000534 5.9250001907
 2993.9467773 12.295300484 12.250000954 0.0428000018  -999.250000 0.0627999976 2.6754999161 10.558915138 11.142399788  -999.250000 57.327301025 107.59850311 5.6981000900 6.0643000603
 2994.0993652 12.291800499 12.250000954 0.0410999991  -999.250000 0.0577000007 2.6816999912 10.291748047 10.712300301  -999.250000 57.319099426 107.78690338 5.5423002243 6.6763000488
 2994.2517090 12.302399635 12.250000954 0.0403999984  -999.250000 0.0544999987 2.6849000454 10.485828400 10.392299652  -999.250000 57.350700378 107.90760040 5.4892997742 6.8235998154
 2994.4040527 12.274100304 12.250000954 0.0408000015  -999.250000 0.0612000003 2.6881000996 10.660030365 11.140899658  -999.250000 57.458400726 108.10649872 5.2511000633 6.8322000504
 2994.5563965 12.293899536 12.250000954 0.0406000018  -999.250000 0.0635000020 2.6872999668 10.230924606 11.617600441  -999.250000 57.589401245 108.13249969 5.0471000671 6.5310997963
 2994.7087402 12.288300514 12.250000954 0.0392999984  -999.250000 0.0762000009 2.6767001152 10.198788643 11.654700279  -999.250000 57.851501465 108.20259857 4.5160999298 5.4285001755
 2994.8613281 12.295300484 12.250000954 0.0392999984  -999.250000 0.0769999996 2.6665999889 10.812523842 10.407799721  -999.250000 57.983100891 108.27400208 4.2108001709 4.5141000748
 2995.0136719 12.302399635 12.250000954 0.0397000015  -999.250000 0.0741999969 2.6491000652 10.134837151 9.8677997589  -999.250000 58.293300629 108.46410370 3.8496999741 3.6268000603
 2995.1660156 12.302399635 12.250000954 0.0406999998  -999.250000 0.0703999996 2.6493000984 10.390605927 9.6821002960  -999.250000 58.558197021 108.66979980 3.6512999535 3.5950000286
 2995.3183594 12.295300484 12.250000954 0.0442999974  -999.250000 0.0657000020 2.6635999680 10.150299072 9.7465000153  -999.250000 59.115100861 109.19930267 3.3919999599 4.2505002022
 2995.4709473 12.296299934 12.250000954 0.0439999998  -999.250000 0.0688000023 2.6698999405 10.633673668 10.173500061  -999.250000 59.469100952 109.79419708 3.2874999046 4.5187001228
 2995.6232910 12.288300514 12.250000954 0.0386999995  -999.250000 0.0847000033 2.6659998894 9.9638061523 12.057999611  -999.250000 60.167701721 110.99220276 3.0327999592 4.0896000862
 2995.7756348 12.302399635 12.250000954 0.0359000005  -999.250000 0.1039000005 2.6366999149 10.174568176 11.244700432  -999.250000 60.802799225 112.24780273 2.6754000187 2.9354999065
 2995.9279785 12.307100296 12.250000954 0.0362000018  -999.250000 0.1102999970 2.6184999943 10.379784584 10.722800255  -999.250000 61.065498352 112.83329773 2.4746000767 2.3766999245
 2996.0805664 12.316499710 12.250000954 0.0406000018  -999.250000 0.1189000010 2.5938000679 10.658726692 9.5263004303  -999.250000 61.173099518 113.68440247 2.1805000305 1.7835999727
 2996.2329102 12.330699921 12.250000954 0.0445000008  -999.250000 0.1150000021 2.5910000801 10.789762497 9.5837001801  -999.250000 61.182598114 114.02570343 2.1235001087 1.7081999779
 2996.3852539 12.351900101 12.250000954 0.0496000014  -999.250000 0.1028999984 2.6024000645 11.432665825 9.1375999451  -999.250000 60.736000061 113.82499695 2.2685999870 1.8472000360
 2996.5375977 12.337800026 12.250000954 0.0491999984  -999.250000 0.0939999968 2.6166999340 10.826967239 9.4554996490  -999.250000 60.492099762 113.69329834 2.4403998852 2.1447999477
 2996.6899414 12.310500145 12.250000954 0.0445000008  -999.250000 0.0772999972 2.6542999744 10.851599693 10.202500343  -999.250000 59.675800323 112.93209839 2.8822000027 3.2834999561
 2996.8425293 12.296299934 12.250000954 0.0427000001  -999.250000 0.0710999966 2.6666998863 10.213914871 10.720199585  -999.250000 59.269195557 112.55789948 3.1075999737 3.9219000340
 2996.9948730 12.288300514 12.250000954 0.0421999991  -999.250000 0.0659999996 2.6763999462 10.228880882 10.354499817  -999.250000 58.502300262 111.99880219 3.5478999615 5.0233998299
 2997.1472168 12.302399635 12.250000954 0.0434999987  -999.250000 0.0653999969 2.6803998947 10.354560852 11.007200241  -999.250000 58.121501923 111.72019958 3.7862999439 5.4626002312
 2997.2995605 12.307100296 12.250000954 0.0449000001  -999.250000 0.0645999983 2.6884000301 10.563688278 11.248999596  -999.250000 57.667701721 111.27290344 4.1897997856 6.0447001457
 2997.4521484 12.308099747 12.250000954 0.0441000015  -999.250000 0.0645999983 2.6895000935 10.482322693 12.337800026  -999.250000 57.440799713 111.04930878 4.4303002357 6.2725000381
 2997.6044922 12.302399635 12.250000954 0.0408000015  -999.250000 0.0672999993 2.6770999432 10.815789223 13.342800140  -999.250000 57.124500275 110.46649933 4.7895002365 6.5037999153
 2997.7568359 12.302399635 12.250000954 0.0405000001  -999.250000 0.0697999969 2.6670999527 10.719879150 13.450499535  -999.250000 56.967399597 110.17400360 4.9363999367 6.4033999443
 2997.9091797 12.302399635 12.250000954 0.0430999994  -999.250000 0.0732000023 2.6572999954 10.426841736 10.034299850  -999.250000 56.609100342 109.22419739 5.3365001678 5.5521001816
 2998.0617676 12.302399635 12.250000954 0.0447000004  -999.250000 0.0722000003 2.6594998837 10.232184410 9.5001001358  -999.250000 56.429000854 108.74169922 5.5618000031 5.1950001717
 2998.2141113 12.290300369 12.250000954 0.0469000004  -999.250000 0.0669000000 2.6782000065 10.039875031 9.8844003677  -999.250000 56.028400421 107.78379822 6.0668997765 5.3125000000
