# LAS format log file from PETREL
# Project units are specified as depth units
#==================================================================
~Version information
VERS.   2.0:
WRAP.   NO:
#==================================================================
~Well
STRT .m      871.77679443 :
STOP .m      3117.6955566 :
STEP .m     0.00000000 :
NULL .        -999.250000 :
COMP.           : COMPANY
WELL.  7/4-1   : WELL
FLD.            : FIELD
LOC.            : LOCATION
SRVC.           : SERVICE COMPANY
DATE.  2018-09-11 21:49:21   : Log Export Date {yyyy-MM-dd HH:mm:ss}
PROV.           : PROVINCE
UWI.   7/4-1   : UNIQUE WELL ID
API.            : API NUMBER
#==================================================================
~Curve
DEPT .m                   : DEPTH
DCAL .in                  : DCAL
CALI .in                  : CALI
NPHI .m3/m3               : NPHI
RHOB .g/cm3               : RHOB
GR .gAPI                  : GR
DTC .us/ft                : DTC
RDEP .ohm.m               : RDEP
SP .mV                    : SP
RMED .ohm.m               : RMED
~Parameter
#==================================================================
~Ascii
# ...
 2515.8679199 15.466799736 15.466799736  -999.250000 2.4574000835 38.142200470 71.769699097 0.8223999739 -10.75792980 0.7050999999
 2516.0205078 15.408499718 15.408499718  -999.250000 2.4593999386 38.574600220 71.517898560 0.7965999842 -10.23358631 0.7002999783
 2516.1728516 15.271900177 15.271900177  -999.250000 2.4551999569 37.982498169 71.370903015 0.7734000087 -9.978127480 0.6930000186
 2516.3251953 15.032699585 15.032699585  -999.250000 2.4460999966 36.749401093 71.518600464 0.7587000132 -9.986785889 0.6919999719
 2516.4775391 14.654999733 14.654999733  -999.250000 2.4339001179 35.742801666 72.079101563 0.7556999922 -10.19416904 0.7141000032
 2516.6298828 14.119799614 14.119799614  -999.250000 2.4182999134 35.361499786 72.947601318 0.7620000243 -10.58818626 0.7663999796
 2516.7824707 13.489100456 13.489100456  -999.250000 2.4017999172 35.391998291 73.694999695 0.7730000019 -10.99105072 0.8320999742
 2516.9348145 12.912799835 12.912799835  -999.250000 2.3912000656 35.367099762 73.858596802 0.7875999808 -11.10799885 0.8810999990
 2517.0871582 12.546899796 12.546899796  -999.250000 2.3938999176 34.831699371 73.078697205 0.8143000007 -10.86321163 0.8956999779
 2517.2395020 12.386500359 12.386500359  -999.250000 2.4084999561 33.620800018 71.753997803 0.8634999990 -10.46578312 0.8934999704
 2517.3920898 12.357900620 12.357900620  -999.250000 2.4286999702 31.887100220 70.628997803 0.9435999990 -10.29666138 0.9010999799
 2517.5444336 12.354200363 12.354200363  -999.250000 2.4458000660 30.207399368 70.055999756 1.0389000177 -10.55081177 0.9258999825
 2517.6967773 12.344300270 12.344300270  -999.250000 2.4549999237 29.367700577 69.921600342 1.1231000423 -10.94281578 0.9585999846
 2517.8491211 12.331501007 12.331501007  -999.250000 2.4588000774 29.669399261 69.775802612 1.1747000217 -11.10224819 0.9832999706
 2518.0017090 12.322899818 12.322899818  -999.250000 2.4595999718 30.873899460 69.398803711 1.1713999510 -10.91065025 0.9844999909
 2518.1540527 12.314800262 12.314800262  -999.250000 2.4586000443 31.802799225 69.056900024 1.1272000074 -10.46723080 0.9613000154
 2518.3063965 12.304599762 12.304599762  -999.250000 2.4526998997 31.693500519 69.103103638 1.0525000095 -10.05686092 0.9139000177
 2518.4587402 12.293699265 12.293699265  -999.250000 2.4407000542 30.913600922 69.603897095 0.9724000096 -9.719768524 0.8590000272
 2518.6110840 12.285099983 12.285099983  -999.250000 2.4247999191 30.103799820 70.559196472 0.9017000198 -9.382293701 0.8101999760
 2518.7636719 12.281700134 12.281700134  -999.250000 2.4112999439 29.569299698 71.709800720 0.8438000083 -9.151484489 0.7728999853
 2518.9160156 12.286499977 12.286499977  -999.250000 2.4052999020 29.045200348 72.726799011 0.7980999947 -9.187696457 0.7462999821
 2519.0683594 12.294599533 12.294599533  -999.250000 2.4065999985 28.415100098 73.272598267 0.7616999745 -9.520500183 0.7265999913
 2519.2207031 12.299699783 12.299699783  -999.250000 2.4133999348 28.023899078 73.203903198 0.7350000143 -9.889181137 0.7129999995
 2519.3732910 12.298500061 12.298500061  -999.250000 2.4217998981 28.322299957 72.729202271 0.7184000015 -10.03277874 0.7050999999
 2519.5256348 12.296199799 12.296199799  -999.250000 2.4272999763 29.282499313 72.196403503 0.7124999762 -9.902421951 0.7026000023
 2519.6779785 12.297699928 12.297699928  -999.250000 2.4265000820 30.207500458 71.901397705 0.7171000242 -9.594236374 0.7053999901
 2519.8303223 12.303299904 12.303299904  -999.250000 2.4210999012 30.360799789 71.868698120 0.7294999957 -9.241647720 0.7128000259
 2519.9829102 12.311599731 12.311599731  -999.250000 2.4165000916 29.650600433 71.920303345 0.7448999882 -9.041254997 0.7226999998
 2520.1352539 12.321399689 12.321399689  -999.250000 2.4165999889 28.645399094 71.856300354 0.7580000162 -9.119963646 0.7314000130
 2520.2875977 12.327599525 12.327599525  -999.250000 2.4214000702 28.026800156 71.607299805 0.7659000158 -9.370635986 0.7351999879
 2520.4399414 12.328399658 12.328399658  -999.250000 2.4268000126 27.865699768 71.348602295 0.7710999846 -9.615241051 0.7343000174
 2520.5922852 12.328200340 12.328200340  -999.250000 2.4288001060 28.081600189 71.325500488 0.7767999768 -9.792277336 0.7311000228
 2520.7448730 12.328599930 12.328599930  -999.250000 2.4279000759 28.540599823 71.535102844 0.7836999893 -9.994403839 0.7290999889
 2520.8972168 12.324399948 12.324399948  -999.250000 2.4268000126 29.142000198 71.751197815 0.7879999876 -10.18415642 0.7296000123
 2521.0495605 12.313199997 12.313199997  -999.250000 2.4274001122 29.593099594 71.727302551 0.7858999968 -10.10953712 0.7300999761
 2521.2019043 12.301400185 12.301400185  -999.250000 2.4289999008 29.847999573 71.383499146 0.7736999989 -9.757044792 0.7256000042
 2521.3544922 12.295000076 12.295000076  -999.250000 2.4284999371 30.015300751 70.986099243 0.7552999854 -9.329653740 0.7143999934
 2521.5068359 12.296600342 12.296600342  -999.250000 2.4233999252 30.044900894 70.846199036 0.7360000014 -9.144097328 0.6972000003
 2521.6591797 12.302901268 12.302901268  -999.250000 2.4148001671 29.864700317 71.089302063 0.7210999727 -9.378145218 0.6801000237
 2521.8115234 12.313199997 12.313199997  -999.250000 2.4049999714 29.574499130 71.716796875 0.7127000093 -9.809002876 0.6689000130
 2521.9641113 12.321998596 12.321998596  -999.250000 2.3972001076 29.476600647 72.468399048 0.7075999975 -10.15512085 0.6650999784
 2522.1164551 12.322300911 12.322300911  -999.250000 2.3938999176 29.507799149 73.055397034 0.7020000219 -10.23111725 0.6671000123
 2522.2687988 12.314399719 12.314399719  -999.250000 2.3945999146 29.280199051 73.294799805 0.6945000291 -10.05607128 0.6697999835
 2522.4211426 12.301899910 12.301899910  -999.250000 2.3976998329 28.776800156 73.192901611 0.6872000098 -9.869949341 0.6704000235
 2522.5734863 12.293398857 12.293398857  -999.250000 2.4000000954 28.476699829 72.925598145 0.6837999821 -9.821952820 0.6689000130
 2522.7260742 12.296399117 12.296399117  -999.250000 2.4000000954 28.704900742 72.676002502 0.6868000031 -9.864886284 0.6676999927
 2522.8784180 12.309899330 12.309899330  -999.250000 2.3980000019 29.248800278 72.606002808 0.6965000033 -9.879630089 0.6697999835
 2523.0307617 12.322601318 12.322601318  -999.250000 2.3963999748 29.695699692 72.756500244 0.7110000253 -9.919450760 0.6772000194
 2523.1831055 12.321800232 12.321800232  -999.250000 2.3980998993 29.793699265 73.013702393 0.7278000116 -10.10171509 0.6917999983
 2523.3356934 12.308000565 12.308000565  -999.250000 2.4045999050 29.462799072 73.139701843 0.7447000146 -10.45863056 0.7123000026
 2523.4880371 12.295700073 12.295700073  -999.250000 2.4156999588 28.828399658 72.888900757 0.7620000243 -10.78407288 0.7350000143
 2523.6403809 12.296899796 12.296899796  -999.250000 2.4282999039 28.489799500 72.320098877 0.7813000083 -10.79681873 0.7558000088
 2523.7927246 12.311599731 12.311599731  -999.250000 2.4381000996 29.108400345 71.659896851 0.8029999733 -10.52016258 0.7721999884
 2523.9453125 12.327700615 12.327700615  -999.250000 2.4437999725 30.276599884 71.173896790 0.8238000274 -10.04527950 0.7835000157
 2524.0976563 12.335000992 12.335000992  -999.250000 2.4453001022 30.969699860 71.053298950 0.8378000259 -9.554189682 0.7867000103
 2524.2500000 12.333999634 12.333999634  -999.250000 2.4444999695 30.846399307 71.192001343 0.8438000083 -9.297484398 0.7817000151
 2524.4023438 12.328000069 12.328000069  -999.250000 2.4412999153 30.451099396 71.489898682 0.8428000212 -9.365458488 0.7696999907
 2524.5546875 12.324399948 12.324399948  -999.250000 2.4360001087 30.573799133 71.796997070 0.8399999738 -9.663751602 0.7585999966
 2524.7072754 12.326800346 12.326800346  -999.250000 2.4293999672 30.990699768 72.011596680 0.8377000093 -9.802801132 0.7570000291
 2524.8596191 12.327500343 12.327500343  -999.250000 2.4238998890 30.797300339 72.063400269 0.8356999755 -9.583870888 0.7655000091
 2525.0119629 12.317899704 12.317899704  -999.250000 2.4224998951 29.654499054 71.860000610 0.8328999877 -9.280104637 0.7802000046
 2525.1643066 12.300499916 12.300499916  -999.250000 2.4263000488 28.361400604 71.411399841 0.8302999735 -9.122197151 0.7922999859
