# LAS format log file from PETREL
# Project units are specified as depth units
#==================================================================
~Version information
VERS.   2.0:
WRAP.   NO:
#==================================================================
~Well
STRT .m      871.77679443 :
STOP .m      3117.6955566 :
STEP .m     0.00000000 :
NULL .        -999.250000 :
COMP.           : COMPANY
WELL.  7/4-1   : WELL
FLD.            : FIELD
LOC.            : LOCATION
SRVC.           : SERVICE COMPANY
DATE.  2018-09-11 21:49:21   : Log Export Date {yyyy-MM-dd HH:mm:ss}
PROV.           : PROVINCE
UWI.   7/4-1   : UNIQUE WELL ID
API.            : API NUMBER
#==================================================================
~Curve
DEPT .m                   : DEPTH
DCAL .in                  : DCAL
CALI .in                  : CALI
NPHI .m3/m3               : NPHI
RHOB .g/cm3               : RHOB
GR .gAPI                  : GR
DTC .us/ft                : DTC
RDEP .ohm.m               : RDEP
SP .mV                    : SP
RMED .ohm.m               : RMED
~Parameter
#==================================================================
~Ascii
# ...
 1920.5936279 18.571300507 18.571300507  -999.250000 2.1760001183 77.873901367 143.61082458 0.6678000093 10.935894966 0.5411005616
 1920.7459717 18.564399719 18.564399719  -999.250000 2.1675999165 77.369903564 151.93423462 0.6704999804 10.909445763 0.5502926111
 1920.8984375 18.475099564 18.475099564  -999.250000 2.1540000439 77.821403503 158.46949768 0.6769000292 10.844609261 0.5539970398
 1921.0507813 18.370100021 18.370100021  -999.250000 2.1412000656 78.066101074 162.87640381 0.6819000244 10.733429909 0.5539000630
 1921.2032471 18.340400696 18.340400696  -999.250000 2.1354000568 77.520202637 165.16329956 0.6820999980 10.620392799 0.5559983253
 1921.3555908 18.372800827 18.372800827  -999.250000 2.1373000145 76.999496460 164.38049316 0.6765000224 10.556462288 0.5564996004
 1921.5079346 18.410400391 18.410400391  -999.250000 2.1449999809 77.074897766 158.53709412 0.6650000215 10.550809860 0.5429217815
 1921.6604004 18.497800827 18.497800827  -999.250000 2.1507999897 77.148101807 150.23280334 0.6529999971 10.621713638 0.5146226287
 1921.8127441 18.752000809 18.752000809  -999.250000 2.1476998329 76.233001709 143.58210754 0.6450999975 10.760758400 0.4859459698
 1921.9652100 19.120599747 19.120599747  -999.250000 2.1370999813 74.192199707 141.06410217 0.6406999826 10.955412865 0.4747999907
 1922.1175537 19.450500488 19.450500488  -999.250000 2.1284999847 71.704101563 142.19639587 0.6377000213 11.166993141 0.4860999882
 1922.2700195 19.608100891 19.608100891  -999.250000 2.1301000118 69.736801147 143.86219788 0.6327999830 11.353320122 0.5056999922
 1922.4223633 19.569000244 19.569000244  -999.250000 2.1412999630 68.933097839 144.29649353 0.6240000129 11.481950760 0.5216000080
 1922.5748291 19.444999695 19.444999695  -999.250000 2.1547999382 69.601501465 143.41740417 0.6137999892 11.570958138 0.5307000279
 1922.7271729 19.299900055 19.299900055  -999.250000 2.1640000343 71.399299622 141.94999695 0.6067000031 11.687071800 0.5378999710
 1922.8796387 19.105600357 19.105600357  -999.250000 2.1670000553 73.515197754 140.68750000 0.6068000197 11.817864418 0.5486000180
 1923.0319824 18.867200851 18.867200851  -999.250000 2.1654999256 75.434997559 139.94299316 0.6157000065 11.850722313 0.5644000173
 1923.1844482 18.656799316 18.656799316  -999.250000 2.1623001099 76.876502991 139.73109436 0.6317999959 11.730226517 0.5824000239
 1923.3367920 18.545999527 18.545999527  -999.250000 2.1593000889 78.008697510 139.81669617 0.6496000290 11.529795647 0.5961999893
 1923.4891357 18.535100937 18.535100937  -999.250000 2.1566998959 79.335899353 139.98730469 0.6639999747 11.383474350 0.6000999808
 1923.6416016 18.509000778 18.509000778  -999.250000 2.1549000740 80.812896729 140.05940247 0.6746000051 11.340237617 0.5971999764
 1923.7939453 18.416700363 18.416700363  -999.250000 2.1568000317 82.010902405 139.94689941 0.6834999919 11.309138298 0.5964999795
 1923.9464111 18.316400528 18.316400528  -999.250000 2.1630001068 82.719299316 139.77000427 0.6934999824 11.248413086 0.6042000055
 1924.0987549 18.210800171 18.210800171  -999.250000 2.1717000008 83.144401550 139.64970398 0.7059999704 11.212592125 0.6184999943
 1924.2512207 18.057300568 18.057300568  -999.250000 2.1791999340 83.589996338 139.60760498 0.7203000188 11.251398087 0.6302999854
 1924.4035645 17.841899872 17.841899872  -999.250000 2.1837999821 83.556198120 139.52569580 0.7332000136 11.303047180 0.6333000064
 1924.5560303 17.660900116 17.660900116  -999.250000 2.1867001057 82.591697693 139.16220093 0.7411999702 11.288266182 0.6281999946
 1924.7083740 17.645999908 17.645999908  -999.250000 2.1900999546 81.148300171 138.39270020 0.7414000034 11.235301018 0.6136000156
 1924.8608398 17.792800903 17.792800903  -999.250000 2.1947999001 80.116996765 137.46539307 0.7358000278 11.229115486 0.5909000039
 1925.0131836 18.035999298 18.035999298  -999.250000 2.1989998817 79.347396851 136.70809937 0.7250000238 11.278244972 0.5606999993
 1925.1656494 18.273700714 18.273700714  -999.250000 2.1982998848 78.151298523 136.63749695 0.7109000087 11.321732521 0.5293999910
 1925.3179932 18.488199234 18.488199234  -999.250000 2.1881999969 76.462997437 137.61250305 0.6965000033 11.340167999 0.5073000193
 1925.4703369 18.715299606 18.715299606  -999.250000 2.1714000702 74.825500488 139.17349243 0.6837000251 11.391734123 0.5016999841
 1925.6228027 18.995500565 18.995500565  -999.250000 2.1559998989 73.650001526 140.49729919 0.6711000204 11.519348145 0.5088000298
 1925.7751465 19.316999435 19.316999435  -999.250000 2.1510000229 73.035896301 140.86439514 0.6553999782 11.679536819 0.5120000243
 1925.9276123 19.619600296 19.619600296  -999.250000 2.1580998898 72.575202942 140.34370422 0.6366000175 11.803999901 0.4993999898
 1926.0799561 19.856199265 19.856199265  -999.250000 2.1693000793 71.775596619 139.75010681 0.6198999882 11.879215240 0.4763000011
 1926.2324219 20.032899857 20.032899857  -999.250000 2.1749999523 70.554496765 139.72740173 0.6100000143 11.903292656 0.4584999979
 1926.3847656 20.153200150 20.153200150  -999.250000 2.1735000610 69.510398865 140.26899719 0.6076999903 11.867094994 0.4542999864
 1926.5372314 20.232599258 20.232599258  -999.250000 2.1719000340 69.224403381 140.74209595 0.6090999842 11.777630806 0.4566000104
 1926.6895752 20.270000458 20.270000458  -999.250000 2.1760001183 69.766601563 140.48789978 0.6086000204 11.683137894 0.4560000002
 1926.8420410 20.245700836 20.245700836  -999.250000 2.1821000576 70.609199524 139.67039490 0.6036999822 11.630636215 0.4503999949
 1926.9943848 20.110399246 20.110399246  -999.250000 2.1814000607 71.424400330 138.97619629 0.5960999727 11.614456177 0.4422999918
 1927.1468506 19.920099258 19.920099258  -999.250000 2.1726999283 71.994697571 138.93389893 0.5896999836 11.562928200 0.4363000095
 1927.2991943 19.824199677 19.824199677  -999.250000 2.1617000103 71.954101563 139.72109985 0.5892000198 11.423854828 0.4370999932
 1927.4516602 19.874000549 19.874000549  -999.250000 2.1566998959 71.347702026 140.82080078 0.5967000127 11.223781586 0.4449999928
 1927.6040039 19.965700150 19.965700150  -999.250000 2.1612999439 70.465301514 141.62849426 0.6122000217 11.062097549 0.4596000016
 1927.7563477 19.915500641 19.915500641  -999.250000 2.1700000763 69.839302063 141.77149963 0.6277999878 10.994438171 0.4754999876
 1927.9088135 19.660200119 19.660200119  -999.250000 2.1782000065 70.184600830 141.00000000 0.6370000243 10.983159065 0.4873999953
 1928.0611572 19.359699249 19.359699249  -999.250000 2.1833999157 71.545600891 139.49310303 0.6388999820 10.992166519 0.4936000109
 1928.2136230 19.177799225 19.177799225  -999.250000 2.1858999729 73.394699097 137.46080017 0.6374999881 11.011985779 0.4932999909
 1928.3659668 19.142599106 19.142599106  -999.250000 2.1870999336 74.841003418 135.61959839 0.6405000091 11.060007095 0.4876999855
 1928.5184326 19.235799789 19.235799789  -999.250000 2.1861999035 75.597198486 134.72160339 0.6527000070 11.121626854 0.4797999859
 1928.6707764 19.365200043 19.365200043  -999.250000 2.1828999519 76.099998474 134.96159363 0.6700999737 11.189730644 0.4758999944
 1928.8232422 19.456699371 19.456699371  -999.250000 2.1796000004 76.655097961 135.80810547 0.6848000288 11.269062996 0.4796000123
 1928.9755859 19.488000870 19.488000870  -999.250000 2.1805000305 77.051696777 136.41290283 0.6893000007 11.341855049 0.4884999990
 1929.1280518 19.496400833 19.496400833  -999.250000 2.1863000393 77.044601440 136.66780090 0.6833000183 11.365291595 0.4968000054
 1929.2803955 19.526500702 19.526500702  -999.250000 2.1926000118 76.816200256 137.93620300 0.6733000278 11.312101364 0.5005999804
 1929.4328613 19.541999817 19.541999817  -999.250000 2.1944999695 76.671302795 141.71569824 0.6656000018 11.182534218 0.5012000203
 1929.5852051 19.391099930 19.391099930  -999.250000 2.1879999638 76.434501648 147.88920593 0.6628999710 11.013437271 0.5027999878
 1929.7375488 19.016399384 19.016399384  -999.250000 2.1745998859 76.045700073 154.07670593 0.6635000110 10.853997231 0.5087000132
 1929.8900146 18.514600754 18.514600754  -999.250000 2.1631000042 76.085800171 157.59640503 0.6667000055 10.750442505 0.5203999877
