# LAS format log file from PETREL
# Project units are specified as depth units
#==================================================================
~Version information
VERS.   2.0:
WRAP.   NO:
#==================================================================
~Well
STRT .m      871.77679443 :
STOP .m      3117.6955566 :
STEP .m     0.00000000 :
NULL .        -999.250000 :
COMP.           : COMPANY
WELL.  7/4-1   : WELL
FLD.            : FIELD
LOC.            : LOCATION
SRVC.           : SERVICE COMPANY
DATE.  2018-09-11 21:49:21   : Log Export Date {yyyy-MM-dd HH:mm:ss}
PROV.           : PROVINCE
UWI.   7/4-1   : UNIQUE WELL ID
API.            : API NUMBER
#==================================================================
~Curve
DEPT .m                   : DEPTH
DCAL .in                  : DCAL
CALI .in                  : CALI
NPHI .m3/m3               : NPHI
RHOB .g/cm3               : RHOB
GR .gAPI                  : GR
DTC .us/ft                : DTC
RDEP .ohm.m               : RDEP
SP .mV                    : SP
RMED .ohm.m               : RMED
~Parameter
#==================================================================
~Ascii
# ...
 2213.5063477 17.713699341 17.713699341  -999.250000 2.2809882164 70.876602173 126.90251160 0.5353000164 23.350769043 0.4955059290
 2213.6586914 17.713699341 17.713699341  -999.250000 2.2880885601 68.756301880 127.38253021 0.5293999910 23.420438766 0.4911070764
 2213.8112793 17.713699341 17.713699341  -999.250000 2.2934999466 68.464996338 127.62210083 0.5210000277 23.460533142 0.4864999950
 2213.9636230 17.713699341 17.713699341  -999.250000 2.2978000641 71.128601074 127.72900391 0.5108000040 23.408496857 0.4814000130
 2214.1159668 17.713699341 17.713699341  -999.250000 2.3015937805 75.869003296 127.76793671 0.4997000098 23.289056778 0.4746108651
 2214.2683105 17.715099335 17.715099335  -999.250000 2.3032972813 80.334297180 127.87572479 0.4896000028 23.142465591 0.4657142758
 2214.4208984 17.724700928 17.724700928  -999.250000 2.2997999191 83.819000244 128.25410461 0.4821000099 22.999219894 0.4564999938
 2214.5732422 17.745399475 17.745399475  -999.250000 2.2904000282 86.886001587 128.95449829 0.4776999950 22.863620758 0.4508000016
 2214.7255859 17.765199661 17.765199661  -999.250000 2.2775206566 88.827499390 129.73585510 0.4758000076 22.741237640 0.4507001638
 2214.8779297 17.767099380 17.767099380  -999.250000 2.2659184933 87.733398438 130.08993530 0.4749999940 22.649770737 0.4545937479
 2215.0302734 17.749700546 17.749700546  -999.250000 2.2590110302 83.413803101 129.75312805 0.4744000137 22.601598740 0.4587932527
 2215.1828613 17.727899551 17.727899551  -999.250000 2.2581000328 78.032699585 128.96690369 0.4742999971 22.573547363 0.4603999853
 2215.3352051 17.715700150 17.715700150  -999.250000 2.2613947392 74.081497192 128.34339905 0.4754000008 22.528293610 0.4596012831
 2215.4875488 17.713699341 17.713699341  -999.250000 2.2658927441 72.335502625 128.38023376 0.4778000116 22.456708908 0.4575033784
 2215.6398926 17.713699341 17.713699341  -999.250000 2.2695939541 71.688796997 128.96665955 0.4799999893 22.376087189 0.4554033577
 2215.7924805 17.713699341 17.713699341  -999.250000 2.2734999657 71.816497803 129.71589661 0.4801000059 22.300437927 0.4533999860
 2215.9448242 17.713699341 17.713699341  -999.250000 2.2790999413 72.413902283 130.25999451 0.4776000082 22.231779099 0.4510999918
 2216.0971680 17.713699341 17.713699341  -999.250000 2.2863883972 72.807899475 130.49621582 0.4722000062 22.179426193 0.4473060668
 2216.2495117 17.713699341 17.713699341  -999.250000 2.2922904491 72.555900574 130.62260437 0.4652999938 22.166524887 0.4421083331
 2216.4020996 17.713699341 17.713699341  -999.250000 2.2934999466 72.235603333 130.86410522 0.4573999941 22.163957596 0.4361000061
 2216.5544434 17.713699341 17.713699341  -999.250000 2.2904999256 73.022102356 131.32319641 0.4492999911 22.121145248 0.4305999875
 2216.7067871 17.713699341 17.713699341  -999.250000 2.2847092152 75.356101990 131.99581909 0.4415999949 22.057800293 0.4262070358
 2216.8591309 17.713699341 17.713699341  -999.250000 2.2792088985 77.801696777 132.66851807 0.4341999888 22.057542801 0.4225059450
 2217.0114746 17.713699341 17.713699341  -999.250000 2.2766039371 78.965103149 133.13017273 0.4275999963 22.144067764 0.4189057946
 2217.1640625 17.713600159 17.713600159  -999.250000 2.2774999142 78.642196655 133.32449341 0.4228999913 22.255485535 0.4156999886
 2217.3164063 17.711500168 17.711500168  -999.250000 2.2806949615 77.321197510 133.27099609 0.4216000140 22.294183731 0.4143022299
 2217.4687500 17.705200195 17.705200195  -999.250000 2.2823972702 75.861297607 133.05325317 0.4237999916 22.246881485 0.4157975912
 2217.6210938 17.697599411 17.697599411  -999.250000 2.2805030346 74.353698730 132.66662598 0.4291999936 22.196517944 0.4201929271
 2217.7736816 17.694999695 17.694999695  -999.250000 2.2769999504 72.308799744 132.07330322 0.4370000064 22.213390350 0.4264999926
 2217.9260254 17.699800491 17.699800491  -999.250000 2.2762000561 69.583396912 131.31449890 0.4465999901 22.304702759 0.4332999885
 2218.0783691 17.707599640 17.707599640  -999.250000 2.2800939083 66.889198303 130.56350708 0.4573999941 22.440444946 0.4398894608
 2218.2307129 17.712699890 17.712699890  -999.250000 2.2857909203 65.316596985 129.97744751 0.4686000049 22.573896408 0.4463895559
 2218.3833008 17.713699341 17.713699341  -999.250000 2.2881999016 65.143402100 129.61950684 0.4794999957 22.671089172 0.4523999989
 2218.5356445 17.713699341 17.713699341  -999.250000 2.2860999107 65.438499451 129.37950134 0.4887999892 22.717420578 0.4573000073
 2218.6879883 17.713699341 17.713699341  -999.250000 2.2821063995 65.263702393 129.08506775 0.4941000044 22.747669220 0.4595963359
 2218.8403320 17.713699341 17.713699341  -999.250000 2.2812013626 64.823699951 128.64111328 0.4947000146 22.823740005 0.4588012695
 2218.9926758 17.713699341 17.713699341  -999.250000 2.2871904373 64.389396667 128.00802612 0.4909000099 22.951700211 0.4548064172
 2219.1452637 17.713699341 17.713699341  -999.250000 2.2981998920 63.726501465 127.29080200 0.4855999947 23.071144104 0.4498000145
 2219.2976074 17.713699341 17.713699341  -999.250000 2.3092823029 62.285701752 126.69924927 0.4805000126 23.124275208 0.4459062219
 2219.4499512 17.713699341 17.713699341  -999.250000 2.3144917488 60.532501221 126.37871552 0.4760999978 23.122220993 0.4438033700
 2219.6022949 17.713699341 17.713699341  -999.250000 2.3101072311 59.570800781 126.44908905 0.4722000062 23.137826920 0.4428015947
 2219.7548828 17.713699341 17.713699341  -999.250000 2.3011000156 59.994300842 126.77079773 0.4693999887 23.203708649 0.4420000017
 2219.9072266 17.713699341 17.713699341  -999.250000 2.2929000854 61.597999573 127.20020294 0.4691999853 23.276992798 0.4420000017
 2220.0595703 17.713699341 17.713699341  -999.250000 2.2889063358 63.282001495 127.57040405 0.4722999930 23.326108932 0.4430982471
 2220.2119141 17.713699341 17.713699341  -999.250000 2.2894990444 64.364601135 127.77706909 0.4785000086 23.358257294 0.4454961419
 2220.3645020 17.713699341 17.713699341  -999.250000 2.2918999195 64.599601746 127.80580139 0.4857999980 23.390237808 0.4487000108
 2220.5168457 17.713699341 17.713699341  -999.250000 2.2936999798 63.895099640 127.66979980 0.4925000072 23.435033798 0.4521000087
 2220.6691895 17.713699341 17.713699341  -999.250000 2.2934005260 62.605998993 127.44506073 0.4975000024 23.478458405 0.4549953640
 2220.8215332 17.713699341 17.713699341  -999.250000 2.2911036015 61.409801483 127.21137238 0.5001999736 23.487264633 0.4560982287
 2220.9738770 17.713699341 17.713699341  -999.250000 2.2890033722 60.933700562 127.09667969 0.5001999736 23.438705444 0.4545025527
 2221.1264648 17.713699341 17.713699341  -999.250000 2.2887001038 61.288799286 127.21070099 0.4975999892 23.341663361 0.4508999884
 2221.2788086 17.713699341 17.713699341  -999.250000 2.2905969620 62.025901794 127.59677124 0.4927000105 23.225011826 0.4464071989
 2221.4311523 17.713699341 17.713699341  -999.250000 2.2932956219 62.703300476 128.15939331 0.4853000045 23.112913132 0.4417075515
 2221.5834961 17.713699341 17.713699341  -999.250000 2.2955963612 63.087699890 128.73377991 0.4753000140 22.999267578 0.4362088144
 2221.7360840 17.713699341 17.713699341  -999.250000 2.2969000340 63.415699005 129.23159790 0.4638000131 22.874656677 0.4298999906
 2221.8884277 17.713699341 17.713699341  -999.250000 2.2969999313 63.959201813 129.66389465 0.4528000057 22.749288559 0.4237000048
 2222.0407715 17.713699341 17.713699341  -999.250000 2.2962012291 64.770301819 130.08642578 0.4438999891 22.640428543 0.4188078344
 2222.1931152 17.713699341 17.713699341  -999.250000 2.2942030430 65.446701050 130.48826599 0.4390000105 22.552442551 0.4164038301
 2222.3457031 17.713699341 17.713699341  -999.250000 2.2915999889 65.575302124 130.78970337 0.4375999868 22.492269516 0.4165999889
 2222.4980469 17.713699341 17.713699341  -999.250000 2.2892999649 65.022399902 130.84800720 0.4397999942 22.467258453 0.4199000001
 2222.6503906 17.713699341 17.713699341  -999.250000 2.2878024578 64.284896851 130.64901733 0.4444999993 22.510698318 0.4251914918
 2222.8027344 17.713699341 17.713699341  -999.250000 2.2870011330 63.894199371 130.16467285 0.4521999955 22.614198685 0.4320889413
