# LAS format log file from PETREL
# Project units are specified as depth units
#==================================================================
~Version information
VERS.   2.0:
WRAP.   NO:
#==================================================================
~Well
STRT .m      1845.0031738 :
STOP .m      3450.9943848 :
STEP .m     0.00000000 :
NULL .        -999.250000 :
COMP.           : COMPANY
WELL.  7/4-2 Brynhild Appr   : WELL
FLD.            : FIELD
LOC.            : LOCATION
SRVC.           : SERVICE COMPANY
DATE.  2018-09-11 21:49:22   : Log Export Date {yyyy-MM-dd HH:mm:ss}
PROV.           : PROVINCE
UWI.   7/4-2   : UNIQUE WELL ID
API.            : API NUMBER
#==================================================================
~Curve
DEPT .m                   : DEPTH
CALI .in                  : CALI
BS .in                    : BS
DRHO .g/cm3               : DRHO
THOR .ppm                 : THOR
NPHI .m3/m3               : NPHI
RHOB .g/cm3               : RHOB
PEF .b/e                  : PEF
GR .gAPI                  : GR
URAN .ppm                 : URAN
DTC .us/ft                : DTC
DTS .us/ft                : DTS
RDEP .ohm.m               : RDEP
RMED .ohm.m               : RMED
~Parameter
#==================================================================
~Ascii
# ...
 3212.9455566 8.6007003784 12.250000954  -999.250000 7.5006217957  -999.250000  -999.250000  -999.250000 110.98153687 0.7706807852 97.524597168  -999.250000  -999.250000  -999.250000
 3213.0979004 8.5979995728 12.250000954  -999.250000 7.2149581909  -999.250000  -999.250000  -999.250000 102.90852356 0.8104364276 95.935401917  -999.250000  -999.250000  -999.250000
 3213.2502441 8.5944004059 12.250000954  -999.250000 7.0010428429  -999.250000  -999.250000  -999.250000 102.24514771 0.8177883029 94.952697754  -999.250000  -999.250000  -999.250000
 3213.4025879 8.5929002762 12.250000954  -999.250000 6.4763832092  -999.250000  -999.250000  -999.250000 104.86658478 0.8896692991 94.982597351  -999.250000  -999.250000  -999.250000
 3213.5551758 8.5883998871 12.250000954  -999.250000 5.9052143097  -999.250000  -999.250000  -999.250000 96.856071472 0.9448118210 95.415611267  -999.250000  -999.250000  -999.250000
 3213.7075195 8.5862998962 12.250000954  -999.250000 5.5371894836  -999.250000  -999.250000  -999.250000 100.05773926 0.9836378694 95.030197144  -999.250000  -999.250000  -999.250000
 3213.8598633 8.5950002670 12.250000954  -999.250000 5.1994414330  -999.250000  -999.250000  -999.250000 97.819297791 1.0298259258 93.102897644  -999.250000  -999.250000  -999.250000
 3214.0122070 8.6498003006 12.250000954  -999.250000 4.8874001503  -999.250000  -999.250000  -999.250000 98.817581177 1.1015698910 90.175102234  -999.250000  -999.250000  -999.250000
 3214.1647949 8.7182998657 12.250000954  -999.250000 5.0492386818  -999.250000  -999.250000  -999.250000 97.742729187 1.0992041826 87.990798950  -999.250000  -999.250000  -999.250000
 3214.3171387 9.0485000610 12.250000954  -999.250000 6.4205994606  -999.250000  -999.250000  -999.250000 96.662933350 1.0058498383 88.139999390  -999.250000  -999.250000  -999.250000
 3214.4694824 10.928400040 12.250000954  -999.250000 6.9657282829  -999.250000  -999.250000  -999.250000 95.583229065 1.0116903782 90.627395630  -999.250000  -999.250000  -999.250000
 3214.6218262 13.255801201 12.250000954  -999.250000 7.3549532890  -999.250000  -999.250000  -999.250000 97.991363525 1.0049217939 93.959503174  -999.250000  -999.250000  -999.250000
 3214.7744141 13.637999535 12.250000954  -999.250000 7.5199370384  -999.250000  -999.250000  -999.250000 98.694282532 0.9922204018 96.448501587  -999.250000  -999.250000  -999.250000
 3214.9267578 13.230999947 12.250000954  -999.250000 7.7393479347  -999.250000  -999.250000  -999.250000 102.37209320 0.9700355530 97.412689209  -999.250000  -999.250000  -999.250000
 3215.0791016 13.030499458 12.250000954  -999.250000 7.9227056503  -999.250000  -999.250000  -999.250000 100.24801636 0.8878319263 97.401199341  -999.250000 1.1374000311 1.1596000195
 3215.2314453 13.032098770 12.250000954  -999.250000 8.2895116806  -999.250000  -999.250000  -999.250000 99.269264221 0.7720855474 97.488502502  -999.250000 1.3315999508 1.4752000570
 3215.3837891 13.046299934 12.250000954  -999.250000 8.6142597198  -999.250000  -999.250000  -999.250000 98.695739746 0.6682327986 98.295097351  -999.250000 1.5350999832 1.9285999537
 3215.5363770 13.060099602 12.250000954  -999.250000 8.8215694427  -999.250000  -999.250000  -999.250000 101.80330658 0.5856320262 99.600105286  -999.250000 1.5909999609 2.3029999733
 3215.6887207 13.145199776 12.250000954  -999.250000 8.8057260513  -999.250000  -999.250000  -999.250000 98.537849426 0.5378764272 100.61129761  -999.250000 1.5463999510 2.5434000492
 3215.8410645 13.324500084 12.250000954  -999.250000 8.7739505768  -999.250000  -999.250000  -999.250000 96.880157471 0.5485827327 100.65280151  -999.250000 1.5138000250 2.8306000233
 3215.9934082 13.429900169 12.250000954  -999.250000 8.5918846130 0.4004999995  -999.250000  -999.250000 98.287773132 0.6189740896 99.695495605  -999.250000 1.5102000237 3.2246000767
 3216.1459961 13.423000336 12.250000954  -999.250000 8.3323154449 0.3838999867  -999.250000  -999.250000 98.614181519 0.7104535699 98.431297302  -999.250000 1.4993000031 3.5359001160
 3216.2983398 13.158099174 12.250000954  -999.250000 8.3089370728 0.3488999903  -999.250000  -999.250000 98.162727356 0.7688065767 97.695999146  -999.250000 1.4154000282 3.2757000923
 3216.4506836 13.008898735 12.250000954  -999.250000 8.6110153198 0.3820999861  -999.250000  -999.250000 101.44003296 0.8052416444 97.743103027  -999.250000 1.2998000383 2.7400999069
 3216.6030273 13.327899933 12.250000954  -999.250000 8.6782855988 0.3934000134  -999.250000  -999.250000 103.34130859 0.8438761234 98.231399536  -999.250000 1.2269999981 2.3750998974
 3216.7556152 13.533499718 12.250000954  -999.250000 8.5357284546 0.3569999933  -999.250000  -999.250000 101.93067169 0.8893272281 98.803901672  -999.250000 1.2317999601 2.2734000683
 3216.9079590 13.692000389 12.250000954  -999.250000 8.4474411011 0.3702999949  -999.250000  -999.250000 99.500396729 0.8881021142 99.483901978  -999.250000 1.3044999838 2.3536000252
 3217.0603027 13.805500031 12.250000954  -999.250000 8.3734178543 0.3783000112  -999.250000  -999.250000 97.876701355 0.8828084469 100.28260040  -999.250000 1.4277000427 2.5388998985
 3217.2126465 13.876000404 12.250000954  -999.250000 8.4366979599 0.4505000114  -999.250000  -999.250000 98.966445923 0.8576403856 100.95919800  -999.250000 1.5887000561 2.7938001156
 3217.3649902 13.835299492 12.250000954  -999.250000 8.6559963226 0.4167999923  -999.250000  -999.250000 98.389099121 0.7585180402 101.03189850  -999.250000 1.7829999924 3.1056001186
 3217.5175781 13.384199142 12.250000954  -999.250000 8.8406047821 0.4196999967  -999.250000  -999.250000 99.571601868 0.6372940540 100.10870361  -999.250000 1.9986000061 3.4572000504
 3217.6699219 13.133500099 12.250000954  -999.250000 8.7531414032 0.3508999944  -999.250000  -999.250000 99.884300232 0.5705068707 98.524200439  -999.250000 2.1786000729 3.7028999329
 3217.8222656 13.150699615 12.250000954  -999.250000 8.4876260757 0.3499999940  -999.250000  -999.250000 99.193901062 0.5716978908 97.146102905  -999.250000 2.2346000671 3.6419999599
 3217.9746094 12.804900169 12.250000954  -999.250000 8.2480678558 0.3781000078  -999.250000  -999.250000 99.883102417 0.5891439915 96.687202454  -999.250000 2.1424000263 3.2848000526
 3218.1271973 12.584400177 12.250000954  -999.250000 8.0932474136 0.4154999852  -999.250000  -999.250000 98.507102966 0.6252421141 97.215202332  -999.250000 2.0155999660 2.9481999874
 3218.2795410 12.771200180 12.250000954  -999.250000 8.1681785583 0.3711000085  -999.250000  -999.250000 96.601303101 0.6640378237 98.079399109  -999.250000 1.9469000101 2.7901999950
 3218.4318848 12.835201263 12.250000954  -999.250000 8.5098514557 0.3395999968  -999.250000  -999.250000 98.055397034 0.6612046361 98.424499512  -999.250000 1.9131000042 2.7302999496
 3218.5842285 12.774800301 12.250000954  -999.250000 8.8754281998 0.3709999919  -999.250000  -999.250000 99.823600769 0.6478428841 98.028503418  -999.250000 1.8492000103 2.6222000122
 3218.7368164 12.761899948 12.250000954  -999.250000 9.0606040955 0.4086000025  -999.250000  -999.250000 99.790199280 0.6206435561 97.437797546  -999.250000 1.7532999516 2.4561998844
 3218.8891602 12.839499474 12.250000954  -999.250000 9.0153732300 0.3901999891  -999.250000  -999.250000 100.28990173 0.6285871863 97.336692810  -999.250000 1.6868000031 2.3478000164
 3219.0415039 12.960399628 12.250000954  -999.250000 8.6360082626 0.4192000031  -999.250000  -999.250000 100.18710327 0.6908001900 98.036598206  -999.250000 1.6878000498 2.3668000698
 3219.1938477 12.996600151 12.250000954  -999.250000 7.7540149689 0.4129999876  -999.250000  -999.250000 96.750602722 0.7893419862 99.297691345  -999.250000 1.7350000143 2.4718000889
 3219.3461914 12.985300064 12.250000954  -999.250000 7.3314518929 0.3736999929  -999.250000  -999.250000 95.160102844 0.8293720484 100.64579773  -999.250000 1.7804000378 2.5676000118
 3219.4987793 12.982200623 12.250000954  -999.250000 7.3958945274 0.3774000108  -999.250000  -999.250000 97.489303589 0.8232100606 101.68679810  -999.250000 1.8171000481 2.6363999844
