# LAS format log file from PETREL
# Project units are specified as depth units
#==================================================================
~Version information
VERS.   2.0:
WRAP.   NO:
#==================================================================
~Well
STRT .m      2290.9255371 :
STOP .m      2985.5649414 :
STEP .m     0.00000000 :
NULL .        -999.250000 :
COMP.           : COMPANY
WELL.  7/4-3 Carlsberg   : WELL
FLD.            : FIELD
LOC.            : LOCATION
SRVC.           : SERVICE COMPANY
DATE.  2018-09-11 21:49:22   : Log Export Date {yyyy-MM-dd HH:mm:ss}
PROV.           : PROVINCE
UWI.   7/4-3   : UNIQUE WELL ID
API.            : API NUMBER
#==================================================================
~Curve
DEPT .m                   : DEPTH
CALI .in                  : CALI
BS .in                    : BS
ROP .m/h                  : ROP
DRHO .g/cm3               : DRHO
NPHI .m3/m3               : NPHI
RHOB .g/cm3               : RHOB
PEF .b/e                  : PEF
GR .gAPI                  : GR
DTC .us/ft                : DTC
DTS .us/ft                : DTS
RDEP .ohm.m               : RDEP
RMED .ohm.m               : RMED
~Parameter
#==================================================================
~Ascii
# ...
 2334.8166504 12.153800011 12.250000954 190815.35938 0.0160139427 0.1600065678 2.5003728867 6.4355144501 29.846500397 85.341102600 168.82080078 1.0977739096 1.0729568005
 2334.9692383 12.154299736 12.250000954 184965.35938 0.0144999996 0.1671999991 2.4953999519 6.1085000038 30.893600464 85.645492554 167.19819641 1.0676000118 1.0333000422
 2335.1215820 12.127500534 12.250000954 168539.76563 0.0088000000 0.1661999971 2.4674999714 5.8420000076 27.776800156 85.647598267 165.47621155 1.0419000387 1.0097999573
 2335.2739258 12.208100319 12.250000954 147485.42188 0.0109964795 0.1710921675 2.4601118565 5.8697557449 22.112400055 85.556503296 164.57209778 1.0120999813 0.9838415980
 2335.4262695 12.283499718 12.250000954 133635.82813 0.0190870184 0.1617150605 2.4452238083 5.9843163490 21.278900146 85.759201050 164.66499329 0.9678999782 0.9370749593
 2335.5786133 12.231800079 12.250000954 122906.70313 0.0223947112 0.1706855744 2.4391098022 6.0346193314 18.292600632 86.502609253 167.10400391 0.9201999903 0.8867805600
 2335.7312012 12.238900185 12.250000954 110840.54688 0.0208000001 0.1844999939 2.4423000813 6.2325000763 22.194200516 86.937210083 167.22302246 0.8899000287 0.8508999944
 2335.8835449 12.432800293 12.250000954 91101.968750 0.0238950402 0.1778107136 2.4514851570 6.6042046547 24.756599426 87.181701660 165.77149963 0.8503000140 0.8126612902
 2336.0358887 12.596500397 12.250000954 56305.511719 0.0371786878 0.1905794740 2.4299345016 6.5632667542 22.734899521 86.409698486 164.00711060 0.7687000036 0.7485028505
 2336.1882324 12.441499710 12.250000954 52500.003906 0.0470841341 0.2014825344 2.4038417339 6.8999590874 20.091499329 85.743499756 162.20190430 0.6922000051 0.6775137782
 2336.3408203 12.393400192 12.250000954 88371.265625 0.0272000004 0.2203000039 2.3714001179 6.4755997658 14.884799957 85.450897217 160.95390320 0.6398000121 0.6234999895
 2336.4931641 12.396900177 12.250000954 124452.75781 0.0274000000 0.2219000012 2.3508000374 6.3516998291 21.918500900 85.317199707 160.23150635 0.6062999964 0.5896999836
 2336.6455078 12.549900055 12.250000954 166146.84375 0.0284982398 0.2223991901 2.3500010967 6.4213886261 18.187000275 85.521400452 160.42849731 0.5723999739 0.5526593924
 2336.7978516 12.437001228 12.250000954 197932.68750 0.0294983983 0.2321842909 2.3314297199 6.6363554001 13.831600189 85.723899841 162.23800659 0.5443999767 0.5261424184
 2336.9504395 12.450900078 12.250000954 202250.78125 0.0214000009 0.2273000032 2.3024001122 7.1304001808 16.428199768 86.105003357 164.61650085 0.5067999959 0.4871000051
 2337.1027832 12.439499855 12.250000954 197722.43750 0.0288999993 0.2202000022 2.3111000061 7.5164999962 15.135000229 86.727798462 166.70748901 0.4812000096 0.4618999958
 2337.2551270 12.364499092 12.250000954 198233.85938 0.0238081608 0.2173046321 2.3115992546 6.3750290871 17.066699982 87.255302429 166.48530579 0.4979999959 0.4716843367
 2337.4074707 12.282799721 12.250000954 198760.62500 0.0238000005 0.2145044804 2.3115999699 5.9356021881 19.266599655 87.570396423 166.33050537 0.5307000279 0.5019513965
 2337.5598145 12.282100677 12.250000954 199124.40625 0.0215036869 0.2211892605 2.3225822449 5.8296689987 23.494699478 87.592796326 165.91700745 0.5432000160 0.5204703808
 2337.7124023 12.342700005 12.250000954 194894.89063 0.0175999999 0.2360000014 2.3359000683 5.4421000481 18.114400864 87.297996521 166.94009399 0.5307000279 0.5175999999
 2337.8647461 12.425399780 12.250000954 189259.84375 0.0211942401 0.2404928058 2.3302090168 5.6491680145 21.252799988 86.805297852 167.55960083 0.4964999855 0.4884467423
 2338.0170898 12.590199471 12.250000954 187559.06250 0.0235961545 0.2363067418 2.3038423061 5.6679706573 16.880300522 86.705497742 167.69630432 0.4679000080 0.4549536705
 2338.1694336 12.544400215 12.250000954 190882.67188 0.0317868590 0.2506769300 2.2963118553 5.6382474899 17.009199142 86.872398376 168.80230713 0.4717999995 0.4510062635
 2338.3220215 12.453000069 12.250000954 199693.70313 0.0236000009 0.2576999962 2.2827000618 5.4615001678 18.106800079 87.638397217 169.97219849 0.4742000103 0.4620999992
 2338.4743652 12.523501396 12.250000954 209415.34375 0.0190999992 0.2612000108 2.2516999245 5.2610001564 14.147899628 88.780601501 172.35229492 0.4259999990 0.4176000059
 2338.6267090 12.323399544 12.250000954 218553.53125 0.0154059203 0.2731808126 2.2225468159 5.3877968788 16.481899261 90.352699280 176.29809570 0.3896000087 0.3775641620
 2338.7790527 12.249200821 12.250000954 226944.07813 0.0146012828 0.2639149129 2.2194049358 5.5518369675 14.345800400 91.377799988 178.50639343 0.3860999942 0.3689137697
 2338.9316406 12.456500053 12.250000954 238822.45313 0.0153000001 0.2633000016 2.2307999134 5.5574998856 20.016599655 91.826202393 179.53938293 0.4059000015 0.3905999959
 2339.0839844 12.597998619 12.250000954 249765.35938 0.0226000007 0.2788999975 2.2297000885 5.4737000465 17.938800812 92.038597107 179.08110046 0.3801000118 0.3740999997
 2339.2363281 12.411499977 12.250000954 252416.93750 0.0213020798 0.2765038311 2.2107305527 5.3398146629 11.417099953 91.831596375 179.55889893 0.3465999961 0.3376584053
 2339.3886719 12.304800034 12.250000954 253924.01563 0.0152097763 0.2672148943 2.2106001377 5.4738845825 19.401800156 91.983711243 180.33549500 0.3535000086 0.3392972946
 2339.5410156 12.410200119 12.250000954 254001.98438 0.0165977553 0.2838732302 2.2248771191 5.4529337883 17.594900131 92.279197693 180.42829895 0.3768999875 0.3598669767
 2339.6936035 12.602499008 12.250000954 253146.85938 0.0197999999 0.2646999955 2.2349998951 5.5655999184 15.640399933 92.339202881 180.81648254 0.3899999857 0.3819999993
 2339.8459473 12.420599937 12.250000954 251312.57813 0.0199996792 0.2589092553 2.2259144783 5.5074930191 18.798299789 92.444808960 179.92691040 0.3644999862 0.3549433649
 2339.9982910 12.362999916 12.250000954 249917.73438 0.0166054480 0.2599982321 2.2185118198 5.4882311821 14.977700233 92.335998535 178.00079346 0.3704000115 0.3528033793
 2340.1506348 12.407699585 12.250000954 249309.45313 0.0165001601 0.2671884596 2.2277848721 5.5393180847 18.834699631 92.096298218 176.02679443 0.3765999973 0.3659788370
 2340.3032227 12.483800888 12.250000954 248822.84375 0.0177999996 0.2694000006 2.2204999924 5.6182999611 21.886299133 91.822196960 175.25970459 0.3533000052 0.3476999998
 2340.4555664 12.492199898 12.250000954 248528.76563 0.0174000002 0.2773999870 2.2046000957 5.6933999062 17.433200836 91.913803101 175.13479614 0.3226999938 0.3161999881
 2340.6079102 12.463500023 12.250000954 250999.60938 0.0162019208 0.2747043073 2.1890249252 5.6478729248 16.546600342 92.082397461 176.26049805 0.2973999977 0.2910403311
 2340.7602539 12.309499741 12.250000954 252532.67188 0.0161001608 0.3009578586 2.1876020432 5.5044302940 21.153600693 92.208297729 178.75920105 0.3030000031 0.2901014388
 2340.9128418 12.132401466 12.250000954 253203.54688 0.0122999996 0.2910000086 2.1998000145 5.1875000000 16.698299408 91.977996826 180.43041992 0.3384000063 0.3244000077
 2341.0651855 12.365599632 12.250000954 251376.35938 0.0065000001 0.2640999854 2.2056999207 5.1258001328 10.878499985 91.570198059 180.32150269 0.3407000005 0.3357999921
 2341.2175293 12.327000618 12.250000954 248255.89063 0.0150862401 0.2692916989 2.2110915184 5.1767182350 17.866300583 91.209190369 179.50250244 0.3215999901 0.3125372827
 2341.3698730 12.114100456 12.250000954 246790.14063 0.0120049678 0.2670036852 2.2134962082 5.0562934875 18.800699234 90.913597107 178.88758850 0.3610000014 0.3464455307
 2341.5222168 12.277799606 12.250000954 246768.92188 0.0146956732 0.2587133050 2.2406563759 5.0770659447 19.973199844 90.460998535 178.16581726 0.3747999966 0.3677658737
 2341.6748047 12.173199654 12.250000954 246525.59375 0.0209999997 0.2678000033 2.2506000996 5.1399002075 14.878399849 90.364898682 177.07040405 0.3720999956 0.3621000051
 2341.8271484 12.272199631 12.250000954 246914.15625 0.0173059199 0.2736905515 2.2580881119 5.3511614799 18.480600357 90.334709167 177.40521240 0.3878000081 0.3733819127
 2341.9794922 12.224200249 12.250000954 246630.70313 0.0105108973 0.2704052627 2.2462191582 5.2230062485 13.731499672 90.253501892 176.64520264 0.4172999859 0.4012553096
