# LAS format log file from PETREL
# Project units are specified as depth units
#==================================================================
~Version information
VERS.   2.0:
WRAP.   NO:
#==================================================================
~Well
STRT .m      871.77679443 :
STOP .m      3117.6955566 :
STEP .m     0.00000000 :
NULL .        -999.250000 :
COMP.           : COMPANY
WELL.  7/4-1   : WELL
FLD.            : FIELD
LOC.            : LOCATION
SRVC.           : SERVICE COMPANY
DATE.  2018-09-11 21:49:21   : Log Export Date {yyyy-MM-dd HH:mm:ss}
PROV.           : PROVINCE
UWI.   7/4-1   : UNIQUE WELL ID
API.            : API NUMBER
#==================================================================
~Curve
DEPT .m                   : DEPTH
DCAL .in                  : DCAL
CALI .in                  : CALI
NPHI .m3/m3               : NPHI
RHOB .g/cm3               : RHOB
GR .gAPI                  : GR
DTC .us/ft                : DTC
RDEP .ohm.m               : RDEP
SP .mV                    : SP
RMED .ohm.m               : RMED
~Parameter
#==================================================================
~Ascii
# ...
 1618.2319336 20.630598068 20.630598068  -999.250000 2.0534000397 70.722702026 149.75849915 0.5726000071 13.345862389 0.4526999891
 1618.3843994 20.628997803 20.628997803  -999.250000 2.0525000095 73.597198486 149.15769958 0.5651999712 13.245738983 0.4539999962
 1618.5367432 20.653902054 20.653902054  -999.250000 2.0529000759 75.772499084 148.45829773 0.5633999705 13.170186043 0.4575999975
 1618.6892090 20.627000809 20.627000809  -999.250000 2.0569999218 76.790802002 147.79510498 0.5715000033 13.042609215 0.4634000063
 1618.8415527 20.530899048 20.530899048  -999.250000 2.0669999123 76.955596924 147.29260254 0.5904999971 12.865574837 0.4697999954
 1618.9940186 20.376300812 20.376300812  -999.250000 2.0827000141 76.508102417 146.82789612 0.6190999746 12.696869850 0.4787999988
 1619.1463623 20.235300064 20.235300064  -999.250000 2.0985000134 75.548599243 146.15089417 0.6489999890 12.608189583 0.4902000129
 1619.2988281 20.128301620 20.128301620  -999.250000 2.1133999825 73.553901672 145.21850586 0.6704999804 12.591031075 0.4995999932
 1619.4511719 20.002199173 20.002199173  -999.250000 2.1257998943 71.155296326 144.36630249 0.6808000207 12.597306252 0.5030000210
 1619.6036377 19.828798294 19.828798294  -999.250000 2.1275000572 69.465698242 144.07490540 0.6794000268 12.579480171 0.5006999969
 1619.7559814 19.679899216 19.679899216  -999.250000 2.1177999973 69.013198853 144.38040161 0.6725000143 12.513682365 0.4988000095
 1619.9083252 19.655599594 19.655599594  -999.250000 2.1036999226 69.936203003 144.97030640 0.6618999839 12.427033424 0.4988000095
 1620.0607910 19.704900742 19.704900742  -999.250000 2.0963997841 71.345497131 145.33689880 0.6467000246 12.372998238 0.4945999980
 1620.2131348 19.761898041 19.761898041  -999.250000 2.0968000889 72.213699341 145.46980286 0.6279000044 12.392144203 0.4805999994
 1620.3656006 19.865997314 19.865997314  -999.250000 2.0954000950 71.997497559 145.92469788 0.6133999825 12.465044022 0.4636000097
 1620.5179443 20.090400696 20.090400696  -999.250000 2.0864000320 70.692802429 147.09590149 0.6118000150 12.538209915 0.4575999975
 1620.6704102 20.376899719 20.376899719  -999.250000 2.0743000507 69.405998230 148.38459778 0.6223999858 12.608202934 0.4690000117
 1620.8227539 20.618600845 20.618600845  -999.250000 2.0676000118 69.417900085 148.68159485 0.6358000040 12.681370735 0.4889000058
 1620.9752197 20.759799957 20.759799957  -999.250000 2.0699000359 70.806098938 147.49499512 0.6417000294 12.709007263 0.5005999804
 1621.1275635 20.842899323 20.842899323  -999.250000 2.0771000385 72.384498596 145.44630432 0.6383000016 12.597940445 0.4973999858
 1621.2800293 20.867599487 20.867599487  -999.250000 2.0824000835 72.933502197 143.84260559 0.6306999922 12.327407837 0.4819999933
 1621.4323730 20.785001755 20.785001755  -999.250000 2.0820000172 72.413002014 143.57600403 0.6248000264 12.036025047 0.4607000053
 1621.5848389 20.621799469 20.621799469  -999.250000 2.0752999783 71.390296936 144.83230591 0.6258000135 11.903316498 0.4395999908
 1621.7371826 20.524999619 20.524999619  -999.250000 2.0645999908 70.248001099 146.93490601 0.6340000033 11.994388580 0.4253000021
 1621.8895264 20.590799332 20.590799332  -999.250000 2.0527000427 68.866096497 149.00529480 0.6452999711 12.183591843 0.4237999916
 1622.0419922 20.739101410 20.739101410  -999.250000 2.0420000553 67.349296570 150.19309998 0.6500999928 12.288714409 0.4296000004
 1622.1943359 20.839300156 20.839300156  -999.250000 2.0322000980 66.451103210 149.62860107 0.6363000274 12.249330521 0.4307999909
 1622.3468018 20.888700485 20.888700485  -999.250000 2.0225999355 66.500602722 147.65550232 0.6065999866 12.130144119 0.4201999903
 1622.4991455 20.981800079 20.981800079  -999.250000 2.0132999420 67.169998169 145.42089844 0.5687000155 12.035498619 0.3971000016
 1622.6516113 21.175500870 21.175500870  -999.250000 2.0051000118 67.669898987 144.63330078 0.5343999863 12.009378433 0.3709999919
 1622.8039551 21.440599442 21.440599442  -999.250000 1.9984999895 67.587600708 146.54089355 0.5133000016 12.025572777 0.3492999971
 1622.9564209 21.683300018 21.683300018  -999.250000 1.9919999838 66.785102844 150.04649353 0.5060999990 12.074891090 0.3359000087
 1623.1087646 21.861099243 21.861099243  -999.250000 1.9858000278 65.461502075 153.71607971 0.5116000175 12.158269882 0.3352000117
 1623.2612305 22.005100250 22.005100250  -999.250000 1.9816999435 64.330299377 156.16630554 0.5213000178 12.282316208 0.3449000120
 1623.4135742 22.122800827 22.122800827  -999.250000 1.9814000130 64.144996643 156.59559631 0.5267000198 12.417453766 0.3612999916
 1623.5660400 22.208499908 22.208499908  -999.250000 1.9853999615 65.039199829 155.24009705 0.5242000222 12.545876503 0.3774999976
 1623.7183838 22.234500885 22.234500885  -999.250000 1.9948999882 66.216300964 152.63279724 0.5174999833 12.673206329 0.3889999986
 1623.8708496 22.178600311 22.178600311  -999.250000 2.0079998970 66.736701965 149.97148132 0.5151000023 12.820275307 0.3941000104
 1624.0231934 22.037500381 22.037500381  -999.250000 2.0204000473 66.774696350 148.24099731 0.5245000124 12.982688904 0.3941000104
 1624.1755371 21.808599472 21.808599472  -999.250000 2.0278000832 67.005699158 147.89720154 0.5478000045 13.103618622 0.3946000040
 1624.3280029 21.516399384 21.516399384  -999.250000 2.0281999111 67.743896484 148.61549377 0.5782999992 13.117919922 0.4004000127
 1624.4803467 21.264499664 21.264499664  -999.250000 2.0239000320 68.768600464 149.44970703 0.6032000184 13.013471603 0.4122000039
 1624.6328125 21.167001724 21.167001724  -999.250000 2.0206000805 69.549003601 149.57899475 0.6134999990 12.835213661 0.4244999886
 1624.7851563 21.261800766 21.261800766  -999.250000 2.0232000351 70.128898621 148.78729248 0.6075000167 12.664001465 0.4313000143
 1624.9376221 21.436000824 21.436000824  -999.250000 2.0301001072 70.588096619 147.73959351 0.5939000249 12.541406631 0.4323000014
 1625.0899658 21.458297729 21.458297729  -999.250000 2.0362000465 70.398002625 147.26870728 0.5835999846 12.438432693 0.4304000139
 1625.2424316 21.199800491 21.199800491  -999.250000 2.0383000374 69.559097290 147.35690308 0.5802000165 12.285022736 0.4300999939
 1625.3947754 20.699399948 20.699399948  -999.250000 2.0383999348 68.424598694 147.42210388 0.5831000209 12.055198669 0.4332999885
 1625.5472412 20.214702606 20.214702606  -999.250000 2.0408999920 67.522003174 147.09390259 0.5892000198 11.784168243 0.4374000132
 1625.6995850 19.993700027 19.993700027  -999.250000 2.0464000702 67.110496521 146.84530640 0.5978999734 11.547104836 0.4411999881
 1625.8520508 19.973398209 19.973398209  -999.250000 2.0518000126 66.846298218 147.38560486 0.6089000106 11.392787933 0.4478999972
 1626.0043945 19.922899246 19.922899246  -999.250000 2.0585999489 66.188796997 148.65969849 0.6223999858 11.303293228 0.4643000066
 1626.1567383 19.687299728 19.687299728  -999.250000 2.0706000328 64.739601135 149.25840759 0.6355999708 11.272824287 0.4891999960
 1626.3092041 19.346300125 19.346300125  -999.250000 2.0889000893 62.927200317 147.85169983 0.6463999748 11.287679672 0.5146999955
 1626.4615479 19.122600555 19.122600555  -999.250000 2.1052000523 62.579299927 144.96459961 0.6546000242 11.338664055 0.5307000279
 1626.6140137 19.172199249 19.172199249  -999.250000 2.1105999947 65.102798462 142.14579773 0.6589999795 11.388843536 0.5324000120
 1626.7663574 19.388799667 19.388799667  -999.250000 2.1068999767 68.887496948 140.92689514 0.6589999795 11.450230598 0.5256000161
 1626.9188232 19.629800797 19.629800797  -999.250000 2.1006000042 71.412399292 141.54460144 0.6542000175 11.564518929 0.5152000189
 1627.0711670 19.816200256 19.816200256  -999.250000 2.0964999199 71.940200806 143.06269836 0.6463999748 11.736666679 0.5027999878
 1627.2236328 19.966299057 19.966299057  -999.250000 2.0927999020 71.721900940 144.80290222 0.6388000250 11.908120155 0.4880999923
 1627.3759766 20.128599167 20.128599167  -999.250000 2.0855000019 72.028099060 146.44790649 0.6317999959 12.014253616 0.4754999876
 1627.5284424 20.316400528 20.316400528  -999.250000 2.0759000778 73.015998840 147.89410400 0.6233999729 12.035915375 0.4697000086
