# LAS format log file from PETREL
# Project units are specified as depth units
#==================================================================
~Version information
VERS.   2.0:
WRAP.   NO:
#==================================================================
~Well
STRT .m      871.77679443 :
STOP .m      3117.6955566 :
STEP .m     0.00000000 :
NULL .        -999.250000 :
COMP.           : COMPANY
WELL.  7/4-1   : WELL
FLD.            : FIELD
LOC.            : LOCATION
SRVC.           : SERVICE COMPANY
DATE.  2018-09-11 21:49:21   : Log Export Date {yyyy-MM-dd HH:mm:ss}
PROV.           : PROVINCE
UWI.   7/4-1   : UNIQUE WELL ID
API.            : API NUMBER
#==================================================================
~Curve
DEPT .m                   : DEPTH
DCAL .in                  : DCAL
CALI .in                  : CALI
NPHI .m3/m3               : NPHI
RHOB .g/cm3               : RHOB
GR .gAPI                  : GR
DTC .us/ft                : DTC
RDEP .ohm.m               : RDEP
SP .mV                    : SP
RMED .ohm.m               : RMED
~Parameter
#==================================================================
~Ascii
# ...
 2364.6872559 17.408899307 17.408899307  -999.250000 2.4776999950 49.923801422 99.736198425 0.7419999838 21.025022507 0.6891000271
 2364.8395996 17.411300659 17.411300659  -999.250000 2.4444532394 49.689998627 100.18987274 0.6941000223 21.534364700 0.6352862716
 2364.9919434 17.405700684 17.405700684  -999.250000 2.4163451195 48.131198883 100.11881256 0.6378999949 22.204364777 0.5728999972
 2365.1442871 17.385900497 17.385900497  -999.250000 2.3704736233 45.327098846 98.938888550 0.5834000111 22.997962952 0.5149928331
 2365.2968750 17.353500366 17.353500366  -999.250000 2.3101000786 41.662899017 96.391700745 0.5370000005 23.804189682 0.4717999995
 2365.4492188 17.320999146 17.320999146  -999.250000 2.2590999603 38.208900452 93.370903015 0.4981000125 24.509611130 0.4420000017
 2365.6015625 17.298900604 17.298900604  -999.250000 2.2319436073 35.673301697 90.854339600 0.4656000137 25.089239120 0.4231302440
 2365.7539063 17.288000107 17.288000107  -999.250000 2.2195198536 33.913501740 89.267738342 0.4356999993 25.524732590 0.4073253274
 2365.9064941 17.287300110 17.287300110  -999.250000 2.2149000168 33.050098419 88.662796021 0.4075999856 25.876848221 0.3901999891
 2366.0588379 17.293100357 17.293100357  -999.250000 2.2100999355 33.025501251 88.391296387 0.3819999993 26.133543015 0.3714999855
 2366.2111816 17.300800323 17.300800323  -999.250000 2.2029113770 33.842098236 88.174942017 0.3619000018 26.301099777 0.3544273674
 2366.3635254 17.305000305 17.305000305  -999.250000 2.1950125694 34.515800476 88.088836670 0.3486999869 26.381919861 0.3417203426
 2366.5158691 17.305500031 17.305500031  -999.250000 2.1875119209 34.512901306 88.274803162 0.3425000012 26.431871414 0.3348110616
 2366.6684570 17.305500031 17.305500031  -999.250000 2.1807999611 34.237499237 88.631797791 0.3402999938 26.494752884 0.3323999941
 2366.8208008 17.305500031 17.305500031  -999.250000 2.1757080555 34.243598938 89.028564453 0.3404999971 26.566499710 0.3337977529
 2366.9731445 17.305500031 17.305500031  -999.250000 2.1736032963 34.633098602 89.442733765 0.3424000144 26.613815308 0.3375939131
 2367.1254883 17.305500031 17.305500031  -999.250000 2.1741991043 35.128200531 89.982933044 0.3463000059 26.607366562 0.3428915143
 2367.2780762 17.305500031 17.305500031  -999.250000 2.1761999130 35.512798309 90.753997803 0.3522999883 26.542150497 0.3488000035
 2367.4304199 17.305999756 17.305999756  -999.250000 2.1782999039 35.983501434 91.693099976 0.3603000045 26.444469452 0.3540999889
 2367.5827637 17.309999466 17.309999466  -999.250000 2.1780004501 36.499698639 92.577178955 0.3689999878 26.345188141 0.3571950495
 2367.7351074 17.317699432 17.317699432  -999.250000 2.1737070084 36.913600922 93.211982727 0.3768000007 26.263137817 0.3571999967
 2367.8876953 17.323600769 17.323600769  -999.250000 2.1658000946 37.018501282 93.461196899 0.3819999993 26.215232849 0.3544000089
 2368.0400391 17.322999954 17.322999954  -999.250000 2.1572000980 36.687801361 93.397697449 0.3844000101 26.228073120 0.3504000008
 2368.1923828 17.314100266 17.314100266  -999.250000 2.1506104469 36.028900146 93.149795532 0.3838000000 26.285482407 0.3464064002
 2368.3447266 17.297800064 17.297800064  -999.250000 2.1466064453 35.505500793 92.849281311 0.3808999956 26.337572098 0.3433049917
 2368.4970703 17.273300171 17.273300171  -999.250000 2.1459012032 35.521301270 92.439254761 0.3758000135 26.343614578 0.3416027129
 2368.6496582 17.244800568 17.244800568  -999.250000 2.1487998962 35.793899536 91.849403381 0.3691999912 26.307666779 0.3409999907
 2368.8020020 17.220600128 17.220600128  -999.250000 2.1557888985 35.588699341 91.053077698 0.3617999852 26.274080276 0.3404009640
 2368.9543457 17.206899643 17.206899643  -999.250000 2.1636874676 34.815101624 90.278144836 0.3549999893 26.262990952 0.3384032249
 2369.1066895 17.203699112 17.203699112  -999.250000 2.1676936150 34.181900024 89.853073120 0.3501000106 26.251832962 0.3344064057
 2369.2592773 17.203399658 17.203399658  -999.250000 2.1661999226 34.521400452 89.897109985 0.3479000032 26.217163086 0.3300000131
 2369.4116211 17.203399658 17.203399658  -999.250000 2.1614000797 35.748001099 90.402496338 0.3483000100 26.159568787 0.3273000121
 2369.5639648 17.203399658 17.203399658  -999.250000 2.1589038372 36.673198700 91.051856995 0.3492999971 26.094846725 0.3267009556
 2369.7163086 17.203399658 17.203399658  -999.250000 2.1617953777 36.522201538 91.525245667 0.3486999869 26.059526443 0.3274987042
 2369.8688965 17.204599380 17.204599380  -999.250000 2.1681001186 35.728900909 91.624298096 0.3456999958 26.089773178 0.3280000091
 2370.0212402 17.212900162 17.212900162  -999.250000 2.1737000942 35.171699524 91.342796326 0.3409999907 26.167179108 0.3269999921
 2370.1735840 17.237300873 17.237300873  -999.250000 2.1753973961 35.366500854 90.945335388 0.3371999860 26.223932266 0.3251030445
 2370.3259277 17.280899048 17.280899048  -999.250000 2.1726045609 36.090198517 90.751113892 0.3361000121 26.206090927 0.3233028948
 2370.4785156 17.333900452 17.333900452  -999.250000 2.1658999920 36.800800323 90.970703125 0.3384999931 26.116346359 0.3233999908
 2370.6308594 17.385099411 17.385099411  -999.250000 2.1577999592 36.944599152 91.568199158 0.3438999951 25.983068466 0.3274999857
 2370.7832031 17.428699493 17.428699493  -999.250000 2.1525084972 36.263000488 92.295234680 0.3522000015 25.819257736 0.3381828964
 2370.9355469 17.464599609 17.464599609  -999.250000 2.1529994011 35.379600525 92.792907715 0.3630000055 25.653024673 0.3545737267
 2371.0878906 17.490600586 17.490600586  -999.250000 2.1603879929 35.298698425 92.671401978 0.3758000135 25.542118073 0.3739689291
 2371.2404785 17.505300522 17.505300522  -999.250000 2.1721000671 36.251300812 91.896003723 0.3907000124 25.493663788 0.3923999965
 2371.3928223 17.509300232 17.509300232  -999.250000 2.1855783463 37.713001251 90.693527222 0.4095000029 25.414871216 0.4073760211
 2371.5451660 17.509599686 17.509599686  -999.250000 2.1979801655 38.724098206 89.577285767 0.4332000017 25.209602356 0.4206787050
 2371.6975098 17.509599686 17.509599686  -999.250000 2.2068855762 38.716499329 88.994827271 0.4625999928 24.927139282 0.4360753298
 2371.8500977 17.509599686 17.509599686  -999.250000 2.2132999897 38.068401337 88.961196899 0.4950999916 24.674749374 0.4564000070
 2372.0024414 17.507400513 17.507400513  -999.250000 2.2207999229 37.378398895 89.449897766 0.5310999751 24.501531601 0.4853000045
 2372.1547852 17.497699738 17.497699738  -999.250000 2.2334797382 37.249000549 90.080192566 0.5710999966 24.363536835 0.5224404335
 2372.3071289 17.475299835 17.475299835  -999.250000 2.2536675930 37.770099640 90.415267944 0.6161999702 24.198246002 0.5689254999
 2372.4597168 17.447099686 17.447099686  -999.250000 2.2762999535 38.105201721 90.093498230 0.6667000055 23.999952316 0.6202999949
 2372.6120605 17.423500061 17.423500061  -999.250000 2.2960000038 37.748500824 88.821296692 0.7285000086 23.821596146 0.6704999804
 2372.7644043 17.410699844 17.410699844  -999.250000 2.3112754822 37.092601776 86.836883545 0.8054999709 23.721796036 0.7135310173
 2372.9167480 17.407699585 17.407699585  -999.250000 2.3225817680 37.072399139 84.647308350 0.8982999921 23.697862625 0.7470462918
 2373.0690918 17.407400131 17.407400131  -999.250000 2.3313858509 38.144699097 83.030189514 1.0040999651 23.708681107 0.7795479298
 2373.2216797 17.404699326 17.404699326  -999.250000 2.3396999836 39.801601410 82.373596191 1.1281000376 23.697845459 0.8263999820
 2373.3740234 17.393100739 17.393100739  -999.250000 2.3537774086 40.587200165 82.108123779 1.2734999657 23.646972656 0.9025779366
 2373.5263672 17.370000839 17.370000839  -999.250000 2.3800578117 39.819198608 81.154136658 1.4378999472 23.581985474 1.0164175034
 2373.6787109 17.341699600 17.341699600  -999.250000 2.4180393219 38.217098236 78.677085876 1.6247999668 23.554864883 1.1654610634
 2373.8312988 17.318899155 17.318899155  -999.250000 2.4586999416 37.030200958 74.878196716 1.8647999763 23.611412048 1.3366999626
 2373.9836426 17.307800293 17.307800293  -999.250000 2.4916999340 36.612701416 70.719802856 2.2174999714 23.739479065 1.5115000010
