# LAS format log file from PETREL
# Project units are specified as depth units
#==================================================================
~Version information
VERS.   2.0:
WRAP.   NO:
#==================================================================
~Well
STRT .m      871.77679443 :
STOP .m      3117.6955566 :
STEP .m     0.00000000 :
NULL .        -999.250000 :
COMP.           : COMPANY
WELL.  7/4-1   : WELL
FLD.            : FIELD
LOC.            : LOCATION
SRVC.           : SERVICE COMPANY
DATE.  2018-09-11 21:49:21   : Log Export Date {yyyy-MM-dd HH:mm:ss}
PROV.           : PROVINCE
UWI.   7/4-1   : UNIQUE WELL ID
API.            : API NUMBER
#==================================================================
~Curve
DEPT .m                   : DEPTH
DCAL .in                  : DCAL
CALI .in                  : CALI
NPHI .m3/m3               : NPHI
RHOB .g/cm3               : RHOB
GR .gAPI                  : GR
DTC .us/ft                : DTC
RDEP .ohm.m               : RDEP
SP .mV                    : SP
RMED .ohm.m               : RMED
~Parameter
#==================================================================
~Ascii
# ...
 2062.3256836 17.917900085 17.917900085  -999.250000 2.3805000782 64.645202637 117.74019623 0.4424999952 -3.080578327 0.4011999965
 2062.4780273 17.917900085 17.917900085  -999.250000 2.3125000000 66.900497437 120.75379944 0.4435000122 -2.967147827 0.3964999914
 2062.6303711 17.917900085 17.917900085  -999.250000 2.2404155731 68.508300781 128.38058472 0.4481000006 -2.847013712 0.4035886526
 2062.7827148 17.917900085 17.917900085  -999.250000 2.1918778419 68.397796631 136.51116943 0.4487999976 -2.767216444 0.4156805873
 2062.9350586 17.917900085 17.917900085  -999.250000 2.1709334850 67.766197205 141.34095764 0.4415000081 -2.837352991 0.4225889444
 2063.0876465 17.917900085 17.917900085  -999.250000 2.1723999977 68.176002502 141.43150330 0.4271999896 -3.080328703 0.4183000028
 2063.2399902 17.917900085 17.917900085  -999.250000 2.1839814186 69.741500854 139.12020874 0.4122000039 -3.399505377 0.4071179032
 2063.3923340 17.917900085 17.917900085  -999.250000 2.1953816414 71.381500244 137.11720276 0.4036999941 -3.656842947 0.3958181143
 2063.5446777 17.917900085 17.917900085  -999.250000 2.2022891045 72.009902954 136.41462708 0.4034000039 -3.748443365 0.3887113929
 2063.6972656 17.917900085 17.917900085  -999.250000 2.2058000565 71.507003784 136.73069763 0.4119000137 -3.689942122 0.3874999881
 2063.8496094 17.917900085 17.917900085  -999.250000 2.2090001106 70.858802795 137.12770081 0.4241000116 -3.514086962 0.3899999857
 2064.0019531 17.917900085 17.917900085  -999.250000 2.2129936218 71.032302856 137.07339478 0.4352999926 -3.285721779 0.3950918317
 2064.1542969 17.917900085 17.917900085  -999.250000 2.2185909748 71.941299438 136.62791443 0.4424000084 -3.003468513 0.4006910324
 2064.3068848 17.917900085 17.917900085  -999.250000 2.2255001068 72.782897949 135.98959351 0.4444000125 -2.644647837 0.4047000110
 2064.4592285 17.918300629 17.918300629  -999.250000 2.2316999435 72.924499512 135.30870056 0.4440999925 -2.159702778 0.4050000012
 2064.6115723 17.932199478 17.932199478  -999.250000 2.2353940010 72.318397522 134.50527954 0.4427999854 -1.589146495 0.3998083174
 2064.7639160 17.993200302 17.993200302  -999.250000 2.2368977070 71.472198486 133.73773193 0.4424999952 -1.010544658 0.3913136125
 2064.9162598 18.149299622 18.149299622  -999.250000 2.2348034382 70.697303772 133.68827820 0.4445999861 -0.490306109 0.3850100935
 2065.0688477 18.368499756 18.368499756  -999.250000 2.2269001007 69.697700500 135.08340454 0.4492999911 -0.066227578 0.3880999982
 2065.2211914 18.521299362 18.521299362  -999.250000 2.2129223347 68.172996521 137.82130432 0.4550000131 0.2288643867 0.4028763175
 2065.3735352 18.494499207 18.494499207  -999.250000 2.1990220547 66.762397766 140.50790405 0.4584999979 0.3507578671 0.4211706817
 2065.5258789 18.318099976 18.318099976  -999.250000 2.1916120052 66.457199097 141.90596008 0.4582000077 0.3199474216 0.4331807792
 2065.6784668 18.145700455 18.145700455  -999.250000 2.1912999153 67.450500488 141.67649841 0.4546999931 0.2148934007 0.4366999865
 2065.8308105 18.072299957 18.072299957  -999.250000 2.1942999363 68.698501587 140.54859924 0.4505000114 0.1005289033 0.4372999966
 2065.9831543 18.073900223 18.073900223  -999.250000 2.1991920471 69.129898071 139.46073914 0.4496999979 -0.068161495 0.4399956763
 2066.1354980 18.072799683 18.072799683  -999.250000 2.2073869705 68.986999512 138.66288757 0.4550999999 -0.401599824 0.4431948662
 2066.2880859 18.052299500 18.052299500  -999.250000 2.2198998928 69.236503601 138.06030273 0.4663000107 -0.880629003 0.4438000023
 2066.4404297 18.030199051 18.030199051  -999.250000 2.2330000401 70.162597656 137.61270142 0.4781999886 -1.375425696 0.4426999986
 2066.5927734 18.022899628 18.022899628  -999.250000 2.2425847054 71.332000732 137.40992737 0.4848999977 -1.773189425 0.4426001608
 2066.7451172 18.030300140 18.030300140  -999.250000 2.2488899231 72.189697266 137.40870667 0.4859000146 -2.026492834 0.4438979030
 2066.8974609 18.047300339 18.047300339  -999.250000 2.2538919449 72.441497803 137.30526733 0.4844999909 -2.178894758 0.4461963177
 2067.0500488 18.067800522 18.067800522  -999.250000 2.2592999935 72.243301392 136.90249634 0.4848000109 -2.210243225 0.4490000010
 2067.2023926 18.086500168 18.086500168  -999.250000 2.2653901577 71.795799255 136.71411133 0.4880000055 -2.114191532 0.4527939260
 2067.3547363 18.101600647 18.101600647  -999.250000 2.2711906433 71.680702209 136.49725342 0.4918999970 -1.877363682 0.4572927952
 2067.5070801 18.119800568 18.119800568  -999.250000 2.2759923935 72.694503784 136.31549072 0.4947000146 -1.590757370 0.4609940648
 2067.6596680 18.147100449 18.147100449  -999.250000 2.2795999050 74.419502258 136.23570251 0.4966000021 -1.325061202 0.4625999928
 2067.8120117 18.167800903 18.167800903  -999.250000 2.2811000347 75.649597168 136.31480408 0.4979000092 -1.084128022 0.4609999955
 2067.9643555 18.186000824 18.186000824  -999.250000 2.2798020840 75.465400696 136.51208496 0.4977999926 -0.840329528 0.4570063949
 2068.1166992 18.251100540 18.251100540  -999.250000 2.2755069733 74.076698303 136.74523926 0.4952999949 -0.611551225 0.4522076845
 2068.2692871 18.365299225 18.365299225  -999.250000 2.2693998814 72.806297302 136.87480164 0.4909999967 -0.432901919 0.4494999945
 2068.4216309 18.447799683 18.447799683  -999.250000 2.2630000114 72.340301514 136.86019897 0.4860999882 -0.300735712 0.4498000145
 2068.5739746 18.424200058 18.424200058  -999.250000 2.2584073544 72.344001770 136.85041809 0.4817000031 -0.181145266 0.4499996603
 2068.7263184 18.358800888 18.358800888  -999.250000 2.2570021152 72.420402527 136.95803833 0.4794999957 -0.045287661 0.4478035271
 2068.8789063 18.412200928 18.412200928  -999.250000 2.2602000237 72.636901855 137.03149414 0.4812000096 0.0830779523 0.4463000000
 2069.0312500 18.566799164 18.566799164  -999.250000 2.2711999416 73.207099915 136.80380249 0.4866000116 0.1313490570 0.4510000050
 2069.1835938 18.631099701 18.631099701  -999.250000 2.2957606316 73.618103027 136.20924377 0.4934000075 0.0496451892 0.4631804824
 2069.3359375 18.543300629 18.543300629  -999.250000 2.3304998875 73.235801697 135.55426025 0.4995000064 -0.153422177 0.4765785038
 2069.4882813 18.410600662 18.410600662  -999.250000 2.3582999706 72.430702209 135.21614075 0.5044999719 -0.371773064 0.4834889472
 2069.6408691 18.326700211 18.326700211  -999.250000 2.3642001152 72.111396790 135.22470093 0.5091000199 -0.511069298 0.4833000004
 2069.7932129 18.257699966 18.257699966  -999.250000 2.3443999290 72.578102112 135.44044495 0.5120999813 -0.597474277 0.4789070189
 2069.9455566 18.137800217 18.137800217  -999.250000 2.3175001144 73.167396545 135.68101501 0.5123000145 -0.707271874 0.4740078449
 2070.0979004 18.003200531 18.003200531  -999.250000 2.2990999222 73.143997192 135.88816833 0.5091000199 -0.883916140 0.4697068930
 2070.2504883 17.926300049 17.926300049  -999.250000 2.2915999889 72.598999023 136.07969666 0.5041999817 -1.110502124 0.4657999873
 2070.4028320 17.908500671 17.908500671  -999.250000 2.2971999645 71.837196350 136.24960327 0.4995000064 -1.297974706 0.4623000026
 2070.5551758 17.895599365 17.895599365  -999.250000 2.3208999634 70.986198425 136.29632568 0.4966000021 -1.356958747 0.4614014328
 2070.7075195 17.912399292 17.912399292  -999.250000 2.3770999908 69.891700745 136.07675171 0.4961000085 -1.284368753 0.4658927917
 2070.8601074 17.989599228 17.989599228  -999.250000 2.4426999092 68.226997375 135.70170593 0.4972000122 -1.101660490 0.4736000001
 2071.0124512 18.085500717 18.085500717  -999.250000 2.4972000122 65.837600708 135.40109253 0.5005000234 -0.937279105 0.4796999991
 2071.1647949 18.109300613 18.109300613  -999.250000 2.5213000774 64.065696716 135.30715942 0.5070999861 -0.919690371 0.4815969467
 2071.3171387 18.024900436 18.024900436  -999.250000 2.4604001045 64.413696289 135.32817078 0.5188000202 -1.084537864 0.4812006652
 2071.4694824 17.909999847 17.909999847  -999.250000 2.3615000248 66.536796570 135.29136658 0.5320000052 -1.398759604 0.4819987118
 2071.6220703 17.852100372 17.852100372  -999.250000 2.3067998886 69.007202148 135.26040649 0.5403000116 -1.706523061 0.4826000035
