# LAS format log file from PETREL
# Project units are specified as depth units
#==================================================================
~Version information
VERS.   2.0:
WRAP.   NO:
#==================================================================
~Well
STRT .m      1845.0031738 :
STOP .m      3450.9943848 :
STEP .m     0.00000000 :
NULL .        -999.250000 :
COMP.           : COMPANY
WELL.  7/4-2 Brynhild Appr   : WELL
FLD.            : FIELD
LOC.            : LOCATION
SRVC.           : SERVICE COMPANY
DATE.  2018-09-11 21:49:22   : Log Export Date {yyyy-MM-dd HH:mm:ss}
PROV.           : PROVINCE
UWI.   7/4-2   : UNIQUE WELL ID
API.            : API NUMBER
#==================================================================
~Curve
DEPT .m                   : DEPTH
CALI .in                  : CALI
BS .in                    : BS
DRHO .g/cm3               : DRHO
THOR .ppm                 : THOR
NPHI .m3/m3               : NPHI
RHOB .g/cm3               : RHOB
PEF .b/e                  : PEF
GR .gAPI                  : GR
URAN .ppm                 : URAN
DTC .us/ft                : DTC
DTS .us/ft                : DTS
RDEP .ohm.m               : RDEP
RMED .ohm.m               : RMED
~Parameter
#==================================================================
~Ascii
# ...
 2374.7456055 12.670100212 12.250000954 0.0285000000  -999.250000 0.4564999938 2.3656001091 11.551753044 88.171897888  -999.250000 139.20849609 340.21121216 0.4713999927 0.4767999947
 2374.8979492 12.627599716 12.250000954 0.0306000002  -999.250000 0.4568000138 2.3631999493 12.107495308 96.053802490  -999.250000 138.92999268 342.50680542 0.4672999978 0.4611000121
 2375.0502930 12.627599716 12.250000954 0.0311999992  -999.250000 0.4553999901 2.3585000038 11.949392319 99.020896912  -999.250000 138.79069519 343.65695190 0.4634999931 0.4555999935
 2375.2028809 12.627599716 12.250000954 0.0315999985  -999.250000 0.4587000012 2.3489000797 11.759230614 93.340202332  -999.250000 138.97129822 344.80511475 0.4512000084 0.4436999857
 2375.3552246 12.627599716 12.250000954 0.0333999991  -999.250000 0.4578000009 2.3508000374 11.472445488 91.589500427  -999.250000 139.06350708 345.37277222 0.4496999979 0.4424000084
 2375.5075684 12.556900024 12.250000954 0.0386000015  -999.250000 0.4688000083 2.3652000427 11.643050194 98.609298706  -999.250000 138.50480652 344.54385376 0.4494999945 0.4320999980
 2375.6599121 12.537400246 12.250000954 0.0390000008  -999.250000 0.4704999924 2.3685998917 11.945819855 100.13310242  -999.250000 138.21310425 344.09512329 0.4496000111 0.4338000119
 2375.8125000 12.486200333 12.250000954 0.0368999988  -999.250000 0.4515999854 2.3615999222 11.923825264 96.673698425  -999.250000 138.18629456 342.58560181 0.4519999921 0.4433000088
 2375.9648438 12.443799973 12.250000954 0.0377000012  -999.250000 0.4453000128 2.3582003117 11.954915047 90.785400391  -999.250000 138.18940735 341.81280518 0.4569000006 0.4433999956
 2376.1171875 12.415499687 12.250000954 0.0452000014  -999.250000 0.4510000050 2.3687000275 11.493117332 90.831298828  -999.250000 138.34100342 340.98233032 0.4598999918 0.4456000030
 2376.2695313 12.415499687 12.250000954 0.0487000011  -999.250000 0.4505999982 2.3826000690 10.905747414 91.617301941  -999.250000 138.42309570 340.59667969 0.4603999853 0.4478999972
 2376.4221191 12.514499664 12.250000954 0.0434000008  -999.250000 0.4528000057 2.3945000172 11.899556160 86.368896484  -999.250000 139.28129578 341.95791626 0.4501000047 0.4630999863
 2376.5744629 12.430801392 12.250000954 0.0320000015  -999.250000 0.4616000056 2.3670001030 11.728160858 86.186798096  -999.250000 140.03349304 343.68380737 0.4417000115 0.4271999896
 2376.7268066 12.415499687 12.250000954 0.0300999992  -999.250000 0.4578999877 2.3533999920 10.523104668 86.695396423  -999.250000 140.25210571 344.64367676 0.4384999871 0.4185999930
 2376.8791504 12.443799973 12.250000954 0.0326000005  -999.250000 0.4659000039 2.3501000404 10.601843834 90.639396667  -999.250000 140.65460205 345.64367676 0.4363999963 0.4171000123
 2377.0314941 12.443799973 12.250000954 0.0346000008  -999.250000 0.4621999860 2.3541998863 10.626065254 90.102500916  -999.250000 140.82350159 345.28179932 0.4325000048 0.4149000049
 2377.1840820 12.486200333 12.250000954 0.0359999985  -999.250000 0.4372000098 2.3570001125 10.441971779 88.666603088  -999.250000 140.97689819 343.97680664 0.4271000028 0.4090999961
 2377.3364258 12.514499664 12.250000954 0.0375000015  -999.250000 0.4377999902 2.3608999252 10.769943237 87.497802734  -999.250000 140.86129761 342.72579956 0.4232999980 0.4034000039
 2377.4887695 12.627599716 12.250000954 0.0419000015  -999.250000 0.4632000029 2.3752999306 10.793802261 88.546401978  -999.250000 140.50430298 341.39233398 0.4228999913 0.3926999867
 2377.6411133 12.645700455 12.250000954 0.0414000005  -999.250000 0.4623999894 2.3771998882 12.664294243 88.495903015  -999.250000 140.17919922 342.08966064 0.4199999869 0.3998000026
 2377.7937012 12.670100212 12.250000954 0.0351000018  -999.250000 0.4205999970 2.3650999069 13.366154671 86.476997375  -999.250000 139.34309387 343.50573730 0.4192999899 0.3914999962
 2377.9460449 12.627599716 12.250000954 0.0313999988  -999.250000 0.3989000022 2.3550000191 12.015586853 90.050399780  -999.250000 138.68139648 344.23059082 0.4268999994 0.3849000037
 2378.0983887 12.740799904 12.250000954 0.0262000002  -999.250000 0.3910000026 2.3380000591 12.296000481 86.995399475  -999.250000 137.51919556 345.63552856 0.4327000082 0.4203999937
 2378.2507324 12.260001183 12.250000954 0.0258000009  -999.250000 0.4264999926 2.3347001076 12.435669899 89.088500977  -999.250000 137.17709351 346.27706909 0.4311999977 0.4189000130
 2378.4033203 12.260001183 12.250000954 0.0250000004  -999.250000 0.4296999872 2.3324999809 8.9168930054 91.600898743  -999.250000 136.51989746 347.46972656 0.4336000085 0.4004000127
 2378.5556641 12.260001183 12.250000954 0.0234999992  -999.250000 0.4322000146 2.3299999237 8.6925220490 89.209602356  -999.250000 136.23719788 347.91430664 0.4361999929 0.3991999924
 2378.7080078 12.260001183 12.250000954 0.0259000007  -999.250000 0.4544999897 2.3282001019 8.9341039658 90.063003540  -999.250000 135.82060242 348.40130615 0.4390000105 0.3955999911
 2378.8603516 12.260001183 12.250000954 0.0294000003  -999.250000 0.4736000001 2.3310999870 9.2104463577 95.555099487  -999.250000 135.90269470 347.86364746 0.4370000064 0.3955000043
 2379.0126953 12.260001183 12.250000954 0.0335999988  -999.250000 0.4909999967 2.3382000923 9.1712036133 92.303703308  -999.250000 136.05490112 346.77627563 0.4338000119 0.3926999867
 2379.1652832 12.260001183 12.250000954 0.0340000018  -999.250000 0.4762000144 2.3399000168 8.7227087021 91.929199219  -999.250000 136.10369873 346.20870972 0.4365000129 0.3955999911
 2379.3176270 12.260001183 12.250000954 0.0355000012  -999.250000 0.4347999990 2.3419001102 9.4122953415 84.375503540  -999.250000 136.20419312 345.30822754 0.4379999936 0.4018999934
 2379.4699707 12.260001183 12.250000954 0.0353999995  -999.250000 0.4271999896 2.3417999744 9.0898494720 86.183296204  -999.250000 136.26199341 345.47683716 0.4348999858 0.4025000036
 2379.6223145 12.260001183 12.250000954 0.0333000049  -999.250000 0.4368999898 2.3396000862 9.3946390152 87.736000061  -999.250000 136.36709595 345.94393921 0.4356999993 0.4108000100
 2379.7749023 12.260001183 12.250000954 0.0329999998  -999.250000 0.4551999867 2.3419001102 9.0668582916 90.971298218  -999.250000 136.40240479 347.24819946 0.4352999926 0.4163999856
 2379.9272461 12.260001183 12.250000954 0.0335000008  -999.250000 0.4643000066 2.3431999683 8.7923440933 91.698402405  -999.250000 136.43370056 347.88610840 0.4356000125 0.4153000116
 2380.0795898 12.260001183 12.250000954 0.0337999985  -999.250000 0.4702000022 2.3413000107 9.2705030441 90.269203186  -999.250000 136.59570313 349.05981445 0.4232000113 0.4002000093
 2380.2319336 12.330699921 12.250000954 0.0322000012  -999.250000 0.4647000134 2.3369998932 8.6233243942 91.399803162  -999.250000 136.68420410 349.65356445 0.4205000103 0.3998999894
 2380.3845215 12.415499687 12.250000954 0.0276999995  -999.250000 0.4815999866 2.3241999149 9.6093349457 89.291198730  -999.250000 136.93559265 350.88809204 0.4221999943 0.4022000134
 2380.5368652 12.260001183 12.250000954 0.0278999992  -999.250000 0.4880000055 2.3208999634 10.338073730 84.691902161  -999.250000 137.06959534 351.56921387 0.4264000058 0.4086000025
 2380.6892090 12.260001183 12.250000954 0.0337999985  -999.250000 0.4873999953 2.3297998905 9.1317501068 91.307098389  -999.250000 137.45919800 353.86987305 0.4343000054 0.4259000123
 2380.8415527 12.260001183 12.250000954 0.0364999995  -999.250000 0.4830999970 2.3375000954 9.7448396683 91.136398315  -999.250000 137.65800476 355.09683228 0.4334999919 0.4239000082
 2380.9938965 12.260001183 12.250000954 0.0368999988  -999.250000 0.4729000032 2.3452999592 9.2118377686 91.147399902  -999.250000 138.15829468 359.42236328 0.4316999912 0.4120999873
 2381.1464844 12.260001183 12.250000954 0.0350000001  -999.250000 0.4647000134 2.3443999290 9.5912666321 91.839401245  -999.250000 138.40460205 361.56491089 0.4275999963 0.4095000029
 2381.2988281 12.302399635 12.250000954 0.0298999995  -999.250000 0.4435999990 2.3359999657 9.6590299606 89.918601990  -999.250000 138.58389282 363.43209839 0.3880999982 0.3799999952
