# LAS format log file from PETREL
# Project units are specified as depth units
#==================================================================
~Version information
VERS.   2.0:
WRAP.   NO:
#==================================================================
~Well
STRT .m      2290.9255371 :
STOP .m      2985.5649414 :
STEP .m     0.00000000 :
NULL .        -999.250000 :
COMP.           : COMPANY
WELL.  7/4-3 Carlsberg   : WELL
FLD.            : FIELD
LOC.            : LOCATION
SRVC.           : SERVICE COMPANY
DATE.  2018-09-11 21:49:22   : Log Export Date {yyyy-MM-dd HH:mm:ss}
PROV.           : PROVINCE
UWI.   7/4-3   : UNIQUE WELL ID
API.            : API NUMBER
#==================================================================
~Curve
DEPT .m                   : DEPTH
CALI .in                  : CALI
BS .in                    : BS
ROP .m/h                  : ROP
DRHO .g/cm3               : DRHO
NPHI .m3/m3               : NPHI
RHOB .g/cm3               : RHOB
PEF .b/e                  : PEF
GR .gAPI                  : GR
DTC .us/ft                : DTC
DTS .us/ft                : DTS
RDEP .ohm.m               : RDEP
RMED .ohm.m               : RMED
~Parameter
#==================================================================
~Ascii
# ...
 2839.5656738 8.6218004227 8.5000000000 47524.019531 0.0388999991 0.2406000048 2.5065999031 6.3474001884 110.29029846 91.161102295 187.08819580 0.9014999866 0.9075000286
 2839.7180176 8.5841999054 8.5000000000 48473.625000 0.0353999995 0.2462999970 2.5060000420 6.2101998329 114.10559845 91.406593323 187.58389282 0.8913000226 0.9060999751
 2839.8703613 8.6368999481 8.5000000000 47417.714844 0.0284000002 0.2504000068 2.4962999821 6.0823001862 118.02140045 91.713302612 188.02890015 0.8888999820 0.9024999738
 2840.0229492 8.6511001587 8.5000000000 46612.207031 0.0340999998 0.2560000122 2.5021998882 6.4534997940 114.38950348 91.827896118 187.51359558 0.8783000112 0.8840000033
 2840.1752930 8.6726999283 8.5000000000 48276.378906 0.0401000008 0.2567000091 2.5027999878 6.6410999298 109.93280029 91.853103638 186.99241638 0.8759999871 0.8694000244
 2840.3276367 8.6895999908 8.5000000000 49807.089844 0.0399000011 0.2563000023 2.5032999516 6.6318998337 107.38020325 91.905296326 186.96969604 0.8809000254 0.8752999902
 2840.4799805 8.7264003754 8.5000000000 50505.121094 0.0461999997 0.2590000033 2.5114998817 7.0082001686 108.08070374 91.962699890 185.78309631 0.8769000173 0.8842999935
 2840.6323242 8.7453002930 8.5000000000 49501.183594 0.0461000018 0.2531000078 2.5081000328 7.1339998245 109.46869659 92.132499695 185.32809448 0.8758999705 0.8844000101
 2840.7849121 8.8129997253 8.5000000000 47781.496094 0.0511000007 0.2554999888 2.5064001083 7.5258002281 109.32170105 92.183395386 184.73030090 0.8719000220 0.8734999895
 2840.9372559 8.8447999954 8.5000000000 47291.339844 0.0577999987 0.2565999925 2.5120000839 7.7142000198 110.76239777 92.142997742 183.76620483 0.8777999878 0.8709999919
 2841.0895996 8.8183002472 8.5000000000 47708.265625 0.0557999983 0.2542999983 2.5072999001 7.7651000023 109.90139771 92.311203003 182.73300171 0.8813999891 0.8709999919
 2841.2419434 8.7997999191 8.5000000000 49244.882813 0.0575000010 0.2487999946 2.5107998848 7.5244998932 109.91059875 92.308288574 181.54440308 0.8830000162 0.8683000207
 2841.3945313 8.8249998093 8.5000000000 51412.203125 0.0549999997 0.2495000064 2.5051999092 7.5018000603 105.14550018 92.074699402 180.91270447 0.8853999972 0.8704000115
 2841.5468750 8.8449001312 8.5000000000 53303.152344 0.0582999997 0.2461999953 2.5114998817 7.8116998672 106.94219971 91.491897583 179.98330688 0.8830999732 0.8702999949
 2841.6992188 8.8931999207 8.5000000000 53490.949219 0.0614000000 0.2524999976 2.5113999844 7.9189000130 104.18520355 91.076896667 179.63481140 0.8801000118 0.8636000156
 2841.8515625 8.8387002945 8.5000000000 53825.195313 0.0640999973 0.2466000021 2.5095000267 8.0130996704 102.01080322 90.926795959 180.24620056 0.8873999715 0.8758999705
 2842.0041504 8.7819995880 8.5000000000 52514.171875 0.0542000011 0.2442999929 2.4978001118 7.7579998970 105.40889740 90.710899353 180.76789856 0.8863999844 0.8901000023
 2842.1564941 8.8178997040 8.5000000000 50653.937500 0.0557000004 0.2446999997 2.5041000843 7.5936999321 105.51219940 90.604896545 180.44869995 0.8913999796 0.8941000104
 2842.3088379 8.7509002686 8.5000000000 49951.179688 0.0553999990 0.2460000068 2.5078999996 7.6560001373 102.89520264 90.200996399 179.98739624 0.8859000206 0.8877999783
 2842.4611816 8.7167997360 8.5000000000 49398.429688 0.0491999984 0.2430000007 2.5041000843 7.2951002121 106.64710236 89.898101807 180.91459656 0.8856999874 0.8779000044
 2842.6135254 8.6540002823 8.5000000000 48738.191406 0.0445999987 0.2432000041 2.5088999271 6.9590997696 104.67189789 89.508300781 181.26899719 0.8889999986 0.8729000092
 2842.7661133 8.6326999664 8.5000000000 49016.929688 0.0419999994 0.2360000014 2.5097000599 6.6259999275 106.69049835 89.760803223 182.60279846 0.8892999887 0.8773000240
 2842.9184570 8.6014995575 8.5000000000 51044.882813 0.0348999985 0.2379000038 2.5002000332 6.2912998199 104.15820313 90.004402161 182.41900635 0.8891999722 0.8863000274
 2843.0708008 8.6170997620 8.5000000000 53549.996094 0.0348000005 0.2346999943 2.4956998825 6.1286001205 102.15550232 90.081100464 182.22959900 0.8834999800 0.8853999972
 2843.2231445 8.5918998718 8.5000000000 55005.121094 0.0355000012 0.2390999943 2.4946999550 5.9963998795 101.21199799 90.209091187 182.88119507 0.8863000274 0.8762000203
 2843.3757324 8.6132001877 8.5000000000 54829.132813 0.0337000005 0.2390999943 2.4932999611 6.2550001144 102.86499786 90.178001404 182.82929993 0.8888999820 0.8797000051
 2843.5280762 8.5584001541 8.5000000000 53537.011719 0.0348000005 0.2397000045 2.5000000000 6.0917000771 100.95770264 89.991790771 181.16520691 0.8873000145 0.8763999939
 2843.6804199 8.5886001587 8.5000000000 51996.851563 0.0310999993 0.2363999933 2.4967999458 6.0051999092 100.35800171 89.911010742 179.23129272 0.8881000280 0.8694000244
 2843.8327637 8.5853996277 8.5000000000 51779.527344 0.0348000005 0.2372999936 2.5032999516 6.2045001984 98.625198364 89.956596375 179.63429260 0.8912000060 0.8740000129
 2843.9853516 8.5823001862 8.5000000000 52766.929688 0.0329000019 0.2348999977 2.5004999638 6.1208000183 101.97679901 89.725898743 180.19549561 0.8949000239 0.8816000223
 2844.1376953 8.6141004562 8.5000000000 53731.890625 0.0350000001 0.2389999926 2.4988999367 6.3435001373 100.96189880 89.506202698 179.04849243 0.8934000134 0.8840000033
 2844.2900391 8.5853996277 8.5000000000 56177.953125 0.0351000018 0.2407999933 2.4988000393 6.2781000137 101.10089874 89.738700867 179.45179749 0.8942000270 0.8830000162
 2844.4423828 8.5986995697 8.5000000000 57979.132813 0.0342000015 0.2396000028 2.4955000877 6.2809000015 105.33260345 89.927803040 178.85589600 0.8963999748 0.8831999898
 2844.5949707 8.6399002075 8.5000000000 57000.003906 0.0342999995 0.2425000072 2.4925999641 6.2779998779 104.09549713 90.091102600 177.97259521 0.8963000178 0.8806999922
 2844.7473145 8.6056003571 8.5000000000 56105.902344 0.0386000015 0.2441000044 2.4934999943 6.4144001007 102.88189697 90.436096191 179.24549866 0.8974999785 0.8791999817
 2844.8996582 8.5902996063 8.5000000000 54107.480469 0.0337000005 0.2398000062 2.4881999493 6.3488998413 102.74629974 90.777107239 179.59330750 0.9035000205 0.8833000064
 2845.0520020 8.5532999039 8.5000000000 50023.230469 0.0324000008 0.2377000004 2.4886000156 6.1792998314 103.23290253 90.941497803 179.13070679 0.9011999965 0.8966000080
 2845.2043457 8.5494003296 8.5000000000 46042.910156 0.0289999992 0.2419999987 2.4879999161 5.9127001762 102.38240051 90.887802124 179.94819641 0.9065999985 0.9011999965
 2845.3569336 8.5781002045 8.5000000000 50605.507813 0.0315999985 0.2442000061 2.4911999702 6.0878000259 105.89029694 90.752601624 180.08110046 0.9143999815 0.8909999728
 2845.5092773 8.6076002121 8.5000000000 81054.328125 0.0326999985 0.2481999993 2.4937996864 6.2056999207 102.92259979 90.378402710 179.57629395 0.9182999730 0.8848999739
 2845.6616211 8.6035003662 8.5000000000 148223.62500 0.0315999985 0.2472999990 2.4853000641 6.0745000839 103.41780090 90.275596619 180.32440186 0.9194999933 0.8932999969
 2845.8139648 8.6391000748 8.5000000000 139354.73438 0.0355999991 0.2422000021 2.4928998947 6.2652997971 102.12239838 90.450698853 179.74859619 0.9104999900 0.9065999985
 2845.9665527 8.7170000076 8.5000000000 93908.265625 0.0442999974 0.2370000035 2.4997000694 6.7044000626 99.614303589 90.824089050 179.87930298 0.9157000184 0.9182000160
 2846.1188965 8.6721000671 8.5000000000 72385.046875 0.0441999994 0.2431000024 2.4909999371 6.7621998787 102.17600250 91.246589661 179.25300598 0.9174000025 0.9207999706
 2846.2712402 8.7381000519 8.5000000000 62759.054688 0.0386000015 0.2437999994 2.4827001095 6.7466001511 106.71199799 91.352798462 179.12390137 0.9126999974 0.9304999709
 2846.4235840 8.7680997849 8.5000000000 61166.929688 0.0491000041 0.2443999946 2.4962999821 7.1676001549 105.27559662 91.421203613 179.68170166 0.9099000096 0.9210000038
 2846.5761719 8.7903003693 8.5000000000 57475.984375 0.0498000011 0.2462999970 2.4918000698 7.3571000099 103.01010132 91.272697449 180.97669983 0.9077000022 0.9059000015
 2846.7285156 8.7955999374 8.5000000000 50499.214844 0.0529999994 0.2518999875 2.4990000725 7.5999999046 103.72260284 91.316902161 181.99310303 0.9093999863 0.8941000104
