# LAS format log file from PETREL
# Project units are specified as depth units
#==================================================================
~Version information
VERS.   2.0:
WRAP.   NO:
#==================================================================
~Well
STRT .m      1845.0031738 :
STOP .m      3450.9943848 :
STEP .m     0.00000000 :
NULL .        -999.250000 :
COMP.           : COMPANY
WELL.  7/4-2 Brynhild Appr   : WELL
FLD.            : FIELD
LOC.            : LOCATION
SRVC.           : SERVICE COMPANY
DATE.  2018-09-11 21:49:22   : Log Export Date {yyyy-MM-dd HH:mm:ss}
PROV.           : PROVINCE
UWI.   7/4-2   : UNIQUE WELL ID
API.            : API NUMBER
#==================================================================
~Curve
DEPT .m                   : DEPTH
CALI .in                  : CALI
BS .in                    : BS
DRHO .g/cm3               : DRHO
THOR .ppm                 : THOR
NPHI .m3/m3               : NPHI
RHOB .g/cm3               : RHOB
PEF .b/e                  : PEF
GR .gAPI                  : GR
URAN .ppm                 : URAN
DTC .us/ft                : DTC
DTS .us/ft                : DTS
RDEP .ohm.m               : RDEP
RMED .ohm.m               : RMED
~Parameter
#==================================================================
~Ascii
# ...
 2066.2880859 12.330699921 12.250000954 0.0234999992  -999.250000 0.5033000112 2.2304999828 10.680899620 124.92220306  -999.250000 138.34930420 336.25286865 0.7232999802 0.7001000047
 2066.4404297 12.330699921 12.250000954 0.0227000006  -999.250000 0.4964999855 2.2353000641 10.448273659 120.89610291  -999.250000 138.25810242 335.19171143 0.7164999843 0.6875000000
 2066.5927734 12.415499687 12.250000954 0.0227000006  -999.250000 0.5052999854 2.2604999542 10.989954948 120.50679779  -999.250000 138.11380005 333.72705078 0.7006999850 0.6686000228
 2066.7451172 12.443799973 12.250000954 0.0238000005  -999.250000 0.5184000134 2.2751998901 11.618693352 119.49669647  -999.250000 138.09049988 333.83331299 0.6958000064 0.6646999717
 2066.8974609 12.486200333 12.250000954 0.0241999999  -999.250000 0.5181999803 2.2943999767 12.575219154 119.44809723  -999.250000 138.00079346 334.75781250 0.6976000071 0.6345000267
 2067.0500488 12.556900024 12.250000954 0.0226000007  -999.250000 0.5041000247 2.2967998981 10.953100204 116.99680328  -999.250000 137.89349365 336.25140381 0.7009000182 0.6438000202
 2067.2023926 12.670100212 12.250000954 0.0197000001  -999.250000 0.4835000038 2.2915999889 11.484601974 117.60440063  -999.250000 137.77580261 338.92263794 0.7160999775 0.6858000159
 2067.3547363 12.740799904 12.250000954 0.0201999992  -999.250000 0.4695000052 2.2869000435 12.129515648 115.81900024  -999.250000 137.87739563 339.75329590 0.7265999913 0.7064999938
 2067.5070801 12.846799850 12.250000954 0.0238000005  -999.250000 0.4684000015 2.2809000015 12.337001801 109.66120148  -999.250000 138.02609253 341.35754395 0.7439000010 0.7170000076
 2067.6596680 12.882200241 12.250000954 0.0251000002  -999.250000 0.4726000130 2.2808001041 12.737263680 105.86150360  -999.250000 137.99710083 342.06741333 0.7472000122 0.7148000002
 2067.8120117 12.882200241 12.250000954 0.0274999999  -999.250000 0.4745999873 2.2853999138 13.430439949 101.49549866  -999.250000 137.98759460 343.38122559 0.7470999956 0.7217000127
 2067.9643555 12.868000031 12.250000954 0.0297999997  -999.250000 0.4785999954 2.2897000313 14.523223877 101.50689697  -999.250000 138.09049988 343.81420898 0.7451999784 0.7383999825
 2068.1166992 12.853899956 12.250000954 0.0315000005  -999.250000 0.4891999960 2.2887001038 15.662011147 105.43890381  -999.250000 138.24690247 344.37332153 0.7397999763 0.7246000171
 2068.2692871 12.967000008 12.250000954 0.0288999993  -999.250000 0.4999000132 2.2792999744 15.200531960 109.10620117  -999.250000 138.19540405 343.84509277 0.7384999990 0.7127000093
 2068.4216309 12.882200241 12.250000954 0.0230999999  -999.250000 0.5121999979 2.2583999634 14.856317520 119.46289825  -999.250000 138.06939697 343.12930298 0.7189000249 0.6751999855
 2068.5739746 12.740799904 12.250000954 0.0219000001  -999.250000 0.5360999703 2.2541000843 14.328877449 121.96690369  -999.250000 137.79629517 344.58557129 0.7044000030 0.6586999893
 2068.7263184 12.599399567 12.250000954 0.0225000009  -999.250000 0.5460000038 2.2572000027 13.267380714 123.08560181  -999.250000 137.62030029 344.88101196 0.7037000060 0.6603999734
 2068.8789063 12.698300362 12.250000954 0.0242999997  -999.250000 0.5437999964 2.2606999874 12.748032570 125.52739716  -999.250000 136.99499512 342.44958496 0.7175999880 0.6771000028
 2069.0312500 12.740799904 12.250000954 0.0248000007  -999.250000 0.5370000005 2.2590999603 12.409215927 128.35490417  -999.250000 136.66729736 341.05059814 0.7247999907 0.6847000122
 2069.1835938 12.486200333 12.250000954 0.0265999995  -999.250000 0.5159000158 2.2590999603 11.199837685 128.53559875  -999.250000 135.86849976 336.54092407 0.7354999781 0.7150999904
 2069.3359375 12.443799973 12.250000954 0.0274999999  -999.250000 0.5116999745 2.2627000809 10.805802345 126.31759644  -999.250000 135.48190308 334.15490723 0.7562000155 0.7185000181
 2069.4882813 12.351900101 12.250000954 0.0276999995  -999.250000 0.5152999759 2.2708001137 10.295030594 121.66470337  -999.250000 134.88349915 327.70565796 0.7804999948 0.7256000042
 2069.6408691 12.330699921 12.250000954 0.0286999997  -999.250000 0.5241000056 2.2750999928 10.544284821 117.37339783  -999.250000 134.58689880 324.46820068 0.7919999957 0.7429999709
 2069.7932129 12.415499687 12.250000954 0.0342999995  -999.250000 0.5327000022 2.2888000011 11.394415855 115.00939941  -999.250000 134.04969788 318.01602173 0.8144000173 0.7473999858
 2069.9455566 12.373100281 12.250000954 0.0366999991  -999.250000 0.5332999825 2.2976000309 10.352174759 112.52940369  -999.250000 133.77139282 314.82012939 0.8432000279 0.7329000235
 2070.0979004 12.443799973 12.250000954 0.0381999984  -999.250000 0.4948000014 2.3183000088 10.910128593 109.30970001  -999.250000 132.62919617 310.89407349 0.8813999891 0.7371000051
 2070.2504883 12.486200333 12.250000954 0.0377000012  -999.250000 0.4469000101 2.3308999538 13.153710365 108.71410370  -999.250000 132.05810547 308.92416382 0.8704000115 0.8224999905
 2070.4028320 12.556900024 12.250000954 0.0298999995  -999.250000 0.3628999889 2.3463997841 12.587386131 98.176002502  -999.250000 130.86549377 308.18389893 0.7998999953 1.6678999662
 2070.5551758 12.599399567 12.250000954 0.0234999992  -999.250000 0.3544000089 2.3429000378 12.358453751 90.581001282  -999.250000 130.26899719 307.82708740 0.7716000080 2.5416998863
 2070.7075195 12.627599716 12.250000954 0.0140000004  -999.250000 0.4061000049 2.3185000420 13.449228287 87.262199402  -999.250000 129.38459778 313.64855957 0.7379999757 3.3675000668
 2070.8601074 12.627599716 12.250000954 0.0126999998  -999.250000 0.4444999993 2.3045001030 12.903679848 90.720497131  -999.250000 128.94749451 316.68179321 0.7282000184 3.3680999279
 2071.0124512 12.627599716 12.250000954 0.0198999997  -999.250000 0.5077999830 2.2867999077 13.976485252 94.504600525  -999.250000 129.75489807 321.64331055 0.7404000163 2.3099000454
 2071.1647949 12.613499641 12.250000954 0.0253999997  -999.250000 0.5275999904 2.2836999893 14.026997566 97.450897217  -999.250000 130.20849609 324.08837891 0.8188999891 1.5723999739
 2071.3171387 12.811499596 12.250000954 0.0299999993  -999.250000 0.5328999758 2.2815001011 14.198315620 101.02929688  -999.250000 130.88619995 323.27709961 0.8536999822 1.2309999466
 2071.4694824 12.811499596 12.250000954 0.0296000000  -999.250000 0.5257999897 2.2809000015 14.755224228 104.47440338  -999.250000 131.21499634 322.62014771 0.8151000142 1.3115999699
 2071.6220703 12.924599648 12.250000954 0.0270000007  -999.250000 0.5145999789 2.2820000648 14.834802628 99.746803284  -999.250000 133.24400330 322.87924194 0.7548000216 1.8588999510
 2071.7744141 12.995300293 12.250000954 0.0239000004  -999.250000 0.5020999908 2.2837998867 14.430820465 96.695297241  -999.250000 135.32550049 322.64846802 0.7796000242 1.7286000252
 2071.9267578 12.995300293 12.250000954 0.0241000000  -999.250000 0.4990000129 2.2869999409 14.243846893 96.575599670  -999.250000 136.27580261 321.96490479 0.7767000198 1.3876999617
 2072.0791016 12.995300293 12.250000954 0.0277999993  -999.250000 0.5206000209 2.3022999763 13.940644264 101.30020142  -999.250000 138.04049683 321.17794800 0.8009999990 0.9729999900
 2072.2316895 12.967000008 12.250000954 0.0294000003  -999.250000 0.5408999920 2.3094000816 13.369331360 102.94029999  -999.250000 138.79570007 321.32778931 0.8015999794 0.8862000108
 2072.3840332 12.811499596 12.250000954 0.0293000005  -999.250000 0.5465000272 2.3115999699 13.544262886 109.42859650  -999.250000 140.05949402 324.46975708 0.7829999924 0.7922000289
 2072.5363770 12.811499596 12.250000954 0.0274000000  -999.250000 0.5145000219 2.3097000122 12.747403145 111.64679718  -999.250000 140.43409729 328.99633789 0.7886999846 0.7666000128
 2072.6887207 12.762000084 12.250000954 0.0250000004  -999.250000 0.4472999871 2.3160998821 11.519898415 112.57180023  -999.250000 141.06340027 335.37387085 0.8210999966 0.7951999903
 2072.8413086 12.698300362 12.250000954 0.0248000007  -999.250000 0.4348999858 2.3238000870 11.624784470 109.94280243  -999.250000 141.23809814 335.44015503 0.8435000181 0.8235999942
