# LAS format log file from PETREL
# Project units are specified as depth units
#==================================================================
~Version information
VERS.   2.0:
WRAP.   NO:
#==================================================================
~Well
STRT .m      2290.9255371 :
STOP .m      2985.5649414 :
STEP .m     0.00000000 :
NULL .        -999.250000 :
COMP.           : COMPANY
WELL.  7/4-3 Carlsberg   : WELL
FLD.            : FIELD
LOC.            : LOCATION
SRVC.           : SERVICE COMPANY
DATE.  2018-09-11 21:49:22   : Log Export Date {yyyy-MM-dd HH:mm:ss}
PROV.           : PROVINCE
UWI.   7/4-3   : UNIQUE WELL ID
API.            : API NUMBER
#==================================================================
~Curve
DEPT .m                   : DEPTH
CALI .in                  : CALI
BS .in                    : BS
ROP .m/h                  : ROP
DRHO .g/cm3               : DRHO
NPHI .m3/m3               : NPHI
RHOB .g/cm3               : RHOB
PEF .b/e                  : PEF
GR .gAPI                  : GR
DTC .us/ft                : DTC
DTS .us/ft                : DTS
RDEP .ohm.m               : RDEP
RMED .ohm.m               : RMED
~Parameter
#==================================================================
~Ascii
# ...
 2751.7829590 8.8480997086 8.5000000000 39471.261719 0.0539041609 0.2556849420 2.4956016541 7.8991389275 105.06800079 92.695190430 188.06759644 0.8145999908 0.8138332367
 2751.9355469 8.8157997131 8.5000000000 39778.347656 0.0573943891 0.2557998598 2.4921057224 8.2458438873 105.17089844 92.893402100 188.87159729 0.8116000295 0.8114038706
 2752.0878906 8.7685003281 8.5000000000 39265.746094 0.0554032028 0.2569980621 2.4989891052 7.8608188629 106.28649902 92.942001343 188.69548035 0.8123999834 0.8066076636
 2752.2402344 8.7945003510 8.5000000000 38427.164063 0.0485110581 0.2619919777 2.4935088158 7.5203456879 101.72509766 92.884399414 188.04339600 0.8094999790 0.8101941943
 2752.3925781 8.7543001175 8.5000000000 37243.699219 0.0499952026 0.2578134537 2.4925031662 7.7190599442 100.20359802 92.883010864 187.77709961 0.8077999949 0.8218625784
 2752.5451660 8.7005996704 8.5000000000 36578.738281 0.0467052907 0.2505117059 2.4937975407 7.4798846245 100.82039642 93.068603516 187.38290405 0.8106999993 0.8178065419
 2752.6975098 8.6878995895 8.5000000000 36748.816406 0.0412088148 0.2500008047 2.4914038181 7.1264662743 103.35060120 93.289398193 187.38200378 0.8083999753 0.8056195378
 2752.8498535 8.6335000992 8.5000000000 37137.402344 0.0406009629 0.2517971098 2.4935963154 7.0434327126 104.20929718 93.483802795 188.01440430 0.8084999919 0.8055999875
 2753.0021973 8.5928001404 8.5000000000 37820.082031 0.0378089584 0.2521987259 2.4918057919 6.7748618126 102.35500336 93.489402771 188.33828735 0.8052999973 0.8145712018
 2753.1547852 8.5790004730 8.5000000000 38886.613281 0.0300124995 0.2504028976 2.4821155071 6.3994011879 100.52210236 93.333999634 188.32099915 0.8062999845 0.8181942105
 2753.3071289 8.5993003845 8.5000000000 39892.914063 0.0293011218 0.2519974411 2.4820003510 6.3155336380 106.00610352 93.231399536 187.65950012 0.8022000194 0.8159037232
 2753.4594727 8.6886997223 8.5000000000 39950.785156 0.0371873416 0.2510015965 2.4842963219 6.6481661797 104.46299744 93.246597290 187.24807739 0.8032000065 0.8093105555
 2753.6118164 8.6379003525 8.5000000000 38892.523438 0.0447878204 0.2499017566 2.4963808060 7.0684261322 106.49990082 93.361198425 187.29010010 0.8026999831 0.8028104305
 2753.7641602 8.6429996490 8.5000000000 37470.472656 0.0375233628 0.2560801506 2.4908177853 6.8945603371 108.42269897 93.472099304 186.97250366 0.8037999868 0.8014044762
 2753.9167480 8.6213998795 8.5000000000 37331.101563 0.0406948701 0.2595944107 2.4985876083 7.0548419952 106.87750244 93.512702942 187.36459351 0.8026999831 0.8042953610
 2754.0690918 8.6133003235 8.5000000000 37632.285156 0.0318142660 0.2618963122 2.4845225811 6.4599552155 105.59770203 93.418197632 186.97109985 0.8046000004 0.8041002750
 2754.2214355 8.7013998032 8.5000000000 37354.722656 0.0386889428 0.2583057880 2.4874951839 6.9802632332 103.33860016 93.130393982 186.57159424 0.8075000048 0.8022030592
 2754.3737793 8.7453002930 8.5000000000 36861.023438 0.0449798405 0.2588980794 2.4898924828 7.4169011116 103.09049988 92.820297241 186.20210266 0.8093000054 0.8049910665
 2754.5263672 8.7877998352 8.5000000000 36693.304688 0.0486940704 0.2598983943 2.4948918819 7.7551593781 103.71669769 92.496002197 185.31460571 0.8069999814 0.8132867217
 2754.6787109 8.7850999832 8.5000000000 37981.890625 0.0508964770 0.2587019503 2.4977955818 7.8831954002 105.67040253 92.181297302 184.88639832 0.8102999926 0.8189908862
 2754.8310547 8.8069000244 8.5000000000 40171.652344 0.0525972769 0.2550059259 2.4927082062 7.7000942230 106.40540314 91.992996216 186.05099487 0.8108999729 0.8233929873
 2754.9833984 8.7946996689 8.5000000000 41211.023438 0.0537961610 0.2540031970 2.4918029308 7.7693767548 103.35579681 91.903900146 186.58500671 0.8098999858 0.8245961666
 2755.1359863 8.7712001801 8.5000000000 41108.269531 0.0501059294 0.2497068793 2.4884054661 7.7755904198 103.00340271 91.913200378 186.17669678 0.8130999804 0.8225033283
 2755.2883301 8.8334999084 8.5000000000 40145.671875 0.0507988781 0.2568884790 2.4909958839 7.9246606827 103.25080109 92.028503418 185.68060303 0.8105999827 0.8198043704
 2755.4406738 8.8331003189 8.5000000000 39248.031250 0.0589868575 0.2542043328 2.4994864464 8.4634361267 105.99469757 92.145896912 184.29159546 0.8104000092 0.8151075244
 2755.5930176 8.8663997650 8.5000000000 39669.683594 0.0597987175 0.2518038452 2.4933099747 8.3614654541 106.75730133 92.230201721 180.98289490 0.8108999729 0.8123044968
 2755.7453613 8.8683004379 8.5000000000 40053.542969 0.0600990355 0.2494076788 2.4957919121 8.5643472672 109.29869843 92.329399109 179.40580750 0.8112999797 0.8144929409
 2755.8979492 8.8010997772 8.5000000000 40044.093750 0.0622964762 0.2549910247 2.5027887821 8.4851274490 107.63899994 92.408996582 179.66720581 0.8083999753 0.8150990605
 2756.0502930 8.8957996368 8.5000000000 39917.718750 0.0526155457 0.2535024285 2.4839303493 7.9517560005 100.38159943 92.422599792 178.59669495 0.8084999919 0.8103076816
 2756.2026367 8.8611001968 8.5000000000 39879.921875 0.0625839755 0.2533003390 2.4967792034 8.5167922974 101.43019867 92.174697876 178.19471741 0.8076999784 0.8212823868
 2756.3549805 8.8351001740 8.5000000000 39222.050781 0.0574166402 0.2534993887 2.4950056076 8.2528505325 104.86180115 91.762199402 178.50660706 0.8070999980 0.8250878453
 2756.5075684 8.8470001221 8.5000000000 37647.636719 0.0545046479 0.2588913441 2.4942011833 8.2549953461 103.82389832 91.368797302 179.75360107 0.8041999936 0.8212062716
 2756.6599121 8.8249998093 8.5000000000 38266.539063 0.0560974367 0.2497147322 2.4967958927 8.1403837204 103.28299713 91.181602478 179.95329285 0.8036999702 0.8158086538
 2756.8122559 8.8185997009 8.5000000000 41291.339844 0.0545025617 0.2505985796 2.4906101227 7.9686751366 99.294403076 91.343498230 177.91600037 0.8041999936 0.8030204773
 2756.9645996 8.8003997803 8.5000000000 42537.402344 0.0544999987 0.2507993877 2.4936900139 8.0403690338 99.209197998 91.664398193 178.53010559 0.8012999892 0.7971189022
 2757.1171875 8.8289003372 8.5000000000 40296.847656 0.0531022437 0.2486035377 2.4907047749 7.8642830849 103.17949677 92.028999329 178.94869995 0.8041999936 0.7973995209
 2757.2695313 8.8247003555 8.5000000000 38658.660156 0.0549969561 0.2507964969 2.4932959080 7.9426736832 103.40609741 92.298599243 178.35749817 0.7978000045 0.7987977266
 2757.4218750 8.7382001877 8.5000000000 38088.191406 0.0533027239 0.2560915053 2.4967942238 7.9040617943 107.19989777 92.361999512 177.57048035 0.7943000197 0.8020946980
 2757.5742188 8.7488002777 8.5000000000 37612.207031 0.0468104146 0.2551016212 2.4908094406 7.4902644157 105.36049652 92.200698853 176.74819946 0.7957999706 0.8046958447
 2757.7265625 8.7608995438 8.5000000000 38710.628906 0.0467999987 0.2573926449 2.4834237099 7.3247294426 103.63899994 91.903701782 176.03439331 0.7925999761 0.8064942360
 2757.8791504 8.7623996735 8.5000000000 40777.558594 0.0472991988 0.2477155477 2.4811036587 7.5550293922 103.98739624 91.605400085 176.87150574 0.7937999964 0.8117915392
 2758.0314941 8.7613000870 8.5000000000 42373.226563 0.0480987169 0.2431073785 2.4807007313 7.5945372581 101.58540344 91.464797974 176.83160400 0.7926999927 0.8098032475
 2758.1838379 8.7688999176 8.5000000000 46453.937500 0.0471016020 0.2485911846 2.4741106033 7.2561430931 101.54930115 91.658599854 177.63439941 0.7868000269 0.7999158502
 2758.3361816 8.7326002121 8.5000000000 50318.503906 0.0416175984 0.2388313711 2.4728040695 7.2069559097 104.77429962 91.956100464 178.27009583 0.7839000225 0.7968099117
 2758.4887695 8.7489004135 8.5000000000 47375.195313 0.0464921482 0.2398982346 2.4842815399 7.5566382408 106.59369659 92.271797180 177.51570129 0.7836999893 0.7963007689
 2758.6411133 8.7011995316 8.5000000000 43301.574219 0.0466996804 0.2512817383 2.4857976437 7.5291447639 107.08100128 92.629302979 175.42109680 0.7853999734 0.7946027517
 2758.7934570 8.6604995728 8.5000000000 39722.835938 0.0431057699 0.2543950379 2.4839031696 7.2962737083 107.99109650 92.858901978 174.28070068 0.7857999802 0.7933020592
 2758.9458008 8.6465997696 8.5000000000 35588.976563 0.0378169604 0.2547987103 2.4853951931 7.0565681458 110.62049866 92.934600830 175.06520081 0.7886000276 0.7938981056
