# LAS format log file from PETREL
# Project units are specified as depth units
#==================================================================
~Version information
VERS.   2.0:
WRAP.   NO:
#==================================================================
~Well
STRT .m      1845.0031738 :
STOP .m      3450.9943848 :
STEP .m     0.00000000 :
NULL .        -999.250000 :
COMP.           : COMPANY
WELL.  7/4-2 Brynhild Appr   : WELL
FLD.            : FIELD
LOC.            : LOCATION
SRVC.           : SERVICE COMPANY
DATE.  2018-09-11 21:49:22   : Log Export Date {yyyy-MM-dd HH:mm:ss}
PROV.           : PROVINCE
UWI.   7/4-2   : UNIQUE WELL ID
API.            : API NUMBER
#==================================================================
~Curve
DEPT .m                   : DEPTH
CALI .in                  : CALI
BS .in                    : BS
DRHO .g/cm3               : DRHO
THOR .ppm                 : THOR
NPHI .m3/m3               : NPHI
RHOB .g/cm3               : RHOB
PEF .b/e                  : PEF
GR .gAPI                  : GR
URAN .ppm                 : URAN
DTC .us/ft                : DTC
DTS .us/ft                : DTS
RDEP .ohm.m               : RDEP
RMED .ohm.m               : RMED
~Parameter
#==================================================================
~Ascii
# ...
 1858.4144287 12.076100349 12.250000954 -0.001400000  -999.250000  -999.250000 2.2460999489 13.964529037 105.08450317  -999.250000  -999.250000  -999.250000 0.6690000296 0.6607999802
 1858.5667725 12.260001183 12.250000954 0.0125000002  -999.250000  -999.250000 2.2616999149 15.252515793 104.86350250  -999.250000  -999.250000  -999.250000 0.6638000011 0.6660000086
 1858.7192383 12.245800018 12.250000954 0.0093999999  -999.250000  -999.250000 2.2506999969 16.409940720 105.28289795  -999.250000  -999.250000  -999.250000 0.6607999802 0.6765000224
 1858.8715820 12.189299583 12.250000954 0.0100999996  -999.250000  -999.250000 2.2472999096 13.662394524 106.36299896  -999.250000  -999.250000  -999.250000 0.6650999784 0.6751999855
 1859.0240479 11.878198624 12.250000954 0.0174000002  -999.250000  -999.250000 2.2467999458 12.834286690 107.75769806  -999.250000  -999.250000  -999.250000 0.6845999956 0.6887000203
 1859.1763916 11.708498955 12.250000954 0.0226000007  -999.250000  -999.250000 2.2544999123 12.145196915 109.16570282  -999.250000  -999.250000  -999.250000 0.6940000057 0.6869000196
 1859.3288574 11.475199699 12.250000954 0.0205000006  -999.250000  -999.250000 2.2574999332 10.739562035 110.75090027  -999.250000  -999.250000  -999.250000 0.6988999844 0.6905999780
 1859.4812012 12.373100281 12.250000954 0.0109999999  -999.250000  -999.250000 2.2618999481 15.204432487 101.82579803  -999.250000  -999.250000  -999.250000 0.6919000149 0.6985999942
 1859.6336670 11.454000473 12.250000954 0.0014000000  -999.250000  -999.250000 2.2539999485 15.869757652 96.312202454  -999.250000  -999.250000  -999.250000 0.6959999800 0.7099999785
 1859.7860107 11.475199699 12.250000954 -0.029899999  -999.250000  -999.250000 2.2028000355 17.353630066 95.440299988  -999.250000  -999.250000  -999.250000 0.6639999747 0.7063000202
 1859.9383545 12.076100349 12.250000954 -0.034400001  -999.250000  -999.250000 2.1935000420 18.760530472 97.619400024  -999.250000  -999.250000  -999.250000 0.6604999900 0.6780999899
 1860.0908203 11.892299652 12.250000954 -0.003000000  -999.250000  -999.250000 2.2504999638 13.008915901 103.03500366  -999.250000  -999.250000  -999.250000 0.6520000100 0.6190000176
 1860.2431641 11.857000351 12.250000954 0.0126000000  -999.250000  -999.250000 2.2815999985 12.022617340 106.28399658  -999.250000  -999.250000 359.00949097 0.6355000138 0.5946999788
 1860.3956299 11.934700012 12.250000954 0.0188999996  -999.250000  -999.250000 2.2978999615 11.865187645 110.29799652  -999.250000  -999.250000 349.81500244 0.5982000232 0.5471000075
 1860.5479736 11.892299652 12.250000954 0.0184000004  -999.250000  -999.250000 2.2974998951 10.915882111 115.24569702  -999.250000  -999.250000 345.21389771 0.5950999856 0.5464000106
 1860.7004395 11.934700012 12.250000954 0.0205000006  -999.250000  -999.250000 2.3008000851 10.626366615 113.17549896  -999.250000  -999.250000 335.24468994 0.5827000141 0.5299000144
 1860.8527832 11.948899269 12.250000954 0.0241999999  -999.250000 0.5235999823 2.3087000847 11.348140717 112.81220245  -999.250000 134.42120361 330.26010132 0.5957999825 0.5469999909
 1861.0052490 11.934700012 12.250000954 0.0401000008  -999.250000 0.4981000125 2.3617000580 11.143634796 108.28839874  -999.250000 135.31500244 326.66189575 0.6308000088 0.6384999752
 1861.1575928 12.040800095 12.250000954 0.0452999994  -999.250000 0.4821000099 2.4010000229 11.059052467 104.52829742  -999.250000 135.80009460 324.92752075 0.6301000118 0.7325999737
 1861.3100586 12.076100349 12.250000954 0.0280000009  -999.250000 0.4756999910 2.4252998829 10.372594833 102.06909943  -999.250000 135.92630005 330.83053589 0.6721000075 0.7102000117
 1861.4624023 12.076100349 12.250000954 0.0142000001  -999.250000 0.4911000133 2.3956000805 10.646344185 107.38680267  -999.250000 135.97000122 333.99780273 0.6801000237 0.6521999836
 1861.6148682 12.076100349 12.250000954 0.0104000000  -999.250000 0.5388000011 2.3287000656 10.445423126 108.78630066  -999.250000 136.49009705 336.48699951 0.6658999920 0.6341000199
 1861.7672119 12.076100349 12.250000954 0.0154999997  -999.250000 0.5468999743 2.3146998882 10.732401848 110.56230164  -999.250000 136.76600647 337.59161377 0.6718000174 0.6503000259
 1861.9196777 12.260001183 12.250000954 0.0182000007  -999.250000 0.5044000149 2.3034000397 12.056321144 109.82510376  -999.250000 136.46150208 342.31027222 0.6822999716 0.6650000215
 1862.0720215 12.260001183 12.250000954 0.0184000004  -999.250000 0.4819000065 2.3010001183 12.815914154 112.93630219  -999.250000 136.26589966 344.79699707 0.6912999749 0.6650000215
 1862.2243652 12.062000275 12.250000954 0.0239000004  -999.250000 0.4744000137 2.3089001179 12.433253288 114.42279816  -999.250000 136.28520203 346.35290527 0.7016000152 0.6496999860
 1862.3768311 12.005399704 12.250000954 0.0276999995  -999.250000 0.4875999987 2.3183999062 11.100930214 113.39309692  -999.250000 136.37600708 346.89660645 0.7023000121 0.6413999796
 1862.5291748 12.005399704 12.250000954 0.0278999992  -999.250000 0.4889999926 2.3199999332 11.048295021 110.70570374  -999.250000 136.43710327 346.66729736 0.6963999867 0.6468999982
 1862.6816406 12.076100349 12.250000954 0.0278999992  -999.250000 0.4630999863 2.3180000782 11.896506310 112.11209869  -999.250000 136.37789917 346.02621460 0.6818000078 0.6603000164
 1862.8339844 12.040800095 12.250000954 0.0286999997  -999.250000 0.4532000124 2.3153998852 12.170950890 114.62529755  -999.250000 136.16920471 345.52551270 0.6830999851 0.6552000046
 1862.9864502 12.005399704 12.250000954 0.0329999998  -999.250000 0.4864999950 2.3224000931 12.305342674 115.06759644  -999.250000 135.79370117 344.14129639 0.6754999757 0.6406999826
 1863.1387939 11.934700012 12.250000954 0.0359000005  -999.250000 0.5141999722 2.3355000019 13.173624992 110.01750183  -999.250000 135.65229797 343.02670288 0.6787999868 0.6402999759
 1863.2912598 11.948899269 12.250000954 0.0392999984  -999.250000 0.5351999998 2.3698000908 13.259936333 104.66790009  -999.250000 135.47140503 340.06451416 0.6951000094 0.7080000043
 1863.4436035 11.878198624 12.250000954 0.0379999988  -999.250000 0.5264999866 2.3817000389 15.536128044 101.19200134  -999.250000 135.50729370 337.67749023 0.6890000105 0.7195000052
 1863.5960693 12.047900200 12.250000954 0.0307000000  -999.250000 0.5181999803 2.3808000088 14.400223732 106.57949829  -999.250000 135.84680176 333.10110474 0.7003999949 0.6940000057
 1863.7484131 12.005399704 12.250000954 0.0276999995  -999.250000 0.5116000175 2.3715000153 11.817389488 103.63420105  -999.250000 136.39019775 331.08718872 0.6974999905 0.7078999877
 1863.9008789 12.062000275 12.250000954 0.0264999997  -999.250000 0.5094000101 2.3529000282 11.928741455 107.71320343  -999.250000 137.35589600 326.92361450 0.6942999959 0.6881999969
 1864.0532227 12.097399712 12.250000954 0.0267999992  -999.250000 0.5174000263 2.3468999863 13.633427620 108.89839935  -999.250000 137.64709473 324.62719727 0.6840000153 0.6608999968
 1864.2055664 12.189299583 12.250000954 0.0263999999  -999.250000 0.5408999920 2.3394999504 13.849083900 108.85949707  -999.250000 138.04849243 320.74179077 0.6746000051 0.6320000291
 1864.3580322 12.231699944 12.250000954 0.0264999997  -999.250000 0.5536999702 2.3376998901 14.877882957 110.33280182  -999.250000 137.92080688 320.08200073 0.6730999947 0.6331999898
 1864.5103760 12.245800018 12.250000954 0.0285000000  -999.250000 0.5730000138 2.3382000923 15.178590775 114.22760010  -999.250000 137.44779968 319.05139160 0.6761999726 0.6353999972
 1864.6628418 12.210499763 12.250000954 0.0300999992  -999.250000 0.5716999769 2.3396999836 14.785490036 113.59459686  -999.250000 136.75349426 319.14389038 0.6822000146 0.6421999931
 1864.8151855 12.153900146 12.250000954 0.0328000002  -999.250000 0.5418999791 2.3394000530 14.615353584 113.30709839  -999.250000 135.30509949 319.49505615 0.7020999789 0.6771000028
 1864.9676514 12.118598938 12.250000954 0.0328000002  -999.250000 0.5199000239 2.3366999626 14.727914810 113.58020020  -999.250000 134.43209839 320.08209229 0.7192999721 0.7063999772
