# LAS format log file from PETREL
# Project units are specified as depth units
#==================================================================
~Version information
VERS.   2.0:
WRAP.   NO:
#==================================================================
~Well
STRT .m      1845.0031738 :
STOP .m      3450.9943848 :
STEP .m     0.00000000 :
NULL .        -999.250000 :
COMP.           : COMPANY
WELL.  7/4-2 Brynhild Appr   : WELL
FLD.            : FIELD
LOC.            : LOCATION
SRVC.           : SERVICE COMPANY
DATE.  2018-09-11 21:49:22   : Log Export Date {yyyy-MM-dd HH:mm:ss}
PROV.           : PROVINCE
UWI.   7/4-2   : UNIQUE WELL ID
API.            : API NUMBER
#==================================================================
~Curve
DEPT .m                   : DEPTH
CALI .in                  : CALI
BS .in                    : BS
DRHO .g/cm3               : DRHO
THOR .ppm                 : THOR
NPHI .m3/m3               : NPHI
RHOB .g/cm3               : RHOB
PEF .b/e                  : PEF
GR .gAPI                  : GR
URAN .ppm                 : URAN
DTC .us/ft                : DTC
DTS .us/ft                : DTS
RDEP .ohm.m               : RDEP
RMED .ohm.m               : RMED
~Parameter
#==================================================================
~Ascii
# ...
 2683.2031250 12.330699921 12.250000954 0.0460000001  -999.250000 0.4031000137 2.5246999264 10.444830894 141.59330750  -999.250000 114.29779816 247.22048950 0.8258000016 0.7663000226
 2683.3557129 12.330699921 12.250000954 0.0496000014  -999.250000 0.3941000104 2.5311999321 10.875844955 137.64739990  -999.250000 114.25579834 247.30021667 0.8252000213 0.7681000233
 2683.5080566 12.330699921 12.250000954 0.0557999983  -999.250000 0.3700999916 2.5497000217 10.798049927 145.83799744  -999.250000 114.14589691 247.42759705 0.8187999725 0.7515000105
 2683.6604004 12.330699921 12.250000954 0.0555000007  -999.250000 0.3679000139 2.5543000698 10.637808800 147.45249939  -999.250000 114.04090118 247.42900085 0.8180999756 0.7462000251
 2683.8127441 12.330699921 12.250000954 0.0515000001  -999.250000 0.3756999969 2.5524001122 11.143746376 147.45820618  -999.250000 113.83499908 247.41560364 0.8169999719 0.7469000220
 2683.9653320 12.330699921 12.250000954 0.0498000011  -999.250000 0.3783000112 2.5480000973 10.747559547 147.89410400  -999.250000 113.74160004 247.37170410 0.8138999939 0.7548999786
 2684.1176758 12.330699921 12.250000954 0.0465999991  -999.250000 0.3727000058 2.5397000313 10.489749908 159.56159973  -999.250000 113.52899933 247.28849792 0.8093000054 0.7531999946
 2684.2700195 12.302399635 12.250000954 0.0436999984  -999.250000 0.3646999896 2.5355000496 10.219244003 159.58670044  -999.250000 113.35320282 247.25921631 0.8079000115 0.7415000200
 2684.4223633 12.330699921 12.250000954 0.0353999995  -999.250000 0.3652000129 2.5248999596 9.5904512405 161.57429504  -999.250000 112.97280121 247.23060608 0.7964000106 0.7343999743
 2684.5747070 12.330699921 12.250000954 0.0351000018  -999.250000 0.3729000092 2.5232000351 9.7659168243 167.41450500  -999.250000 112.40390015 247.39999390 0.7856000066 0.7308999896
 2684.7272949 12.330699921 12.250000954 0.0394000001  -999.250000 0.3682000041 2.5280001163 10.049016953 175.09089661  -999.250000 112.25040436 247.50999451 0.7789999843 0.7232999802
 2684.8796387 12.330699921 12.250000954 0.0507000014  -999.250000 0.3492999971 2.5478000641 10.703453064 175.56269836  -999.250000 112.89319611 247.91328430 0.7584999800 0.7186999917
 2685.0319824 12.330699921 12.250000954 0.0531000011  -999.250000 0.3422999978 2.5608000755 10.556419373 169.08990479  -999.250000 113.20159149 248.13209534 0.7578999996 0.7214000225
 2685.1843262 12.330699921 12.250000954 0.0480000004  -999.250000 0.3307999969 2.5787000656 10.345816612 148.10820007  -999.250000 113.68809509 248.73880005 0.7487999797 0.7598000169
 2685.3369141 12.330699921 12.250000954 0.0436999984  -999.250000 0.3303999901 2.5768001080 10.937965393 142.27169800  -999.250000 113.90350342 249.03179932 0.7332999706 0.7074000239
 2685.4892578 12.330699921 12.250000954 0.0442999974  -999.250000 0.3467000127 2.5624001026 10.184939384 139.26589966  -999.250000 113.92749786 249.46519470 0.6715999842 0.6615999937
 2685.6416016 12.330699921 12.250000954 0.0487999991  -999.250000 0.3589000106 2.5625998974 10.855792046 144.22500610  -999.250000 113.92369843 249.66270447 0.6473000050 0.6485999823
 2685.7939453 12.330699921 12.250000954 0.0504000001  -999.250000 0.3835000098 2.5666999817 10.059516907 151.30529785  -999.250000 113.50990295 249.56379700 0.5080000162 0.4490999877
 2685.9465332 12.330699921 12.250000954 0.0434000008  -999.250000 0.3898000121 2.5504999161 10.317783356 141.98249817  -999.250000 113.29260254 249.50090027 0.4823000133 0.4190999866
 2686.0988770 12.330699921 12.250000954 0.0308999997  -999.250000 0.3801000118 2.4742000103 10.100270271 124.08429718  -999.250000 112.01770020 248.28900146 0.5702000260 0.5885999799
 2686.2512207 12.330699921 12.250000954 0.0350000001  -999.250000 0.3700000048 2.4421999454 9.9680385590 107.99700165  -999.250000 111.38020325 247.68299866 0.6101999879 0.6234999895
 2686.4035645 12.330699921 12.250000954 0.0568999983  -999.250000 0.3641000092 2.4498999119 9.8136453629 96.874702454  -999.250000 111.13021088 245.53997803 0.6593000293 0.6186000109
 2686.5561523 12.330699921 12.250000954 0.0732999966  -999.250000 0.3619999886 2.5076999664 9.6098995209 94.795898438  -999.250000 111.01149750 244.46290588 0.6977000237 0.7184000015
 2686.7084961 12.330699921 12.250000954 0.0790999979  -999.250000 0.3384999931 2.6335000992 10.090758324 74.228500366  -999.250000 111.60579681 241.90870667 0.7149999738 0.9264000058
 2686.8608398 12.330699921 12.250000954 0.0568000004  -999.250000 0.3312999904 2.6278998852 11.561594963 69.243400574  -999.250000 111.91851044 240.62390137 0.7200999856 0.7771999836
 2687.0131836 12.330699921 12.250000954 0.0146000003  -999.250000 0.3481999934 2.5028998852 10.111767769 81.619300842  -999.250000 113.10829926 239.15699768 0.6675000191 0.6513000131
 2687.1655273 12.330699921 12.250000954 0.0135000004  -999.250000 0.3605000079 2.4486000538 8.6870555878 89.575599670  -999.250000 113.72119904 238.45887756 0.6564999819 0.6471999884
 2687.3181152 12.330699921 12.250000954 0.0254999995  -999.250000 0.3743999898 2.4179000854 8.5695543289 87.310997009  -999.250000 114.47540283 238.38778687 0.6547999978 0.6331999898
 2687.4704590 12.330699921 12.250000954 0.0296999998  -999.250000 0.3802999854 2.4209001064 8.9971399307 89.115196228  -999.250000 114.83100128 238.41297913 0.6553999782 0.6317999959
 2687.6228027 12.330699921 12.250000954 0.0377999991  -999.250000 0.3862000108 2.4300999641 9.1864299774 92.969100952  -999.250000 114.95880127 239.31990051 0.6633999944 0.6492999792
 2687.7751465 12.330699921 12.250000954 0.0388999991  -999.250000 0.3652000129 2.4252998829 9.2884998322 89.115303040  -999.250000 114.95860291 240.35719299 0.6710000038 0.6654999852
 2687.9277344 12.330699921 12.250000954 0.0405000001  -999.250000 0.3585000038 2.4247999191 9.2771377563 86.441802979  -999.250000 114.90921021 240.89871216 0.6679999828 0.6625000238
 2688.0800781 12.330699921 12.250000954 0.0476000011  -999.250000 0.3551000059 2.4412999153 9.7134399414 81.765899658  -999.250000 114.88600159 241.82000732 0.6676999927 0.6639000177
 2688.2324219 12.302399635 12.250000954 0.0509999990  -999.250000 0.3506999910 2.4595999718 9.9674110413 84.396499634  -999.250000 114.94650269 242.12669373 0.6701999903 0.6730999947
 2688.3847656 12.330699921 12.250000954 0.0489000008  -999.250000 0.3497999907 2.4988000393 9.6741113663 83.103401184  -999.250000 115.14129639 243.01699829 0.6703000069 0.6639000177
 2688.5373535 12.302399635 12.250000954 0.0399999991  -999.250000 0.3555999994 2.4955000877 9.6434011459 83.226196289  -999.250000 115.31729889 243.75660706 0.6593999863 0.6527000070
 2688.6896973 12.330699921 12.250000954 0.0271000005  -999.250000 0.3693000078 2.4521000385 9.0351161957 88.505996704  -999.250000 115.79730225 245.12718201 0.6453999877 0.6338000298
 2688.8420410 12.302399635 12.250000954 0.0313000008  -999.250000 0.3743999898 2.4407000542 9.9802255630 86.902198792  -999.250000 116.18949890 245.68400574 0.6437000036 0.6265000105
 2688.9943848 12.330699921 12.250000954 0.0406000018  -999.250000 0.3691000044 2.4430000782 9.8405342102 87.041496277  -999.250000 116.87739563 246.77420044 0.6466000080 0.6438000202
 2689.1467285 12.330699921 12.250000954 0.0416000001  -999.250000 0.3662999868 2.4461998940 9.6010923386 85.661201477  -999.250000 117.09210205 247.28819275 0.6489999890 0.6423000097
 2689.2993164 12.330699921 12.250000954 0.0463999994  -999.250000 0.3732999861 2.4577000141 10.855028152 89.250297546  -999.250000 117.50039673 248.19380188 0.6547999978 0.6499000192
 2689.4516602 12.330699921 12.250000954 0.0496000014  -999.250000 0.3817999959 2.4635000229 10.127172470 95.453201294  -999.250000 117.67250061 248.46119690 0.6541000009 0.6550999880
 2689.6040039 12.330699921 12.250000954 0.0500999987  -999.250000 0.3984000087 2.4642000198 9.9859552383 92.390502930  -999.250000 117.75669861 248.86169434 0.6646000147 0.6276999712
 2689.7563477 12.330699921 12.250000954 0.0467999987  -999.250000 0.4018000066 2.4584999084 9.0240364075 95.664901733  -999.250000 117.34809875 248.82919312 0.6661000252 0.6360999942
