# LAS format log file from PETREL
# Project units are specified as depth units
#==================================================================
~Version information
VERS.   2.0:
WRAP.   NO:
#==================================================================
~Well
STRT .m      1845.0031738 :
STOP .m      3450.9943848 :
STEP .m     0.00000000 :
NULL .        -999.250000 :
COMP.           : COMPANY
WELL.  7/4-2 Brynhild Appr   : WELL
FLD.            : FIELD
LOC.            : LOCATION
SRVC.           : SERVICE COMPANY
DATE.  2018-09-11 21:49:22   : Log Export Date {yyyy-MM-dd HH:mm:ss}
PROV.           : PROVINCE
UWI.   7/4-2   : UNIQUE WELL ID
API.            : API NUMBER
#==================================================================
~Curve
DEPT .m                   : DEPTH
CALI .in                  : CALI
BS .in                    : BS
DRHO .g/cm3               : DRHO
THOR .ppm                 : THOR
NPHI .m3/m3               : NPHI
RHOB .g/cm3               : RHOB
PEF .b/e                  : PEF
GR .gAPI                  : GR
URAN .ppm                 : URAN
DTC .us/ft                : DTC
DTS .us/ft                : DTS
RDEP .ohm.m               : RDEP
RMED .ohm.m               : RMED
~Parameter
#==================================================================
~Ascii
# ...
 3098.9504395 12.330699921 12.250000954 0.0382988788  -999.250000 0.0961999968 2.6108133793 10.324428558 13.823900223  -999.250000 63.106201172 120.52339935 3.4560000896 3.7309000492
 3099.1027832 12.330699921 12.250000954 0.0400971174  -999.250000 0.0989999995 2.6141946316 10.066452026 18.899999619  -999.250000 63.367698669 120.84040070 3.4425001144 3.5943000317
 3099.2551270 12.330699921 12.250000954 0.0410983972  -999.250000 0.0995000005 2.6252820492 10.091460228 21.690799713  -999.250000 63.609802246 121.41269684 3.4405999184 3.5129001141
 3099.4074707 12.373100281 12.250000954 0.0436916798  -999.250000 0.0974000022 2.6476280689 10.308445930 22.601999283  -999.250000 64.122299194 122.66200256 3.4114999771 3.5239999294
 3099.5600586 12.367799759 12.250000954 0.0441991985  -999.250000 0.0982000008 2.6524922848 10.796009064 22.742399216  -999.250000 64.294799805 123.18139648 3.3592000008 3.6266000271
 3099.7124023 12.373100281 12.250000954 0.0408054516  -999.250000 0.1000000015 2.6411182880 10.738353729 21.896400452  -999.250000 64.608001709 124.18029785 3.3164000511 3.4816999435
 3099.8647461 12.422599792 12.250000954 0.0364070535  -999.250000 0.0971999988 2.6116471291 10.649556160 17.245500565  -999.250000 64.492202759 124.58489990 3.2321999073 3.2950999737
 3100.0170898 12.381600380 12.250000954 0.0392907187  -999.250000 0.1027999967 2.5943553448 10.357932091 12.794500351  -999.250000 64.385498047 124.79620361 3.1219999790 3.2223999500
 3100.1696777 12.373100281 12.250000954 0.0417959951  -999.250000 0.1014999971 2.5926027298 10.557402611 11.650799751  -999.250000 64.382102966 124.79669952 3.0748999119 3.1519999504
 3100.3220215 12.330699921 12.250000954 0.0422991998  -999.250000 0.1077999994 2.5905034542 10.508296967 11.666399956  -999.250000 64.324401855 124.34339905 3.0090000629 2.9756999016
 3100.4743652 12.336700439 12.250000954 0.0387057699  -999.250000 0.1099999994 2.5905997753 9.9621610641 12.355099678  -999.250000 64.171302795 123.03849792 2.9802000523 2.8403000832
 3100.6267090 12.330699921 12.250000954 0.0379012823  -999.250000 0.1102999970 2.5947933197 10.394721985 13.130900383  -999.250000 64.113502502 122.50949860 2.9883000851 2.8255999088
 3100.7790527 12.365999222 12.250000954 0.0380993597  -999.250000 0.1080999970 2.6073596478 10.452569008 16.535999298  -999.250000 64.018302917 121.58570099 3.0248999596 3.0445001125
 3100.9316406 12.407000542 12.250000954 0.0390983969  -999.250000 0.1045000032 2.6135900021 10.689287186 17.876300812  -999.250000 63.896099091 121.11350250 3.0696001053 3.1542999744
 3101.0839844 12.354900360 12.250000954 0.0405000001  -999.250000 0.1037999988 2.6206998825 11.065681458 17.225299835  -999.250000 63.552700043 120.15570068 3.1691999435 3.3303999901
 3101.2363281 12.348899841 12.250000954 0.0392000005  -999.250000 0.1013000011 2.6205999851 10.376186371 17.281299591  -999.250000 63.387500763 119.79080200 3.2093999386 3.4523999691
 3101.3886719 12.365999222 12.250000954 0.0366000012  -999.250000 0.0957000032 2.6161999702 10.296577454 16.367900848  -999.250000 63.068103790 119.24600220 3.2692999840 3.6442000866
 3101.5412598 12.373100281 12.250000954 0.0370999984  -999.250000 0.0948000029 2.6131000519 10.595665932 14.579700470  -999.250000 62.985599518 119.00969696 3.2795999050 3.6726999283
 3101.6936035 12.344799995 12.250000954 0.0395999998  -999.250000 0.0989999995 2.6057000160 10.679612160 12.403300285  -999.250000 62.972499847 118.60839081 3.2660999298 3.5559000969
 3101.8459473 12.356100082 12.250000954 0.0403000005  -999.250000 0.0988999978 2.6036000252 10.463541031 12.227499962  -999.250000 62.997898102 118.57299805 3.2506999969 3.4407000542
 3101.9982910 12.426799774 12.250000954 0.0443999991  -999.250000 0.1053000018 2.6163001060 10.248039246 14.486000061  -999.250000 63.183799744 119.00740814 3.2084000111 3.0980999470
 3102.1508789 12.366999626 12.250000954 0.0447000004  -999.250000 0.1093000025 2.6228001118 10.584212303 17.311500549  -999.250000 63.235099792 119.04380035 3.2232000828 3.0483999252
 3102.3032227 12.373100281 12.250000954 0.0417999998  -999.250000 0.1033999994 2.6319999695 10.313776970 19.132600784  -999.250000 63.392898560 119.23899841 3.2788999081 3.2307999134
 3102.4555664 12.373100281 12.250000954 0.0405000001  -999.250000 0.0991000012 2.6331000328 10.238668442 18.133800507  -999.250000 63.597198486 119.61580658 3.2978999615 3.4388000965
 3102.6079102 12.422599792 12.250000954 0.0428999998  -999.250000 0.0930000022 2.6301999092 10.849307060 16.686700821  -999.250000 64.041198730 120.55110168 3.3910999298 3.5940001011
 3102.7602539 12.443799973 12.250000954 0.0461000018  -999.250000 0.0900000036 2.6289000511 11.041494370 15.915499687  -999.250000 64.358802795 121.51020050 3.4384000301 3.6068000793
 3102.9128418 12.443799973 12.250000954 0.0505000018  -999.250000 0.0873000026 2.6300001144 10.592096329 14.006899834  -999.250000 65.018096924 123.47560120 3.4514000416 3.8417999744
 3103.0651855 12.438199997 12.250000954 0.0509999990  -999.250000 0.0876000002 2.6345999241 10.765808105 14.571100235  -999.250000 65.426803589 124.61170197 3.4470999241 3.8640000820
 3103.2175293 12.358999252 12.250000954 0.0511000007  -999.250000 0.0948999971 2.6531000137 11.113077164 20.876499176  -999.250000 66.157699585 126.79470825 3.4716999531 3.6029000282
 3103.3698730 12.344799995 12.250000954 0.0496999994  -999.250000 0.0991000012 2.6612000465 10.570362091 25.991300583  -999.250000 66.166603088 127.51879883 3.5055999756 3.4279999733
 3103.5224609 12.339200020 12.250000954 0.0427000001  -999.250000 0.0967999995 2.6626999378 9.8489971161 29.866100311  -999.250000 66.148300171 128.76690674 3.4296998978 3.5113000870
 3103.6748047 12.330699921 12.250000954 0.0375999995  -999.250000 0.0986000001 2.6473999023 10.385362625 28.812400818  -999.250000 65.737998962 127.83499908 3.4314000607 3.3896000385
 3103.8271484 12.330699921 12.250000954 0.0372000001  -999.250000 0.0979000032 2.6370999813 10.630362511 24.673900604  -999.250000 65.511001587 127.33729553 3.4226000309 3.3998000622
 3103.9794922 12.330699921 12.250000954 0.0399999991  -999.250000 0.0961000025 2.6194999218 10.468375206 15.166600227  -999.250000 64.737998962 125.87709808 3.3229999542 3.7179999352
 3104.1320801 12.326599121 12.250000954 0.0419999994  -999.250000 0.0957000032 2.6164000034 10.302569389 13.369400024  -999.250000 64.370597839 125.14330292 3.2860000134 3.7413001060
 3104.2844238 12.373100281 12.250000954 0.0445000008  -999.250000 0.0953999981 2.6317999363 10.681630135 19.252700806  -999.250000 64.010200500 122.81030273 3.0534000397 3.2472999096
 3104.4367676 12.420200348 12.250000954 0.0416000001  -999.250000 0.0956000015 2.6315000057 10.813973427 22.833999634  -999.250000 63.870399475 122.31269836 3.0155000687 2.9117999077
 3104.5891113 12.373100281 12.250000954 0.0364000015  -999.250000 0.1079000011 2.6145999432 10.984879494 19.019500732  -999.250000 63.590900421 121.31749725 2.8580999374 2.7160999775
 3104.7414551 12.330699921 12.250000954 0.0379000008  -999.250000 0.1102000028 2.6075000763 10.588330269 15.689000130  -999.250000 63.475399017 120.98549652 2.7890000343 2.8227999210
 3104.8940430 12.330699921 12.250000954 0.0454999991  -999.250000 0.1102000028 2.6024999619 10.552536964 14.214300156  -999.250000 63.245601654 120.32980347 2.7827999592 2.8239998817
 3105.0463867 12.330699921 12.250000954 0.0467999987  -999.250000 0.1103999987 2.6033999920 10.762006760 15.657899857  -999.250000 63.193901062 120.06009674 2.7801001072 2.8399999142
 3105.1987305 12.358999252 12.250000954 0.0434999987  -999.250000 0.1089999974 2.6048998833 10.353566170 17.325700760  -999.250000 63.100498199 119.52980042 2.7790000439 2.8438999653
 3105.3510742 12.341300011 12.250000954 0.0416000001  -999.250000 0.1102000028 2.6031999588 10.593388557 15.881400108  -999.250000 63.186103821 119.84429932 2.7665998936 2.8299999237
 3105.5036621 12.358999252 12.250000954 0.0401999988  -999.250000 0.1046999991 2.5934000015 10.463807106 13.492600441  -999.250000 63.393501282 120.63140106 2.7437000275 2.8101000786
