# LAS format log file from PETREL
# Project units are specified as depth units
#==================================================================
~Version information
VERS.   2.0:
WRAP.   NO:
#==================================================================
~Well
STRT .m      2290.9255371 :
STOP .m      2985.5649414 :
STEP .m     0.00000000 :
NULL .        -999.250000 :
COMP.           : COMPANY
WELL.  7/4-3 Carlsberg   : WELL
FLD.            : FIELD
LOC.            : LOCATION
SRVC.           : SERVICE COMPANY
DATE.  2018-09-11 21:49:22   : Log Export Date {yyyy-MM-dd HH:mm:ss}
PROV.           : PROVINCE
UWI.   7/4-3   : UNIQUE WELL ID
API.            : API NUMBER
#==================================================================
~Curve
DEPT .m                   : DEPTH
CALI .in                  : CALI
BS .in                    : BS
ROP .m/h                  : ROP
DRHO .g/cm3               : DRHO
NPHI .m3/m3               : NPHI
RHOB .g/cm3               : RHOB
PEF .b/e                  : PEF
GR .gAPI                  : GR
DTC .us/ft                : DTC
DTS .us/ft                : DTS
RDEP .ohm.m               : RDEP
RMED .ohm.m               : RMED
~Parameter
#==================================================================
~Ascii
 2290.9255371 17.803899765 17.500000000 225437.01563  -999.250000  -999.250000  -999.250000  -999.250000 89.466300964 134.01809692  -999.250000  -999.250000  -999.250000
 2291.0778809 17.803899765 17.500000000 226026.39063  -999.250000  -999.250000  -999.250000  -999.250000 89.317901611 128.68139648  -999.250000  -999.250000  -999.250000
 2291.2304688 17.855699539 17.500000000 225877.56250 -0.016100001  -999.250000  -999.250000  -999.250000 92.578300476 127.30930328  -999.250000  -999.250000  -999.250000
 2291.3828125 17.907499313 17.500000000 225089.76563 0.0520000011  -999.250000  -999.250000  -999.250000 91.575996399 126.08689880  -999.250000  -999.250000  -999.250000
 2291.5351563 17.880199432 17.500000000 225644.89063 0.0557939187  -999.250000  -999.250000  -999.250000 87.111396790 124.60220337  -999.250000  -999.250000  -999.250000
 2291.6875000 16.345600128 17.500000000 225987.40625 0.0411235578  -999.250000  -999.250000  -999.250000 88.135200500 124.25229645  -999.250000  -999.250000  -999.250000
 2291.8400879 15.734800339 17.500000000 226357.09375 0.0384999998  -999.250000  -999.250000  -999.250000 91.670997620 126.50879669  -999.250000 0.4720000029 0.4244999886
 2291.9924316 15.219799995 17.500000000 225927.15625 0.0383000001  -999.250000  -999.250000  -999.250000 86.061401367 128.05569458  -999.250000 0.4456999898 0.4278999865
 2292.1447754 16.069900513 17.500000000 225165.34375 0.0309118405  -999.250000  -999.250000  -999.250000 89.540199280 128.16760254  -999.250000 0.4329000115 0.4258033633
 2292.2971191 17.269100189 17.500000000 224847.64063 0.0234120190  -999.250000  -999.250000  -999.250000 88.943298340 127.23329926  -999.250000 0.3323999941 0.3276575208
 2292.4497070 14.797200203 17.500000000 222746.45313 -0.003400000  -999.250000  -999.250000  -999.250000 89.201400757 127.06860352  -999.250000 0.2135999948 0.1826999933
 2292.6020508 15.637500763 17.500000000 216698.03125 -0.048999999  -999.250000  -999.250000  -999.250000 86.614196777 127.09919739  -999.250000 0.2515000105 0.2031999975
 2292.7543945 16.171100616 17.500000000 211779.93750 -0.048001599  -999.250000  -999.250000  -999.250000 90.363700867 127.74948883  -999.250000 0.3300999999 0.2837708592
 2292.9067383 16.609800339 17.500000000 212391.73438 -0.044505611  -999.250000  -999.250000  -999.250000 88.864700317 128.98390198  -999.250000 0.3899999857 0.3713595867
 2293.0590820 16.119100571 17.500000000 212277.15625 -0.044699680  -999.250000  -999.250000  -999.250000 95.760597229 129.11149597  -999.250000 0.4284999967 0.4256131351
 2293.2116699 16.166599274 17.500000000 210080.31250 -0.034899998  -999.250000  -999.250000  -999.250000 88.485702515 129.28160095  -999.250000 0.4483999908 0.4296999872
 2293.3640137 16.243999481 17.500000000 211201.18750 -0.050874401  -999.250000  -999.250000  -999.250000 90.361396790 129.46299744  -999.250000 0.4363000095 0.4177191854
 2293.5163574 16.185300827 17.500000000 212957.46875 -0.054993428  -999.250000  -999.250000  -999.250000 88.792198181 130.04010010  -999.250000 0.4402999878 0.4214939177
 2293.6687012 16.302600861 17.500000000 210875.18750 -0.053801924  -999.250000  -999.250000  -999.250000 91.095199585 129.12770081  -999.250000 0.4426000118 0.4219991863
 2293.8212891 15.676900864 17.500000000 203696.45313 -0.057700001  -999.250000  -999.250000  -999.250000 83.306297302 128.79029846  -999.250000 0.4327999949 0.4095000029
 2293.9736328 15.067399025 17.500000000 191150.78125 -0.052099999  -999.250000  -999.250000  -999.250000 79.913398743 129.14869690  -999.250000 0.4932000041 0.4830000103
 2294.1259766 16.001800537 17.500000000 181169.28125 -0.057790879  -999.250000  -999.250000  -999.250000 71.051101685 129.40190125  -999.250000 0.4742000103 0.4830998480
 2294.2783203 16.244600296 17.500000000 182319.68750 -0.054205772  -999.250000  -999.250000  -999.250000 69.058998108 129.82550049  -999.250000 0.4463000000 0.4203007817
 2294.4309082 16.515100479 17.500000000 192145.26563 -0.054000001  -999.250000  -999.250000  -999.250000 80.885101318 129.37100220  -999.250000 0.4454999864 0.4022000134
 2294.5832520 18.047899246 17.500000000 206631.50000 -0.039700001  -999.250000  -999.250000  -999.250000 81.459800720 128.95179749  -999.250000 0.4483999908 0.3926999867
 2294.7355957 17.192899704 17.500000000 216455.89063 -0.034608159  -999.250000  -999.250000  -999.250000 85.464202881 128.69290161  -999.250000 0.4571999907 0.4144651294
 2294.8879395 16.521699905 17.500000000 219160.60938 -0.038593590  -999.250000  -999.250000  -999.250000 72.415496826 128.32099915  -999.250000 0.4375000000 0.4151988626
 2295.0402832 16.657300949 17.500000000 216368.51563 -0.040896315  -999.250000  -999.250000  -999.250000 68.494102478 128.12330627  -999.250000 0.4390000105 0.4135027230
 2295.1928711 16.844999313 17.500000000 213069.68750 -0.042500000  -999.250000  -999.250000  -999.250000 78.108100891 128.47250366  -999.250000 0.4514000118 0.4075999856
 2295.3452148 16.833200455 17.500000000 213496.06250 -0.039504800  -999.250000  -999.250000  -999.250000 68.056396484 127.92649841  -999.250000 0.4562000036 0.4330591857
 2295.4975586 16.482200623 17.500000000 213199.59375 -0.033210095  -999.250000  -999.250000  -999.250000 81.719398499 127.22109985  -999.250000 0.4507000148 0.4304000139
 2295.6499023 16.710599899 17.500000000 207441.73438 -0.030803846  -999.250000  -999.250000  -999.250000 71.087699890 125.64129639  -999.250000 0.4388000071 0.4144000113
 2295.8024902 16.232200623 17.500000000 192601.18750 -0.033000000  -999.250000  -999.250000  -999.250000 57.429000854 123.97989655  -999.250000 0.4462000132 0.4140999913
 2295.9548340 16.366399765 17.500000000 167340.93750 -0.032600001  -999.250000  -999.250000  -999.250000 63.232200623 123.88700104  -999.250000 0.5033000112 0.4489000142
 2296.1071777 16.006399155 17.500000000 144648.42188 -0.039089598  -999.250000  -999.250000  -999.250000 64.247901917 124.83029938  -999.250000 0.5523999929 0.5213000178
 2296.2595215 13.431400299 17.500000000 151033.46875 -0.026520193  -999.250000  -999.250000  -999.250000 67.365303040 127.13400269  -999.250000 0.4769999981 0.4702999890
 2296.4121094 12.725700378 17.500000000 180568.10938 -0.013700000  -999.250000  -999.250000  -999.250000 68.431999207 129.10229492  -999.250000 0.4537999928 0.4356999993
 2296.5644531 16.150100708 17.500000000 200009.04688 -0.036699999  -999.250000  -999.250000  -999.250000 73.618202209 129.95710754  -999.250000 0.4562000036 0.4442999959
 2296.7167969 16.603000641 17.500000000 209609.06250 -0.045985121  -999.250000  -999.250000  -999.250000 68.884803772 129.68719482  -999.250000 0.4427999854 0.4153000116
 2296.8691406 16.790000916 17.500000000 214684.25000 -0.045101441  -999.250000  -999.250000  -999.250000 66.750000000 128.91580200  -999.250000 0.4406000078 0.3975999951
 2297.0214844 16.392400742 17.500000000 218422.43750 -0.044201441  -999.250000  -999.250000  -999.250000 71.077903748 128.20829773  -999.250000 0.4639999866 0.4226000011
 2297.1740723 16.513500214 17.500000000 226502.35938 -0.045299999  -999.250000  -999.250000  -999.250000 82.914199829 128.30329895  -999.250000 0.4379999936 0.4230000079
 2297.3264160 16.308399200 17.500000000 238412.60938 -0.048994079  -999.250000  -999.250000  -999.250000 75.990097046 127.91550446  -999.250000 0.4007999897 0.3686999977
 2297.4787598 15.632800102 17.500000000 245757.89063 -0.036719710  -999.250000  -999.250000  -999.250000 76.129302979 127.11489868  -999.250000 0.4162000120 0.3761000037
 2297.6311035 15.624400139 17.500000000 250625.20313 -0.030909294  -999.250000  -999.250000  -999.250000 84.341300964 125.91059875  -999.250000 0.4266000092 0.3962999880
 2297.7836914 16.691099167 17.500000000 254167.32813 -0.033900000  -999.250000  -999.250000  -999.250000 89.548698425 123.68090820  -999.250000 0.4174999893 0.4031000137
 2297.9360352 17.218799591 17.500000000 255500.79688 -0.039500002  -999.250000  -999.250000  -999.250000 76.235198975 120.70169830  -999.250000 0.4241999984 0.3980000019
 2298.0883789 16.566499710 17.500000000 259077.17188 -0.041796319  -999.250000  -999.250000  -999.250000 55.244499207 119.39129639  -999.250000 0.5056999922 0.4717999995
