# LAS format log file from PETREL
# Project units are specified as depth units
#==================================================================
~Version information
VERS.   2.0:
WRAP.   NO:
#==================================================================
~Well
STRT .m      2290.9255371 :
STOP .m      2985.5649414 :
STEP .m     0.00000000 :
NULL .        -999.250000 :
COMP.           : COMPANY
WELL.  7/4-3 Carlsberg   : WELL
FLD.            : FIELD
LOC.            : LOCATION
SRVC.           : SERVICE COMPANY
DATE.  2018-09-11 21:49:22   : Log Export Date {yyyy-MM-dd HH:mm:ss}
PROV.           : PROVINCE
UWI.   7/4-3   : UNIQUE WELL ID
API.            : API NUMBER
#==================================================================
~Curve
DEPT .m                   : DEPTH
CALI .in                  : CALI
BS .in                    : BS
ROP .m/h                  : ROP
DRHO .g/cm3               : DRHO
NPHI .m3/m3               : NPHI
RHOB .g/cm3               : RHOB
PEF .b/e                  : PEF
GR .gAPI                  : GR
DTC .us/ft                : DTC
DTS .us/ft                : DTS
RDEP .ohm.m               : RDEP
RMED .ohm.m               : RMED
~Parameter
#==================================================================
~Ascii
# ...
 2429.9143066 12.332699776 12.250000954 121476.38281 0.0228991993 0.1625148952 2.3779010773 6.5571384430 21.305500031 78.854400635 148.53120422 0.6118999720 0.5819410682
 2430.0666504 12.304200172 12.250000954 114695.67188 0.0249966346 0.1587060988 2.3744056225 6.5312418938 18.034200668 78.020500183 147.56289673 0.5957000256 0.5676230788
 2430.2192383 12.329199791 12.250000954 112536.60938 0.0233999994 0.1562000066 2.3706998825 6.4072999954 17.472499847 77.342796326 147.20339966 0.5989000201 0.5766999722
 2430.3715820 12.406700134 12.250000954 113267.71875 0.0265948791 0.1526057720 2.3766903877 6.4768886566 18.303800583 76.790298462 146.60859680 0.5929999948 0.5746033192
 2430.5239258 12.321000099 12.250000954 114223.23438 0.0265999995 0.1593891084 2.3806936741 6.4599270821 19.597499847 76.405799866 146.28109741 0.5972999930 0.5673117042
 2430.6762695 12.378600121 12.250000954 114485.43750 0.0321910270 0.1534096152 2.3968739510 6.5380744934 16.727800369 76.083602905 145.05720520 0.6310999990 0.5847719312
 2430.8288574 12.370200157 12.250000954 114741.73438 0.0307999998 0.1504999995 2.4054999352 6.7990999222 18.451200485 75.761100769 144.13040161 0.6503999829 0.6098999977
 2430.9812012 12.441499710 12.250000954 114838.57813 0.0247000009 0.1482000053 2.3819000721 6.6087999344 19.698600769 75.743896484 144.97810364 0.5953999758 0.5691000223
 2431.1335449 12.415900230 12.250000954 114140.55469 0.0303908810 0.1507958472 2.3651268482 6.5747542381 20.674900055 75.888496399 144.92030334 0.5604000092 0.5257694125
 2431.2858887 12.354000092 12.250000954 114876.37500 0.0267059281 0.1520979106 2.3635027409 6.4783544540 20.709899902 76.334503174 144.70159912 0.5850999951 0.5422734022
 2431.4384766 12.329699516 12.250000954 117230.31250 0.0266999993 0.1615999937 2.3773000240 6.4376001358 22.787300110 76.628196716 145.20719910 0.6201999784 0.5834000111
 2431.5908203 12.356900215 12.250000954 117884.64844 0.0197000001 0.1673000008 2.3684999943 6.4766001701 18.373500824 77.299598694 145.60879517 0.5918999910 0.5665000081
 2431.7431641 12.383299828 12.250000954 114390.93750 0.0258900803 0.1675995290 2.3627092838 6.5695509911 14.508999825 77.593193054 147.15789795 0.5569999814 0.5249665976
 2431.8955078 12.293899536 12.250000954 113169.69531 0.0233041663 0.1655033678 2.3536145687 6.2813630104 20.713800430 77.708801270 147.73660278 0.5504000187 0.5155150890
 2432.0478516 12.343400002 12.250000954 115561.40625 0.0198056083 0.1693937629 2.3512039185 6.3892259598 21.195199966 77.932197571 147.62040710 0.5636000037 0.5237867236
 2432.2004395 12.412099838 12.250000954 117729.91406 0.0244999994 0.1662999988 2.3629000187 6.4935998917 19.046300888 78.289810181 147.65370178 0.5832999945 0.5378999710
 2432.3527832 12.509900093 12.250000954 116801.57031 0.0291924812 0.1561163217 2.3626005650 6.8143858910 18.116399765 78.621200562 147.62690735 0.5777000189 0.5413944125
 2432.5051270 12.579899788 12.250000954 115503.53906 0.0379858948 0.1559003294 2.3610026836 6.9826307297 21.473800659 78.997100830 148.42260742 0.5346000195 0.5069553256
 2432.6574707 12.605400085 12.250000954 116037.40625 0.0386988781 0.1569982469 2.3540112972 6.6498346329 21.365699768 79.227104187 149.11990356 0.5127999783 0.4830383062
 2432.8100586 12.549599648 12.250000954 120251.58594 0.0381999984 0.1623000056 2.3445999622 7.3252000809 13.334799767 79.292701721 149.69119263 0.5151000023 0.4864000082
 2432.9624023 12.347700119 12.250000954 123933.07031 0.0362000018 0.1620000005 2.3527998924 6.9029998779 11.777799606 79.050910950 149.22590637 0.5281000137 0.4887000024
 2433.1147461 12.280300140 12.250000954 124103.14063 0.0230211206 0.1604025662 2.3545970917 6.1729698181 16.415000916 78.509002686 149.86210632 0.5669999719 0.5185521245
 2433.2670898 12.254299164 12.250000954 122940.95313 0.0208035260 0.1557075232 2.3732700348 6.3132729530 20.556100845 77.986000061 149.17340088 0.5910999775 0.5508482456
 2433.4196777 12.289200783 12.250000954 119729.52344 0.0207000002 0.1528999954 2.3828001022 6.2402000427 13.456600189 77.876602173 148.22489929 0.5544000268 0.5299000144
 2433.5720215 12.468199730 12.250000954 116437.80469 0.0193000007 0.1479000002 2.3631999493 6.2235999107 15.330300331 78.188201904 147.97540283 0.5030999780 0.4783999920
 2433.7243652 12.349301338 12.250000954 120128.74219 0.0257896017 0.1569854468 2.3498215675 6.5153326988 16.808900833 79.038208008 149.24717712 0.4763000011 0.4462515414
 2433.8767090 12.497098923 12.250000954 125754.32813 0.0252009612 0.1631900668 2.3352231979 6.4982280731 20.131999969 79.739501953 150.14700317 0.4900999963 0.4521903694
 2434.0290527 12.347499847 12.250000954 128343.30469 0.0311903842 0.1744818985 2.3442854881 6.5540103912 23.774599075 79.993202209 150.17349243 0.5029000044 0.4747637808
 2434.1816406 12.383700371 12.250000954 125646.84375 0.0237000007 0.1777999997 2.3397998810 6.4046001434 24.513999939 80.200302124 149.68269348 0.4993999898 0.4684000015
 2434.3339844 12.474699974 12.250000954 122735.42969 0.0185083207 0.1746051311 2.3106467724 6.2471523285 21.115800858 80.000602722 148.98219299 0.5144000053 0.4668025672
 2434.4863281 12.330800056 12.250000954 124775.18750 0.0190990381 0.1685097814 2.3156919479 6.2839403152 21.231300354 79.231399536 148.02850342 0.5652999878 0.5059371591
 2434.6386719 12.238900185 12.250000954 123655.50000 0.0184011217 0.1610120237 2.3436551094 6.2648310661 19.550899506 78.253402710 147.56089783 0.6096000075 0.5660036802
 2434.7912598 12.310400963 12.250000954 121101.96875 0.0190999992 0.1544999927 2.3527998924 6.2291002274 21.850000381 77.281600952 146.79280090 0.6256999969 0.5922999978
 2434.9436035 12.281100273 12.250000954 119541.72656 0.0185000002 0.1435000002 2.3557999134 6.2848000526 21.861700058 76.569198608 146.02070618 0.6345000267 0.5940999985
 2435.0959473 12.238100052 12.250000954 117128.73438 0.0221940801 0.1386078447 2.3760676384 6.3714613914 18.892599106 76.075309753 145.59240723 0.6679999828 0.6166638136
 2435.2482910 12.237599373 12.250000954 114240.94531 0.0211017616 0.1397980750 2.3853850365 6.1118168831 26.334699631 75.605499268 145.08320618 0.7092999816 0.6722108722
 2435.4008789 12.290499687 12.250000954 108864.57031 0.0190999992 0.1418000013 2.3847000599 6.0225000381 24.795400620 75.066802979 143.75610352 0.7602999806 0.7347000241
 2435.5532227 12.301600456 12.250000954 104268.89844 0.0221999995 0.1397999972 2.3794000149 6.0041999817 24.191200256 74.252197266 142.50349426 0.8292000294 0.7735999823
 2435.7055664 12.208499908 12.250000954 102205.51563 0.0272918381 0.1316131204 2.4001665115 6.3943748474 22.013200760 73.558700562 140.74800110 0.9559000134 0.8784319758
 2435.8579102 12.224300385 12.250000954 101684.64063 0.0183144230 0.1232134625 2.4012982845 6.1675653458 19.075700760 72.632301331 138.84269714 1.0570000410 0.9763430953
 2436.0104980 12.188799858 12.250000954 104904.32813 0.0278999992 0.1142000034 2.4270000458 6.1852998734 16.966600418 71.750099182 136.97050476 1.1325000525 1.0645999908
 2436.1628418 12.190298080 12.250000954 106107.87500 0.0219999999 0.1052000001 2.4347999096 5.9746999741 16.417299271 71.190101624 135.64419556 1.1835999489 1.1188999414
 2436.3151855 12.193200111 12.250000954 107785.03906 0.0186054409 0.0934188813 2.4501755238 6.2134175301 19.376100540 70.583297729 134.54370117 1.2445000410 1.1330772638
 2436.4675293 12.199899673 12.250000954 111325.98438 0.0227932688 0.0899056122 2.4786541462 6.2987637520 16.113700867 69.907402039 134.47689819 1.2305999994 1.1653482914
 2436.6198730 12.224399567 12.250000954 115740.95313 0.0196051281 0.0900996774 2.4827933311 6.1475429535 18.562500000 69.656799316 134.22819519 1.1499999762 1.0941144228
 2436.7724609 12.219300270 12.250000954 116659.85156 0.0208000001 0.0932999998 2.4788000584 6.3049998283 18.464700699 69.752899170 134.59030151 1.0266000032 0.9567000270
 2436.9248047 12.186900139 12.250000954 113486.21875 0.0179046392 0.0973934457 2.4734086990 6.2857308388 14.308099747 70.464599609 134.96640015 0.9822999835 0.8857137561
 2437.0771484 12.241500854 12.250000954 110905.52344 0.0172011219 0.0997961536 2.4659118652 6.1444268227 16.892299652 70.855499268 135.74279785 0.9962999821 0.9002764821
