# LAS format log file from PETREL
# Project units are specified as depth units
#==================================================================
~Version information
VERS.   2.0:
WRAP.   NO:
#==================================================================
~Well
STRT .m      1845.0031738 :
STOP .m      3450.9943848 :
STEP .m     0.00000000 :
NULL .        -999.250000 :
COMP.           : COMPANY
WELL.  7/4-2 Brynhild Appr   : WELL
FLD.            : FIELD
LOC.            : LOCATION
SRVC.           : SERVICE COMPANY
DATE.  2018-09-11 21:49:22   : Log Export Date {yyyy-MM-dd HH:mm:ss}
PROV.           : PROVINCE
UWI.   7/4-2   : UNIQUE WELL ID
API.            : API NUMBER
#==================================================================
~Curve
DEPT .m                   : DEPTH
CALI .in                  : CALI
BS .in                    : BS
DRHO .g/cm3               : DRHO
THOR .ppm                 : THOR
NPHI .m3/m3               : NPHI
RHOB .g/cm3               : RHOB
PEF .b/e                  : PEF
GR .gAPI                  : GR
URAN .ppm                 : URAN
DTC .us/ft                : DTC
DTS .us/ft                : DTS
RDEP .ohm.m               : RDEP
RMED .ohm.m               : RMED
~Parameter
#==================================================================
~Ascii
# ...
 3320.2353516 8.5755996704 8.5000000000 -0.006600000 6.1967000961 0.3122788370 2.3545000553  -999.250000 85.721397400 4.8338999748 105.85390472  -999.250000 3.4425001144 3.4953000546
 3320.3876953 8.5675001144 8.5000000000 -0.011900000 6.2066998482 0.2990809381 2.3807001114  -999.250000 86.081802368 4.9738998413 101.99202728  -999.250000 3.7479000092 3.8057999611
 3320.5400391 8.5523996353 8.5000000000 -0.008100000 6.3176999092 0.2871604264 2.4721000195  -999.250000 89.151000977 5.4043002129 100.89459991  -999.250000 4.0664000511 4.1307001114
 3320.6926270 8.5492000580 8.5000000000 0.0031000001 6.9359998703 0.2625393569 2.5243000984  -999.250000 96.240798950 5.6939997673 103.46059418  -999.250000 4.0736999512 4.1349000931
 3320.8449707 8.5517997742 8.5000000000 0.0155999996 7.2044000626 0.2748815715 2.4739999771  -999.250000 92.492797852 5.5427999496 108.35419464  -999.250000 3.7636001110 3.8138999939
 3320.9973145 8.5450000763 8.5000000000 0.0052999998 7.3590002060 0.3257493675 2.3875000477  -999.250000 92.063201904 5.3845000267 113.08612823  -999.250000 3.4639999866 3.5067000389
 3321.1496582 8.5388002396 8.5000000000 0.0037000000 7.7326993942 0.3565322161 2.3787000179  -999.250000 99.671203613 4.9402999878 115.72193146  -999.250000 3.3559000492 3.3970999718
 3321.3020020 8.5284004211 8.5000000000 0.0073000002 7.7425003052 0.3765780330 2.3608000278  -999.250000 96.115997314 4.7799000740 115.86346436  -999.250000 3.3764998913 3.4207000732
 3321.4545898 8.5361003876 8.5000000000 0.0031000001 7.7374997139 0.3628206253 2.3463997841  -999.250000 90.761703491 4.7308001518 114.46674347  -999.250000 3.3076999187 3.3538000584
 3321.6069336 8.5466995239 8.5000000000 -0.005600000 7.8800001144 0.3380911648 2.3806002140  -999.250000 86.453903198 4.4576001167 112.92176819  -999.250000 3.0053999424 3.0473999977
 3321.7592773 8.5560998917 8.5000000000 -0.007000000 8.1387996674 0.3325906992 2.4328000546  -999.250000 81.869300842 3.9245996475 112.09033966  -999.250000 2.6243999004 2.6602001190
 3321.9116211 8.5550003052 8.5000000000 -0.005600000 8.1564998627 0.3267882764 2.4337999821  -999.250000 78.987701416 3.5460000038 112.11380768  -999.250000 2.3914000988 2.4244000912
 3322.0642090 8.5499000549 8.5000000000 -0.000400000 8.0333995819 0.3195265532 2.4289000034  -999.250000 81.413497925 3.1528000832 112.68141174  -999.250000 2.3482999802 2.3836998940
 3322.2165527 8.5510997772 8.5000000000 0.0002000000 7.8236999512 0.3277926445 2.4216001034  -999.250000 83.650497437 2.8501000404 113.30973816  -999.250000 2.4426999092 2.4851000309
 3322.3688965 8.5604000092 8.5000000000 0.0009000000 7.5763001442 0.3232661784 2.4158000946  -999.250000 81.738098145 2.7832999229 113.70955658  -999.250000 2.5924999714 2.6445999146
 3322.5212402 8.5662002563 8.5000000000 0.0033000000 7.0132999420 0.3644767404 2.4186000824  -999.250000 82.995697021 3.0167000294 113.93904114  -999.250000 2.7123999596 2.7737998962
 3322.6738281 8.5805997849 8.5000000000 -0.001700000 6.9565000534 0.3499081433 2.4061000347  -999.250000 86.147102356 3.1631999016 114.09170532  -999.250000 2.7664000988 2.8345000744
 3322.8261719 8.5637998581 8.5000000000 -0.001300000 7.0745000839 0.3213056028 2.4070000648  -999.250000 84.501998901 3.2495000362 113.96752167  -999.250000 2.7822000980 2.8548998833
 3322.9785156 8.5472002029 8.5000000000 0.0031999999 7.4018998146 0.3247977793 2.4019999504  -999.250000 85.268501282 3.3887000084 113.23798370  -999.250000 2.8215000629 2.8996000290
 3323.1308594 8.5544004440 8.5000000000 0.0126999998 8.0760002136 0.3234387636 2.4131999016  -999.250000 87.952499390 3.3438999653 111.86016846  -999.250000 2.9084999561 2.9946000576
 3323.2832031 8.5481996536 8.5000000000 0.0124000004 8.6737003326 0.3475468159 2.4258999825  -999.250000 85.329696655 3.1781001091 110.28024292  -999.250000 2.9863998890 3.0797998905
 3323.4357910 8.5375995636 8.5000000000 0.0066999998 9.0675001144 0.3143862188 2.4339001179  -999.250000 84.754501343 2.9712998867 109.24687195  -999.250000 2.9797999859 3.0748000145
 3323.5881348 8.5424003601 8.5000000000 0.0097000012 9.0785999298 0.3100818694 2.4405999184  -999.250000 85.680900574 2.8355000019 109.21018982  -999.250000 2.9168000221 3.0088000298
 3323.7404785 8.5487003326 8.5000000000 0.0037000000 8.9258003235 0.2988479137 2.3998000622  -999.250000 82.415603638 2.6561000347 109.94991302  -999.250000 2.8980998993 2.9890999794
 3323.8928223 8.5438995361 8.5000000000 0.0109999999 8.7508001328 0.3287184238 2.4038999081  -999.250000 81.643096924 2.5910000801 110.83104706  -999.250000 2.9579000473 3.0520000458
 3324.0454102 8.5483999252 8.5000000000 0.0066000000 8.5920000076 0.3401616216 2.3822999001  -999.250000 83.277801514 2.6545000076 111.35214233  -999.250000 3.0346999168 3.1322999001
 3324.1977539 8.5619001389 8.5000000000 -0.000900000 8.4995002747 0.3281833529 2.3561999798  -999.250000 83.859596252 2.7200000286 111.52220154  -999.250000 3.0613999367 3.1586999893
 3324.3500977 8.5607004166 8.5000000000 -0.000300000 8.2669000626 0.3177958131 2.3629000187  -999.250000 82.855598450 2.9472999573 111.71360016  -999.250000 3.0478999615 3.1419999599
 3324.5024414 8.5552997589 8.5000000000 0.0012000001 8.0000000000 0.3152298033 2.3810000420  -999.250000 80.639602661 3.2323999405 112.21312714  -999.250000 3.0236999989 3.1143000126
 3324.6550293 8.5715999603 8.5000000000 0.0044999998 7.6655006409 0.3338284791 2.4045999050  -999.250000 82.435096741 3.4354000092 112.98300934  -999.250000 2.9633998871 3.0490999222
 3324.8073730 8.5889997482 8.5000000000 -0.001200000 7.1810998917 0.3427107334 2.3914999962  -999.250000 84.198799133 3.6117999554 113.89210510  -999.250000 2.8478000164 2.9261999130
 3324.9597168 8.5647001266 8.5000000000 -0.003700000 6.2504000664 0.3494060934 2.3814001083  -999.250000 89.250503540 3.9424998760 114.64653778  -999.250000 2.7532000542 2.8264999390
 3325.1120605 8.5460996628 8.5000000000 0.0022000000 6.3274998665 0.3531732261 2.3965001106  -999.250000 89.589897156 3.9993996620 114.22369385  -999.250000 2.7723000050 2.8473000526
 3325.2644043 8.5444002151 8.5000000000 0.0035999999 6.3372998238 0.3364877999 2.3835999966  -999.250000 91.004798889 3.9704999924 111.46613312  -999.250000 2.9219000340 3.0064001083
 3325.4169922 8.5594997406 8.5000000000 0.0034000000 6.3541002274 0.3288795352 2.3747000694  -999.250000 88.186096191 3.9737000465 106.29379272  -999.250000 3.1598000526 3.2609000206
 3325.5693359 8.5727996826 8.5000000000 -0.002000000 6.6732997894 0.3224419653 2.4012000561  -999.250000 87.342697144 3.8491997719 100.39743042  -999.250000 3.4282999039 3.5508999825
 3325.7216797 8.5359001160 8.5000000000 -0.015100000 7.2175002098 0.2862609029 2.4565000534  -999.250000 77.576896667 3.3612999916 96.620330811  -999.250000 3.5506999493 3.6868999004
 3325.8740234 8.5281000137 8.5000000000 -0.008800000 7.4316000938 0.2619174719 2.5415999889  -999.250000 76.124603271 3.1835000515 96.894248962  -999.250000 3.2950999737 3.4170000553
 3326.0266113 8.5426998138 8.5000000000 0.0002000000 7.8045005798 0.2729459107 2.5253999233  -999.250000 81.241699219 3.0343000889 100.55482483  -999.250000 2.8304998875 2.9247999191
 3326.1789551 8.5557003021 8.5000000000 -0.000600000 8.1546001434 0.3184246719 2.4590001106  -999.250000 80.494102478 2.8001999855 105.11698914  -999.250000 2.5346999168 2.6152000427
 3326.3312988 8.5802001953 8.5000000000 0.0093000000 8.3809003830 0.3338225782 2.4677999020  -999.250000 82.836997986 2.6886000633 108.47394562  -999.250000 2.4591000080 2.5409998894
 3326.4836426 8.5852003098 8.5000000000 0.0152000003 8.2510995865 0.3478971124 2.4742999077  -999.250000 82.674896240 2.7762000561 109.99875641  -999.250000 2.4946999550 2.5864000320
 3326.6362305 8.5680999756 8.5000000000 0.0114000002 7.7990999222 0.3461086452 2.4546000957  -999.250000 82.488296509 2.9388999939 110.28348541  -999.250000 2.5162999630 2.6182999611
 3326.7885742 8.5389995575 8.5000000000 0.0060000001 7.0500998497 0.3487868607 2.4317998886  -999.250000 82.183097839 3.1549999714 110.05891418  -999.250000 2.4846999645 2.5934000015
