# LAS format log file from PETREL
# Project units are specified as depth units
#==================================================================
~Version information
VERS.   2.0:
WRAP.   NO:
#==================================================================
~Well
STRT .m      2290.9255371 :
STOP .m      2985.5649414 :
STEP .m     0.00000000 :
NULL .        -999.250000 :
COMP.           : COMPANY
WELL.  7/4-3 Carlsberg   : WELL
FLD.            : FIELD
LOC.            : LOCATION
SRVC.           : SERVICE COMPANY
DATE.  2018-09-11 21:49:22   : Log Export Date {yyyy-MM-dd HH:mm:ss}
PROV.           : PROVINCE
UWI.   7/4-3   : UNIQUE WELL ID
API.            : API NUMBER
#==================================================================
~Curve
DEPT .m                   : DEPTH
CALI .in                  : CALI
BS .in                    : BS
ROP .m/h                  : ROP
DRHO .g/cm3               : DRHO
NPHI .m3/m3               : NPHI
RHOB .g/cm3               : RHOB
PEF .b/e                  : PEF
GR .gAPI                  : GR
DTC .us/ft                : DTC
DTS .us/ft                : DTS
RDEP .ohm.m               : RDEP
RMED .ohm.m               : RMED
~Parameter
#==================================================================
~Ascii
# ...
 2978.5544434 8.6083002090 8.5000000000 61470.476563 0.0333999991 0.2348955125 2.5346000195 6.5369000435 109.14299774  -999.250000  -999.250000 1.0264999866 1.0319000483
 2978.7067871 8.6274995804 8.5000000000 63809.062500 0.0392999984 0.2341012806 2.5436999798 6.6940999031 112.82910156  -999.250000  -999.250000 1.0288000107 1.0399999619
 2978.8591309 8.6482000351 8.5000000000 65167.320313 0.0403999984 0.2322060764 2.5457999706 6.6068000793 115.95800018  -999.250000  -999.250000 1.0305999517 1.0343999863
 2979.0117188 8.6021995544 8.5000000000 65036.218750 0.0412000008 0.2351951897 2.5467998981 6.6742000580 117.59020233  -999.250000  -999.250000 1.0334000587 1.0181000233
 2979.1640625 8.5673999786 8.5000000000 63819.683594 0.0377000012 0.2369971126 2.5455999374 6.7006001472 112.01059723  -999.250000  -999.250000 1.0371999741 1.0118000507
 2979.3164063 8.5764999390 8.5000000000 61694.878906 0.0348000005 0.2402947098 2.5446999073 6.3094000816 111.92919922  -999.250000  -999.250000 1.0353000164 1.0259000063
 2979.4687500 8.6279001236 8.5000000000 63135.824219 0.0357000008 0.2302323133 2.5438001156 6.3530998230 110.23079681  -999.250000  -999.250000 1.0356999636 1.0412000418
 2979.6213379 8.6100997925 8.5000000000 65201.578125 0.0366999991 0.2273046523 2.5429000854 6.7544999123 108.75769806  -999.250000  -999.250000 1.0354000330 1.0477999449
 2979.7736816 8.5769996643 8.5000000000 64705.515625 0.0390000008 0.2299956828 2.5511000156 6.7395000458 112.70619965  -999.250000  -999.250000 1.0377999544 1.0428999662
 2979.9260254 8.5306997299 8.5000000000 62868.898438 0.0342000015 0.2285023928 2.5455999374 6.4348998070 117.04290009  -999.250000  -999.250000 1.0343999863 1.0305000544
 2980.0783691 8.5281000137 8.5000000000 60024.800781 0.0266999993 0.2315950394 2.5327999592 5.9899001122 112.45709991  -999.250000  -999.250000 1.0349999666 1.0313999653
 2980.2307129 8.5636997223 8.5000000000 58846.062500 0.0299999993 0.2360856086 2.5348000526 6.2792000771 116.59780121  -999.250000  -999.250000 1.0405000448 1.0285999775
 2980.3833008 8.6358995438 8.5000000000 61455.117188 0.0361000001 0.2374977469 2.5471999645 6.8057999611 114.91690063  -999.250000  -999.250000 1.0379999876 1.0162999630
 2980.5356445 8.6781997681 8.5000000000 64618.113281 0.0430000015 0.2442891002 2.5515999794 7.1030998230 113.75240326  -999.250000  -999.250000 1.0298000574 1.0073000193
 2980.6879883 8.7195997238 8.5000000000 64822.441406 0.0461999997 0.2412049621 2.5427000523 7.0468001366 115.59700012  -999.250000  -999.250000 1.0418000221 1.0111999512
 2980.8403320 8.6450004578 8.5000000000 65489.761719 0.0494000018 0.2389073670 2.5446000099 7.3021001816 109.76039886  -999.250000  -999.250000 1.0407999754 1.0360000134
 2980.9929199 8.6085996628 8.5000000000 67757.484375 0.0401000008 0.2306133062 2.5394999981 7.1395998001 110.33860016  -999.250000  -999.250000 1.0363999605 1.0592999458
 2981.1452637 8.5879001617 8.5000000000 69651.968750 0.0388000049 0.2261072099 2.5429000854 6.7206001282 111.02929688  -999.250000  -999.250000 1.0439000130 1.0550999641
 2981.2976074 8.6051998138 8.5000000000 67566.148438 0.0342999995 0.2343866974 2.5353999138 6.4042000771 110.95279694  -999.250000  -999.250000 1.0384999514 1.0369999409
 2981.4499512 8.5731000900 8.5000000000 65402.359375 0.0362000018 0.2379884869 2.5359001160 6.5123000145 113.73200226  -999.250000  -999.250000 1.0410000086 1.0184999704
 2981.6025391 8.6168003082 8.5000000000 64485.824219 0.0335000008  -999.250000 2.5329999924 6.5713000298 115.83319855  -999.250000  -999.250000 1.0432000160 1.0171999931
 2981.7548828 8.6204004288 8.5000000000 65151.968750 0.0375999995  -999.250000 2.5394999981 6.5872998238 115.53569794  -999.250000  -999.250000 1.0355000496 1.0284999609
 2981.9072266 8.6211004257 8.5000000000 67807.085938 0.0392999984  -999.250000 2.5457999706 6.6213998795 112.38819885  -999.250000  -999.250000 1.0313999653 1.0262999535
 2982.0595703 8.5410995483 8.5000000000 68806.304688 0.0366000012  -999.250000 2.5445001125 6.2936000824 114.63719940  -999.250000  -999.250000 1.0327999592 1.0283999443
 2982.2119141 8.5432996750 8.5000000000 68824.015625 0.0300999992  -999.250000 2.5364000797 6.1261000633 111.14939880  -999.250000  -999.250000 1.0349999666 1.0355999470
 2982.3645020 8.5726003647 8.5000000000 67635.828125 0.0295000002  -999.250000 2.5325999260 6.1497001648 112.86340332  -999.250000  -999.250000 1.0362999439 1.0314999819
 2982.5168457 8.6063995361 8.5000000000 66434.648438 0.0370999984  -999.250000 2.5459001064 6.6596999168 111.95449829  -999.250000  -999.250000 1.0425000191 1.0269999504
 2982.6691895 8.6225004196 8.5000000000 65378.738281 0.0438000001  -999.250000 2.5615999699 6.6195001602 111.95610046  -999.250000  -999.250000 1.0430999994 1.0396000147
 2982.8215332 8.6153001785 8.5000000000 63784.253906 0.0421999991  -999.250000 2.5531001091 6.6744999886 117.36219788  -999.250000  -999.250000 1.0535999537 1.0345000029
 2982.9741211 8.5516004562 8.5000000000 62297.246094 0.0331000015  -999.250000 2.5364999771 6.1919999123 113.62850189  -999.250000  -999.250000 1.0602999926 1.0374000072
 2983.1264648 8.5486001968 8.5000000000 60866.929688 0.0322000012  -999.250000 2.5357000828 6.1620001793 112.97059631  -999.250000  -999.250000 1.0592999458 1.0917999744
 2983.2788086 8.6042003632 8.5000000000 60282.285156 0.0337999985  -999.250000 2.5434999466 6.2484998703 112.98970032  -999.250000  -999.250000 1.0599000454 1.0928000212
 2983.4311523 8.6576004028 8.5000000000 63499.601563 0.0386999995  -999.250000 2.5529999733 6.5429000854 108.36630249  -999.250000  -999.250000 1.0629999638 1.0891000032
 2983.5837402 8.6506996155 8.5000000000 66872.835938 0.0465999991  -999.250000 2.5624001026 6.9274001122 107.05590057  -999.250000  -999.250000 1.0672999620 1.0774999857
 2983.7360840 8.6455001831 8.5000000000 66432.281250 0.0454000011  -999.250000 2.5604000092 6.9039001465 105.99410248  -999.250000  -999.250000 1.0762000084 1.0692000389
 2983.8884277 8.6926002502 8.5000000000 67129.132813 0.0421999991  -999.250000 2.5483999252 6.8385000229 111.20899963  -999.250000  -999.250000 1.0791000128 1.0714000463
 2984.0407715 8.6121997833 8.5000000000 69564.570313 0.0454999991  -999.250000 2.5459001064 6.7382001877 117.21939850  -999.250000  -999.250000 1.0778000355 1.0859999657
 2984.1931152 8.5413999557 8.5000000000 71377.562500 0.0357000008  -999.250000 2.5413999557 6.1009998322 112.69470215  -999.250000  -999.250000 1.0746999979 1.0722999573
 2984.3457031 8.5622997284 8.5000000000 71907.875000 0.0339000002  -999.250000 2.5406000614 6.1122999191 109.39669800  -999.250000  -999.250000 1.0778000355 1.0410000086
 2984.4980469 8.5748996735 8.5000000000 71239.367188 0.0331000015  -999.250000 2.5362000465 6.2697000504 111.24859619  -999.250000  -999.250000 1.0714000463 1.0414999723
 2984.6503906 8.5914001465 8.5000000000 69855.117188 0.0359000005  -999.250000 2.5425000191 6.3783001900 108.19969940  -999.250000  -999.250000 1.0759999752 1.0626000166
 2984.8027344 8.5966997147 8.5000000000 69732.281250 0.0326999985  -999.250000 2.5432000160 6.2722001076 109.97270203  -999.250000  -999.250000 1.0803999901 1.0762000084
 2984.9553223 8.6559000015 8.5000000000 71451.968750 0.0399999991  -999.250000 2.5488998890 6.4548001289 113.86660004  -999.250000  -999.250000 1.0819000006 1.0680999756
 2985.1076660 8.6572999954 8.5000000000 71620.867188 0.0436999984  -999.250000 2.5464999676 6.6613001823 114.89929962  -999.250000  -999.250000 1.0891000032 1.0664999485
 2985.2600098 8.6696996689 8.5000000000 72126.375000 0.0436999984  -999.250000 2.5432999134 6.7406997681 111.35610199  -999.250000  -999.250000 1.0887000561 1.0742000341
 2985.4123535 8.6486997604 8.5000000000 72433.468750 0.0469000004  -999.250000 2.5552999973 6.9141998291 111.16449738  -999.250000  -999.250000 1.0916999578 1.0799000263
 2985.5649414 8.6288003922 8.5000000000 72012.992188 0.0461000018  -999.250000 2.5550000668 6.8232002258 110.73280334  -999.250000  -999.250000 1.0867999792 1.0827000141
