# LAS format log file from PETREL
# Project units are specified as depth units
#==================================================================
~Version information
VERS.   2.0:
WRAP.   NO:
#==================================================================
~Well
STRT .m      1845.0031738 :
STOP .m      3450.9943848 :
STEP .m     0.00000000 :
NULL .        -999.250000 :
COMP.           : COMPANY
WELL.  7/4-2 Brynhild Appr   : WELL
FLD.            : FIELD
LOC.            : LOCATION
SRVC.           : SERVICE COMPANY
DATE.  2018-09-11 21:49:22   : Log Export Date {yyyy-MM-dd HH:mm:ss}
PROV.           : PROVINCE
UWI.   7/4-2   : UNIQUE WELL ID
API.            : API NUMBER
#==================================================================
~Curve
DEPT .m                   : DEPTH
CALI .in                  : CALI
BS .in                    : BS
DRHO .g/cm3               : DRHO
THOR .ppm                 : THOR
NPHI .m3/m3               : NPHI
RHOB .g/cm3               : RHOB
PEF .b/e                  : PEF
GR .gAPI                  : GR
URAN .ppm                 : URAN
DTC .us/ft                : DTC
DTS .us/ft                : DTS
RDEP .ohm.m               : RDEP
RMED .ohm.m               : RMED
~Parameter
#==================================================================
~Ascii
# ...
 2582.6193848 12.443799973 12.250000954 0.0483999997  -999.250000 0.3328057826 2.3840000629 9.6143884659 69.524497986  -999.250000 117.45626831 218.66270447 0.6140000224 0.6115999818
 2582.7717285 12.373100281 12.250000954 0.0494000018  -999.250000 0.3364046514 2.3863000870 9.4596643448 74.536300659  -999.250000 117.87071228 219.87210083 0.6201999784 0.6155999899
 2582.9240723 12.302399635 12.250000954 0.0438000001  -999.250000 0.3392931223 2.3875000477 9.2829046249 75.956802368  -999.250000 118.69022369 222.23858643 0.6209999919 0.6258999705
 2583.0764160 12.302399635 12.250000954 0.0353999995  -999.250000 0.3349985778 2.3840000629 8.7306289673 72.104103088  -999.250000 119.45246124 224.23532104 0.6116999984 0.6054000258
 2583.2290039 12.302399635 12.250000954 0.0324999988  -999.250000 0.3340955377 2.3817000389 9.1017560959 73.120101929  -999.250000 119.80622864 224.92160034 0.6036999822 0.5763999820
 2583.3813477 12.302399635 12.250000954 0.0255999994  -999.250000 0.3326967955 2.3710000515 8.7409324646 75.775299072  -999.250000 120.28148651 223.79640198 0.6069999933 0.5838999748
 2583.5336914 12.302399635 12.250000954 0.0234999992  -999.250000 0.3307046592 2.3636999130 8.3369026184 77.067497253  -999.250000 120.52516937 223.46511841 0.6140000224 0.6129999757
 2583.6860352 12.302399635 12.250000954 0.0253999997  -999.250000 0.3336099386 2.3541998863 9.0043478012 75.977600098  -999.250000 121.06782532 225.38160706 0.6227999926 0.6272000074
 2583.8386230 12.302399635 12.250000954 0.0271000005  -999.250000 0.3398406506 2.3536000252 8.7266006470 75.287399292  -999.250000 121.32843018 226.18841553 0.6202999949 0.6179000139
 2583.9909668 12.302399635 12.250000954 0.0307000000  -999.250000 0.3525049686 2.3647000790 8.7393274307 78.460296631  -999.250000 121.64904785 225.18710327 0.6173999906 0.6086000204
 2584.1433105 12.302399635 12.250000954 0.0339000002  -999.250000 0.3556004763 2.3761000633 8.0615072250 77.443298340  -999.250000 121.80070496 224.79650879 0.6165000200 0.5996000171
 2584.2956543 12.302399635 12.250000954 0.0362000018  -999.250000 0.3559030294 2.3931000233 8.5368499756 73.158096313  -999.250000 121.80940247 227.72007751 0.6172000170 0.6058999896
 2584.4482422 12.302399635 12.250000954 0.0333000049  -999.250000 0.3578214347 2.3921000957 7.7774839401 75.037101746  -999.250000 121.80991364 229.15441895 0.6200000048 0.6130999923
 2584.6005859 12.302399635 12.250000954 0.0296000000  -999.250000 0.3645216227 2.3880000114 7.1958708763 74.654602051  -999.250000 121.28298187 225.06419373 0.6136999726 0.6082000136
 2584.7529297 12.302399635 12.250000954 0.0329999998  -999.250000 0.3780363798 2.3947000504 8.3123512268 73.430999756  -999.250000 121.01764679 223.01910400 0.6082999706 0.5760999918
 2584.9052734 12.302399635 12.250000954 0.0460000001  -999.250000 0.4006860554 2.4328000546 8.0449533463 66.646697998  -999.250000 120.04651642 226.02900696 0.6044999957 0.5691999793
 2585.0576172 12.302399635 12.250000954 0.0483999997  -999.250000 0.3919655383 2.4530000687 9.6694459915 66.311599731  -999.250000 119.55548859 227.60650635 0.6133000255 0.5949000120
 2585.2102051 12.302399635 12.250000954 0.0333999991  -999.250000 0.3704683185 2.4460999966 10.382962227 65.419601440  -999.250000 118.79269409 227.88427734 0.6328999996 0.6424999833
 2585.3625488 12.302399635 12.250000954 0.0265999995  -999.250000 0.3605836630 2.4279999733 9.0874776840 67.720100403  -999.250000 118.41640472 227.95689392 0.6328999996 0.6543999910
 2585.5148926 12.302399635 12.250000954 0.0282000005  -999.250000 0.3503982425 2.4112000465 9.0314388275 73.889198303  -999.250000 117.72965240 229.13429260 0.6334000230 0.6164000034
 2585.6672363 12.302399635 12.250000954 0.0303000007  -999.250000 0.3492926359 2.4084999561 9.5802116394 72.437797546  -999.250000 117.38953400 229.76069641 0.6316999793 0.6244000196
 2585.8198242 12.302399635 12.250000954 0.0370999984  -999.250000 0.3446964920 2.4126999378 8.8520565033 71.904098511  -999.250000 117.78260040 227.23229980 0.6187000275 0.6532999873
 2585.9721680 12.302399635 12.250000954 0.0397000015  -999.250000 0.3435974419 2.4212999344 8.9679241180 75.516601563  -999.250000 118.03292084 225.77650452 0.6130999923 0.6255999804
 2586.1242676 12.302399635 12.250000954 0.0360059291  -999.250000 0.3420000076 2.4230971336 8.4517784119 86.787307739  -999.250000 118.16870117 222.39752197 0.5977246761 0.5546139479
 2586.2766113 12.302399635 12.250000954 0.0364991985  -999.250000 0.3300999999 2.3985393047 8.7260999680 85.330368042  -999.250000 118.37319946 219.47047424 0.5880155563 0.5689767599
 2586.4289551 12.302399635 12.250000954 0.0402878411  -999.250000 0.3260000050 2.3900272846 8.0768251419 87.759094238  -999.250000 118.57910156 218.46760559 0.5915884972 0.5775724649
 2586.5815430 12.302399635 12.250000954 0.0450923070  -999.250000 0.3219999969 2.3886022568 8.4230842590 85.086204529  -999.250000 118.84819794 217.07812500 0.5966918468 0.5791974664
 2586.7338867 12.302399635 12.250000954 0.0459985584  -999.250000 0.3246000111 2.3902974129 8.2956562042 86.548942566  -999.250000 118.84169769 216.98884583 0.5954020619 0.5806975961
 2586.8862305 12.302399635 12.250000954 0.0471980795  -999.250000 0.3521000147 2.3951921463 8.3322219849 87.499671936  -999.250000 118.81250000 217.94099426 0.5973967910 0.5666226149
 2587.0385742 12.302399635 12.250000954 0.0463014431  -999.250000 0.3688000143 2.4006912708 8.3687715530 87.953575134  -999.250000 118.77980042 219.66084290 0.5983983874 0.5695951581
 2587.1909180 12.302399635 12.250000954 0.0412163213  -999.250000 0.3546000123 2.3957159519 8.4022417068 88.622154236  -999.250000 118.67230225 223.15429688 0.6063744426 0.5831564665
 2587.3435059 12.302399635 12.250000954 0.0382048078  -999.250000 0.3440999985 2.3907082081 7.9476037025 89.336753845  -999.250000 118.56649780 224.98716736 0.6133887768 0.6033676267
 2587.4958496 12.302399635 12.250000954 0.0343062505  -999.250000 0.3463999927 2.3800172806 7.9713363647 83.517044067  -999.250000 118.25450134 228.40283203 0.6349653602 0.6205724478
 2587.6481934 12.302399635 12.250000954 0.0342001617  -999.250000 0.3574999869 2.3762061596 8.1028308868 74.910804749  -999.250000 117.95839691 229.79377747 0.6333027482 0.6191023588
 2587.8005371 12.302399635 12.250000954 0.0355955176  -999.250000 0.3594999909 2.3728110790 8.3389520645 80.886970520  -999.250000 117.07820129 232.03271484 0.6332002878 0.6221901178
 2587.9531250 12.302399635 12.250000954 0.0366982371  -999.250000 0.3452000022 2.3740978241 9.3781738281 80.903900146  -999.250000 116.18229675 232.31965637 0.6282079816 0.6129149199
 2588.1054688 12.302399635 12.250000954 0.0405937508  -999.250000 0.3325999975 2.3827862740 9.3199434280 81.386329651  -999.250000 114.04869843 232.80932617 0.6225091219 0.6145972610
 2588.2578125 12.302399635 12.250000954 0.0426966362  -999.250000 0.3366000056 2.3904876709 9.7178516388 81.232643127  -999.250000 112.36080170 232.92681885 0.6221006513 0.6175951958
 2588.4101563 12.302399635 12.250000954 0.0424009599  -999.250000 0.3472000062 2.4125292301 9.5414428711 82.970726013  -999.250000 109.03559875 233.16693115 0.6221997142 0.6153073311
 2588.5627441 12.302399635 12.250000954 0.0401036851  -999.250000 0.3443000019 2.4232828617 8.9999275208 85.576728821  -999.250000 107.47930145 233.30218506 0.6210018992 0.6057153940
 2588.7150879 12.302399635 12.250000954 0.0372046493  -999.250000 0.3185999990 2.4375770092 9.1104536057 85.487854004  -999.250000 104.77010345 232.99919128 0.6257923245 0.6057000160
 2588.8674316 12.260001183 12.250000954 0.0378988795  -999.250000 0.2976999879 2.4472844601 9.2068157196 87.965423584  -999.250000 104.41380310 231.42912292 0.6309916377 0.6195777059
 2589.0197754 12.330699921 12.250000954 0.0452881418  -999.250000 0.2709000111 2.5066049099 9.3564786911 86.296882629  -999.250000 104.08229828 228.38438416 0.6337955594 0.6328786612
 2589.1721191 12.330699921 12.250000954 0.0467952006  -999.250000 0.2768000066 2.5455756187 9.5025873184 86.727111816  -999.250000 105.04969788 227.14865112 0.6339993477 0.6221345663
