# LAS format log file from PETREL
# Project units are specified as depth units
#==================================================================
~Version information
VERS.   2.0:
WRAP.   NO:
#==================================================================
~Well
STRT .m      871.77679443 :
STOP .m      3117.6955566 :
STEP .m     0.00000000 :
NULL .        -999.250000 :
COMP.           : COMPANY
WELL.  7/4-1   : WELL
FLD.            : FIELD
LOC.            : LOCATION
SRVC.           : SERVICE COMPANY
DATE.  2018-09-11 21:49:21   : Log Export Date {yyyy-MM-dd HH:mm:ss}
PROV.           : PROVINCE
UWI.   7/4-1   : UNIQUE WELL ID
API.            : API NUMBER
#==================================================================
~Curve
DEPT .m                   : DEPTH
DCAL .in                  : DCAL
CALI .in                  : CALI
NPHI .m3/m3               : NPHI
RHOB .g/cm3               : RHOB
GR .gAPI                  : GR
DTC .us/ft                : DTC
RDEP .ohm.m               : RDEP
SP .mV                    : SP
RMED .ohm.m               : RMED
~Parameter
#==================================================================
~Ascii
 871.77679443 16.004899979 16.004899979  -999.250000  -999.250000 98.584503174  -999.250000 0.9179999828 -999.0000000 0.9179955721
 871.92919922 16.087799072 16.087799072  -999.250000  -999.250000 103.15769958  -999.250000 0.9340000153 -999.0000000 0.9339935780
 872.08160400 16.443000793 16.443000793  -999.250000  -999.250000 87.785499573  -999.250000 0.9580000043 -999.0000000 0.9579904079
 872.23394775 17.119899750 17.119899750  -999.250000  -999.250000 79.987297058  -999.250000 0.9539999962 -999.0000000 0.9540032148
 872.38635254 17.933300018 17.933300018  -999.250000  -999.250000 81.049896240  -999.250000 0.9340000153 -999.0000000 0.9340160489
 872.53875732 18.580499649 18.580499649  -999.250000  -999.250000 94.122901917  -999.250000 0.9319999814 -999.0000000 0.9320015907
 872.69116211 18.870800018 18.870800018  -999.250000  -999.250000 91.733100891  -999.250000 0.9169999957 -999.0000000 0.9170060158
 872.84356689 18.937599182 18.937599182  -999.250000  -999.250000 93.761001587  -999.250000 0.9160000086 -999.0000000 0.9160004258
 872.99597168 18.938499451 18.938499451  -999.250000  -999.250000 83.647003174  -999.250000 0.9340000153 -999.0000000 0.9339928031
 873.14837646 18.938499451 18.938499451  -999.250000  -999.250000 83.436401367  -999.250000 0.9499999881 -999.0000000 0.9499935508
 873.30078125 18.938499451 18.938499451  -999.250000  -999.250000 88.019500732  -999.250000 0.9490000010 -999.0000000 0.9490004182
 873.45318604 18.938499451 18.938499451  -999.250000  -999.250000 99.733100891  -999.250000 0.9190000296 -999.0000000 0.9190120697
 873.60559082 18.938499451 18.938499451  -999.250000  -999.250000 94.355003357  -999.250000 0.9060000181 -999.0000000 0.9060052037
 873.75799561 18.938499451 18.938499451  -999.250000  -999.250000 96.231697083  -999.250000 0.8970000148 -999.0000000 0.8970035911
 873.91040039 18.938499451 18.938499451  -999.250000  -999.250000 94.407203674  -999.250000 0.8560000062 -999.0000000 0.8560163975
 874.06280518 18.938499451 18.938499451  -999.250000  -999.250000 90.825202942  -999.250000 0.8500000238 -999.0000000 0.8500024080
 874.21514893 18.938499451 18.938499451  -999.250000  -999.250000 90.758003235  -999.250000 0.9060000181 -999.0000000 0.9059551358
 874.36755371 18.938499451 18.938499451  -999.250000  -999.250000 85.350997925  -999.250000 0.9330000281 -999.0000000 0.9329783916
 874.51995850 18.938499451 18.938499451  -999.250000  -999.250000 86.528198242  -999.250000 0.9330000281 -999.0000000 0.9330000281
 874.67236328 18.938499451 18.938499451  -999.250000  -999.250000 89.501899719  -999.250000 0.9330000281 -999.0000000 0.9330000281
 874.82476807 18.938499451 18.938499451  -999.250000  -999.250000 88.827903748  -999.250000 0.9219999909 -999.0000000 0.9220044017
 874.97717285 18.938499451 18.938499451  -999.250000  -999.250000 95.613998413  -999.250000 0.9100000262 -999.0000000 0.9100048542
 875.12957764 18.938499451 18.938499451  -999.250000  -999.250000 90.315902710  -999.250000 0.9539999962 -999.0000000 0.9539823532
 875.28198242 18.938499451 18.938499451  -999.250000  -999.250000 94.963302612  -999.250000 0.9890000224 -999.0000000 0.9889860153
 875.43438721 18.938499451 18.938499451  -999.250000  -999.250000 97.497802734  -999.250000 0.9909999967 -999.0000000 0.9909992218
 875.58679199 18.938499451 18.938499451  -999.250000  -999.250000 95.665100098  -999.250000 0.9900000095 -999.0000000 0.9900004268
 875.73919678 18.938499451 18.938499451  -999.250000  -999.250000 79.153198242  -999.250000 0.9670000076 -999.0000000 0.9670092463
 875.89160156 18.938499451 18.938499451  -999.250000  -999.250000 85.895698547  -999.250000 0.9610000253 -999.0000000 0.9610024095
 876.04400635 18.938499451 18.938499451  -999.250000  -999.250000 73.755500793  -999.250000 0.9610000253 -999.0000000 0.9610000253
 876.19641113 18.938499451 18.938499451  -999.250000  -999.250000 81.749198914  -999.250000 0.9610000253 -999.0000000 0.9610000253
 876.34875488 18.938499451 18.938499451  -999.250000  -999.250000 92.912498474  -999.250000 0.9610000253 -999.0000000 0.9610000253
 876.50115967 18.938499451 18.938499451  -999.250000  -999.250000 96.499603271  -999.250000 0.9610000253 -999.0000000 0.9610000253
 876.65356445 18.938499451 18.938499451  -999.250000  -999.250000 89.106201172  -999.250000 0.9610000253 -999.0000000 0.9610000253
 876.80596924 18.938499451 18.938499451  -999.250000  -999.250000 93.932403564  -999.250000 0.9440000057 -999.0000000 0.9440000057
 876.95837402 18.938499451 18.938499451  -999.250000  -999.250000 91.742202759  -999.250000 0.9330000281 -999.0000000 0.9330000281
 877.11077881 18.938499451 18.938499451  -999.250000  -999.250000 91.114997864  -999.250000 0.9340000153 -999.0000000 0.9340000153
 877.26318359 18.938499451 18.938499451  -999.250000  -999.250000 83.957000732  -999.250000 0.9470000267 -999.0000000 0.9470000267
 877.41558838 18.938499451 18.938499451  -999.250000  -999.250000 84.263000488  -999.250000 0.9599999785 -999.0000000 0.9599999785
 877.56799316 18.938499451 18.938499451  -999.250000  -999.250000 83.554603577  -999.250000 0.9610000253 -999.0000000 0.9610000253
 877.72039795 18.938499451 18.938499451  -999.250000  -999.250000 79.177398682  -999.250000 0.9779999852 -999.0000000 0.9779999852
 877.87280273 18.938499451 18.938499451  -999.250000  -999.250000 82.514198303  -999.250000 0.9909999967 -999.0000000 0.9909999967
 878.02520752 18.938499451 18.938499451  -999.250000  -999.250000 77.408996582  -999.250000 0.9909999967 -999.0000000 0.9909999967
 878.17761230 18.938699722 18.938699722  -999.250000  -999.250000 83.040100098  -999.250000 0.9629999995 -999.0000000 0.9629999995
 878.32995605 18.941600800 18.941600800  -999.250000  -999.250000 87.032501221  -999.250000 0.9070000052 -999.0000000 0.9070000052
 878.48236084 18.954000473 18.954000473  -999.250000  -999.250000 96.030296326  -999.250000 0.8889999986 -999.0000000 0.8889999986
 878.63476563 18.977100372 18.977100372  -999.250000  -999.250000 91.282096863  -999.250000 0.8920000196 -999.0000000 0.8920000196
 878.78717041 18.998800278 18.998800278  -999.250000  -999.250000 85.333099365  -999.250000 0.8799999952 -999.0000000 0.8799999952
 878.93957520 18.998699188 18.998699188  -999.250000  -999.250000 93.101303101  -999.250000 0.8730000257 -999.0000000 0.8730000257
 879.09197998 18.955099106 18.955099106  -999.250000  -999.250000 98.705802917  -999.250000 0.8550000191 -999.0000000 0.8550000191
 879.24438477 18.881900787 18.881900787  -999.250000  -999.250000 96.909896851  -999.250000 0.8909999728 -999.0000000 0.8909999728
 879.39678955 18.806100845 18.806100845  -999.250000  -999.250000 96.179298401  -999.250000 0.9290000200 -999.0000000 0.9290000200
 879.54919434 18.746000290 18.746000290  -999.250000  -999.250000 92.327697754  -999.250000 0.9330000281 -999.0000000 0.9330000281
 879.70159912 18.705499649 18.705499649  -999.250000  -999.250000 94.095703125  -999.250000 0.9330000281 -999.0000000 0.9330000281
 879.85400391 18.676900864 18.676900864  -999.250000  -999.250000 92.207199097  -999.250000 0.9480000138 -999.0000000 0.9480000138
 880.00640869 18.667600632 18.667600632  -999.250000  -999.250000 95.957801819  -999.250000 0.9380000234 -999.0000000 0.9380000234
 880.15881348 18.679100037 18.679100037  -999.250000  -999.250000 88.104103088  -999.250000 0.9100000262 -999.0000000 0.9100000262
 880.31121826 18.704000473 18.704000473  -999.250000  -999.250000 89.115097046  -999.250000 0.8930000067 -999.0000000 0.8930000067
 880.46356201 18.724399567 18.724399567  -999.250000  -999.250000 91.180801392  -999.250000 0.8799999952 -999.0000000 0.8799999952
 880.61596680 18.732799530 18.732799530  -999.250000  -999.250000 88.318801880  -999.250000 0.8740000129 -999.0000000 0.8740000129
 880.76837158 18.734399796 18.734399796  -999.250000  -999.250000 95.578598022  -999.250000 0.8569999933 -999.0000000 0.8569999933
 880.92077637 18.734399796 18.734399796  -999.250000  -999.250000 92.790000916  -999.250000 0.8740000129 -999.0000000 0.8740000129
 881.07318115 18.734399796 18.734399796  -999.250000  -999.250000 92.703002930  -999.250000 0.8830000162 -999.0000000 0.8830000162
