# LAS format log file from PETREL
# Project units are specified as depth units
#==================================================================
~Version information
VERS.   2.0:
WRAP.   NO:
#==================================================================
~Well
STRT .m      2290.9255371 :
STOP .m      2985.5649414 :
STEP .m     0.00000000 :
NULL .        -999.250000 :
COMP.           : COMPANY
WELL.  7/4-3 Carlsberg   : WELL
FLD.            : FIELD
LOC.            : LOCATION
SRVC.           : SERVICE COMPANY
DATE.  2018-09-11 21:49:22   : Log Export Date {yyyy-MM-dd HH:mm:ss}
PROV.           : PROVINCE
UWI.   7/4-3   : UNIQUE WELL ID
API.            : API NUMBER
#==================================================================
~Curve
DEPT .m                   : DEPTH
CALI .in                  : CALI
BS .in                    : BS
ROP .m/h                  : ROP
DRHO .g/cm3               : DRHO
NPHI .m3/m3               : NPHI
RHOB .g/cm3               : RHOB
PEF .b/e                  : PEF
GR .gAPI                  : GR
DTC .us/ft                : DTC
DTS .us/ft                : DTS
RDEP .ohm.m               : RDEP
RMED .ohm.m               : RMED
~Parameter
#==================================================================
~Ascii
# ...
 2883.4565430 8.5861997604 8.5000000000 53063.386719 0.0346163213 0.2455974370 2.5151095390 6.6303267479 98.903419495 90.544105530 172.13150024 0.9697875381 0.9397028685
 2883.6091309 8.5868997574 8.5000000000 52387.796875 0.0297078528 0.2447014451 2.5045168400 6.1212158203 101.78942108 90.936798096 173.26559448 0.9715971351 0.9390011430
 2883.7614746 8.5954999924 8.5000000000 53020.867188 0.0286017619 0.2447998375 2.4974114895 6.2217373848 101.33943176 91.051704407 173.59609985 0.9683052897 0.9233251810
 2883.9138184 8.6192998886 8.5000000000 52942.917969 0.0332924724 0.2495923042 2.5088815689 6.5537672043 101.68135071 90.762298584 170.95329285 0.9672017694 0.9312871695
 2884.0661621 8.5909004211 8.5000000000 51473.621094 0.0360955112 0.2495999932 2.5168871880 6.6444554329 106.20463562 90.296592712 166.69149780 0.9667007923 0.9642471075
 2884.2187500 8.5727996826 8.5000000000 51966.140625 0.0328052789 0.2387174368 2.5143041611 6.3151278496 102.48027802 89.782394409 166.27549744 0.9682974219 0.9829700589
 2884.3710938 8.5871000290 8.5000000000 53676.378906 0.0371929482 0.2295147330 2.5231857300 6.4604659081 97.444572449 89.388702393 167.33020020 0.9732919931 0.9813027382
 2884.5234375 8.5930004120 8.5000000000 54898.820313 0.0383980796 0.2366884649 2.5226008892 6.4921493530 100.50946045 89.826896667 168.64720154 0.9741985798 0.9641275406
 2884.6757813 8.5522003174 8.5000000000 55607.476563 0.0344064124 0.2389963120 2.5158109665 6.4240098000 98.072502136 90.339508057 168.93370056 0.9817878604 0.9463285804
 2884.8281250 8.5936002731 8.5000000000 54510.234375 0.0294160005 0.2462766320 2.5060315132 6.3473453522 101.67479706 90.598098755 170.45269775 0.9810025692 0.9490910769
 2884.9807129 8.6522998810 8.5000000000 54137.011719 0.0433775634 0.2493950427 2.5199775696 6.8532876968 102.20020294 90.744598389 171.25971985 0.9850934148 0.9612804651
 2885.1330566 8.6478996277 8.5000000000 55320.472656 0.0398057699 0.2423113883 2.5157070160 6.8872466087 100.32980347 90.872390747 170.58020020 0.9859985709 0.9741793275
 2885.2854004 8.6576004028 8.5000000000 55675.984375 0.0388016067 0.2421003282 2.5058159828 6.9298319817 102.26450348 91.107498169 171.18679810 0.9918905497 0.9718039036
 2885.4377441 8.6897001266 8.5000000000 55766.929688 0.0387003198 0.2397076786 2.5035073757 6.7817754745 107.41459656 91.506195068 169.94320679 0.9965849519 0.9618319869
 2885.5903320 8.6879997253 8.5000000000 55397.246094 0.0461879820 0.2368046492 2.5189752579 7.2305788994 104.97010040 91.626304626 168.07209778 1.0014921427 0.9722831845
 2885.7426758 8.7086000443 8.5000000000 54173.621094 0.0452016033 0.2366003245 2.5188002586 7.1994509697 103.08290100 91.486396790 166.55810547 1.0055934191 0.9973597527
 2885.8950195 8.7486000061 8.5000000000 53875.984375 0.0452000014 0.2354019284 2.5143072605 7.0130991936 104.08409882 91.236503601 165.33200073 1.0103923082 1.0109782219
 2886.0473633 8.7465000153 8.5000000000 54338.976563 0.0497852825 0.2285220772 2.5174896717 7.4382343292 100.98950195 90.617996216 163.48820496 1.0187731981 1.0236593485
 2886.1999512 8.7634000778 8.5000000000 55411.421875 0.0474038459 0.2250055969 2.5187978745 7.4344081879 102.58879852 90.179397583 162.79130554 1.0257887840 1.0316871405
 2886.3522949 8.8014001846 8.5000000000 56858.269531 0.0515932702 0.2247004807 2.5193989277 7.6491551399 102.89089966 89.987197876 163.26379395 1.0286953449 1.0291041136
 2886.5046387 8.7735996246 8.5000000000 57073.230469 0.0582892634 0.2262974381 2.5276865959 7.8542714119 107.20359802 89.984199524 164.62748718 1.0285003185 1.0118278265
 2886.6569824 8.7210998535 8.5000000000 55851.964844 0.0473176278 0.2264996767 2.5243055820 7.4277853966 107.57720184 89.986297607 164.25630188 1.0337915421 1.0058096647
 2886.8093262 8.7318000793 8.5000000000 54298.820313 0.0480974391 0.2284936011 2.5225057602 7.4446434975 109.77970123 89.924400330 163.00329590 1.0222370625 1.0216491222
 2886.9619141 8.6831998825 8.5000000000 52816.535156 0.0467022434 0.2323937565 2.5201039314 7.0896697044 104.87629700 89.748199463 162.91960144 1.0205026865 1.0328819752
 2887.1142578 8.6725997925 8.5000000000 51972.046875 0.0413086526 0.2334982455 2.5176041126 6.9407377243 103.35160065 89.478401184 163.52560425 1.0224968195 1.0379917622
 2887.2666016 8.7416000366 8.5000000000 52960.632813 0.0470907055 0.2348977476 2.5221927166 7.3675146103 104.59179688 89.543395996 164.01370239 1.0192052126 1.0318099260
 2887.4189453 8.6652002335 8.5000000000 54042.519531 0.0486948825 0.2305140793 2.5204057693 7.4193358421 104.99800110 89.893402100 164.63439941 1.0204957724 1.0148543119
 2887.5715332 8.6329002380 8.5000000000 54269.292969 0.0430091359 0.2332955152 2.5177042484 7.0637707710 109.14939880 90.385398865 165.82090759 1.0243937969 0.9903392792
 2887.7238770 8.6553001404 8.5000000000 55531.890625 0.0394057706 0.2403886169 2.5174007416 6.8546347618 108.46540070 90.863800049 167.26159668 1.0182099342 0.9742258191
 2887.8762207 8.6919002533 8.5000000000 54173.621094 0.0454902239 0.2420972735 2.5235900879 7.0535798073 103.97270203 91.177803040 167.78709412 1.0125092268 0.9691081643
 2888.0285645 8.6484003067 8.5000000000 52913.386719 0.0468955189 0.2455887944 2.5260918140 7.1268658638 111.85199738 91.208297729 166.46929932 1.0126993656 0.9787689447
 2888.1811523 8.6507997513 8.5000000000 53864.175781 0.0459016003 0.2422054559 2.5281965733 7.0841689110 108.03459930 90.972503662 166.40440369 1.0174922943 1.0000659227
 2888.3334961 8.6023998260 8.5000000000 54648.425781 0.0418065712 0.2437974364 2.5231080055 6.8703432083 108.93620300 90.813896179 166.18121338 1.0182987452 1.0052917004
 2888.4858398 8.5648002625 8.5000000000 55706.691406 0.0333136283 0.2401059270 2.5132160187 6.6098175049 107.53440094 90.780799866 166.60580444 1.0183998346 0.9919214845
 2888.6381836 8.5817003250 8.5000000000 55868.503906 0.0314030424 0.2373044789 2.5052127838 6.6605181694 113.71949768 90.626808167 167.72610474 1.0195981264 0.9856100678
 2888.7905273 8.6029996872 8.5000000000 55157.480469 0.0344900787 0.2341102362 2.5073928833 6.7717432976 110.69740295 90.296798706 166.99249268 1.0179054737 0.9980599880
 2888.9431152 8.6371002197 8.5000000000 54887.007813 0.0391924679 0.2428859025 2.5122921467 6.8618559837 107.84490204 89.922393799 165.03201294 1.0158033371 1.0038907528
 2889.0954590 8.6701002121 8.5000000000 54523.230469 0.0422950312 0.2442977428 2.5182905197 7.0526938438 109.52429962 89.824592590 164.51489258 1.0148015022 1.0017036200
 2889.2478027 8.7285995483 8.5000000000 53694.097656 0.0457943901 0.2418040037 2.5201969147 7.2298164368 109.21240234 89.857910156 164.29020691 1.0168966055 1.0069915056
 2889.4001465 8.7798004150 8.5000000000 53613.777344 0.0492888018 0.2470830381 2.5190038681 7.4334473610 107.19490051 89.936096191 164.21290588 1.0197906494 1.0103892088
 2889.5527344 8.7489004135 8.5000000000 54452.363281 0.0527943894 0.2450033724 2.5252900124 7.5019907951 109.04029846 89.919799805 164.51319885 1.0197999477 1.0091019869
 2889.7050781 8.7108001709 8.5000000000 54929.527344 0.0484070517 0.2422044873 2.5178120136 7.2423167229 108.24510193 89.848808289 165.75079346 1.0179030895 1.0087006092
 2889.8574219 8.7109003067 8.5000000000 55400.789063 0.0458041653 0.2367088199 2.5103118420 7.1627273560 108.63849640 89.959701538 166.84680176 1.0201963186 1.0073022842
 2890.0097656 8.7298002243 8.5000000000 57173.625000 0.0471955203 0.2358028740 2.5160813332 7.1399726868 108.01850128 90.497200012 167.18119812 1.0197016001 0.9964348674
 2890.1623535 8.7363004684 8.5000000000 58378.347656 0.0495961569 0.2348016053 2.5175976753 7.2418365479 108.11389923 90.977096558 167.46969604 1.0181026459 0.9945030212
 2890.3146973 8.6877002716 8.5000000000 57889.371094 0.0485017635 0.2299078554 2.5171008110 7.0328354836 104.54810333 91.314399719 168.01339722 1.0157037973 0.9942004681
 2890.4670410 8.6290998459 8.5000000000 57118.109375 0.0404129773 0.2354910225 2.5131063461 6.7153091431 107.18319702 91.590095520 167.74920654 1.0162990093 0.9999907017
 2890.6193848 8.6572999954 8.5000000000 55784.648438 0.0360070504 0.2364983857 2.5075089931 6.5478677750 106.75730133 91.496101379 167.62100220 1.0153015852 1.0045926571
