# LAS format log file from PETREL
# Project units are specified as depth units
#==================================================================
~Version information
VERS.   2.0:
WRAP.   NO:
#==================================================================
~Well
STRT .m      871.77679443 :
STOP .m      3117.6955566 :
STEP .m     0.00000000 :
NULL .        -999.250000 :
COMP.           : COMPANY
WELL.  7/4-1   : WELL
FLD.            : FIELD
LOC.            : LOCATION
SRVC.           : SERVICE COMPANY
DATE.  2018-09-11 21:49:21   : Log Export Date {yyyy-MM-dd HH:mm:ss}
PROV.           : PROVINCE
UWI.   7/4-1   : UNIQUE WELL ID
API.            : API NUMBER
#==================================================================
~Curve
DEPT .m                   : DEPTH
DCAL .in                  : DCAL
CALI .in                  : CALI
NPHI .m3/m3               : NPHI
RHOB .g/cm3               : RHOB
GR .gAPI                  : GR
DTC .us/ft                : DTC
RDEP .ohm.m               : RDEP
SP .mV                    : SP
RMED .ohm.m               : RMED
~Parameter
#==================================================================
~Ascii
# ...
 1174.1384277 18.340200424 18.340200424  -999.250000 1.9183000326 69.195701599 160.79919434 0.8122000098 17.392660141 0.6025000215
 1174.2907715 18.277200699 18.277200699  -999.250000 1.9158999920 68.998298645 160.67221069 0.7997999787 17.094261169 0.6025000215
 1174.4432373 18.183799744 18.183799744  -999.250000 1.9163000584 69.567802429 160.27439880 0.7932000160 15.740284920 0.5990999937
 1174.5955811 18.127599716 18.127599716  -999.250000 1.9139000177 70.052597046 159.64280701 0.8054000139 14.013412476 0.6009984612
 1174.7479248 18.137800217 18.137800217  -999.250000 1.9108999968 70.408500671 158.89250183 0.8294000030 13.573147774 0.6122909188
 1174.9003906 18.176500320 18.176500320  -999.250000 1.9065999985 70.857002258 157.99661255 0.8507000208 14.776885986 0.6338827014
 1175.0527344 18.258899689 18.258899689  -999.250000 1.8983999491 71.314102173 156.93035889 0.8582999706 16.960243225 0.6543835402
 1175.2052002 18.496299744 18.496299744  -999.250000 1.8917000294 71.474296570 155.87409973 0.8504999876 18.693244934 0.6552000046
 1175.3575439 18.775400162 18.775400162  -999.250000 1.8954000473 71.546699524 155.46205139 0.8425999880 19.290460587 0.6315189600
 1175.5100098 18.804800034 18.804800034  -999.250000 1.9081000090 71.645797729 156.55880737 0.8486999869 19.110324860 0.6007999778
 1175.6623535 18.486700058 18.486700058  -999.250000 1.9170999527 71.454299927 159.06828308 0.8698999882 18.131061554 0.6005002260
 1175.8148193 18.038999557 18.038999557  -999.250000 1.9144999981 70.772102356 162.15119934 0.8970000148 16.295106888 0.6468999982
 1175.9671631 17.788000107 17.788000107  -999.250000 1.9062999487 70.317497253 164.24203491 0.9107999802 13.964573860 0.7059526443
 1176.1196289 17.764099121 17.764099121  -999.250000 1.9076999426 71.171501160 164.41220093 0.8996000290 12.205774307 0.7321000099
 1176.2719727 17.753999710 17.753999710  -999.250000 1.9198000431 73.079002380 163.22404480 0.8773999810 11.820689201 0.7124158144
 1176.4244385 17.664100647 17.664100647  -999.250000 1.9256000519 74.518302917 161.77268982 0.8694000244 12.730448723 0.6759999990
 1176.5767822 17.551099777 17.551099777  -999.250000 1.9204000235 74.653297424 160.78939819 0.8913000226 14.174270630 0.6645091772
 1176.7292480 17.515199661 17.515199661  -999.250000 1.9083000422 74.331001282 159.99369812 0.9334999919 15.253544807 0.6837999821
 1176.8815918 17.640399933 17.640399933  -999.250000 1.9018000364 74.885299683 158.71992493 0.9668999910 15.617096901 0.7063818574
 1177.0339355 17.904100418 17.904100418  -999.250000 1.9096000195 76.192497253 156.99707031 0.9717000127 15.344167709 0.7036022544
 1177.1864014 18.243700027 18.243700027  -999.250000 1.9278999567 76.823196411 155.69322205 0.9484999776 14.761218071 0.6697271466
 1177.3387451 18.579799652 18.579799652  -999.250000 1.9386999607 75.955398560 155.51274109 0.9157000184 14.320163727 0.6270341873
 1177.4912109 18.820199966 18.820199966  -999.250000 1.9318000078 73.921203613 156.59039307 0.8891999722 14.346285820 0.5979999900
 1177.6435547 18.915599823 18.915599823  -999.250000 1.9254000187 71.703903198 158.07850647 0.8730000257 15.053729057 0.5863093734
 1177.7960205 18.784099579 18.784099579  -999.250000 1.9227000475 69.986297607 159.10131836 0.8611000180 16.105979919 0.5885000229
 1177.9483643 18.510099411 18.510099411  -999.250000 1.9207999706 68.772300720 159.49009705 0.8460999727 16.980499268 0.5947949290
 1178.1008301 18.302299500 18.302299500  -999.250000 1.9174000025 68.055297852 159.45820618 0.8292000294 17.331525803 0.6006000042
 1178.2531738 18.281900406 18.281900406  -999.250000 1.9110000134 67.773300171 159.36508179 0.8148000240 16.980100632 0.6039972305
 1178.4056396 18.343999863 18.343999863  -999.250000 1.9046000242 68.473999023 159.31990051 0.8068000078 16.475091934 0.6025000215
 1178.5579834 18.306200027 18.306200027  -999.250000 1.9027999640 69.710403442 159.40682983 0.8066999912 16.354576111 0.5966047049
 1178.7104492 18.137199402 18.137199402  -999.250000 1.9076999426 70.521697998 159.61799622 0.8145999908 16.486722946 0.5917000175
 1178.8627930 18.034299850 18.034299850  -999.250000 1.9155999422 70.295402527 159.70243835 0.8246999979 16.336038589 0.5937983394
 1179.0151367 18.135099411 18.135099411  -999.250000 1.9227000475 69.437599182 159.30563354 0.8334000111 15.826393127 0.6023930907
 1179.1676025 18.312999725 18.312999725  -999.250000 1.9263000488 68.982299805 158.38783264 0.8402000070 15.456054688 0.6096941829
 1179.3199463 18.427299500 18.427299500  -999.250000 1.9249999523 69.292602539 157.31935120 0.8453000188 15.515403748 0.6102995276
 1179.4724121 18.490400314 18.490400314  -999.250000 1.9198999405 69.956298828 156.72450256 0.8499000072 15.281689644 0.6054999828
 1179.6247559 18.576900482 18.576900482  -999.250000 1.9148000479 70.649200439 156.87898254 0.8558999896 14.193881035 0.5992050767
 1179.7772217 18.653999329 18.653999329  -999.250000 1.9133000374 71.014099121 157.48260498 0.8657000065 13.249502182 0.5946000218
 1179.9295654 18.608400345 18.608400345  -999.250000 1.9138000011 70.985397339 157.94712830 0.8809000254 13.953166008 0.5949997306
 1180.0820313 18.423099518 18.423099518  -999.250000 1.9153000116 70.719398499 157.86810303 0.8995000124 16.179672241 0.6019999981
 1180.2343750 18.301599503 18.301599503  -999.250000 1.9199999571 70.279098511 157.43820190 0.9107000232 18.424999237 0.6114923954
 1180.3868408 18.529399872 18.529399872  -999.250000 1.9285999537 69.540397644 156.97749329 0.8988999724 19.492746353 0.6154000163
 1180.5391846 19.125299454 19.125299454  -999.250000 1.9348000288 68.737602234 156.56480408 0.8641999960 19.221109390 0.6082999706
 1180.6916504 19.789999008 19.789999008  -999.250000 1.9321999550 68.459098816 156.16671753 0.8235999942 18.156570435 0.5891000032
 1180.8439941 20.135499954 20.135499954  -999.250000 1.9244999886 68.762001038 155.98500061 0.8011999726 16.487659454 0.5691999793
 1180.9963379 19.990802765 19.990802765  -999.250000 1.9127000570 69.045501709 156.49360657 0.8068000078 15.032823563 0.5680000186
 1181.1488037 19.624200821 19.624200821  -999.250000 1.8964999914 69.243499756 157.53739929 0.8202999830 15.077116013 0.5913000107
 1181.3011475 19.274099350 19.274099350  -999.250000 1.8790999651 70.063697815 158.43440247 0.8209000230 16.533365250 0.6326000094
 1181.4536133 18.982900620 18.982900620  -999.250000 1.8732000589 71.228996277 158.51049805 0.8046000004 18.407428741 0.6668000221
 1181.6059570 18.724899292 18.724899292  -999.250000 1.8928999901 71.692703247 157.47680664 0.7773000002 19.269269943 0.6715000272
 1181.7584229 18.600999832 18.600999832  -999.250000 1.9126000404 71.176399231 156.20429993 0.7584999800 18.689971924 0.6500999928
 1181.9107666 18.812099457 18.812099457  -999.250000 1.9185999632 70.501800537 155.72480774 0.7694000006 17.709531784 0.6227999926
 1182.0632324 19.240299225 19.240299225  -999.250000 1.9154000282 70.795501709 156.35159302 0.8105000257 16.964725494 0.6230000257
 1182.2155762 19.520299911 19.520299911  -999.250000 1.9085999727 71.937797546 157.73599243 0.8672000170 16.648715973 0.6622999907
 1182.3680420 19.345199585 19.345199585  -999.250000 1.9054000378 73.021499634 158.91679382 0.9122999907 16.698486328 0.7095999718
 1182.5203857 18.768699646 18.768699646  -999.250000 1.9105000496 73.729400635 159.19979858 0.9291999936 16.631492615 0.7283999920
 1182.6728516 18.245300293 18.245300293  -999.250000 1.9220000505 74.072402954 158.56300354 0.9215999842 16.290462494 0.7092999816
 1182.8251953 18.135599136 18.135599136  -999.250000 1.9344999790 74.053497314 157.53239441 0.9059000015 16.171588898 0.6690999866
 1182.9776611 18.362600327 18.362600327  -999.250000 1.9407999516 74.040901184 156.95559692 0.9006000161 16.774787903 0.6290000081
 1183.1300049 18.584999084 18.584999084  -999.250000 1.9380999804 74.136802673 157.20460510 0.9097999930 18.003061295 0.5986999869
 1183.2823486 18.585800171 18.585800171  -999.250000 1.9280999899 74.175598145 157.88409424 0.9183999896 19.016578674 0.5843999982
 1183.4348145 18.467100143 18.467100143  -999.250000 1.9155999422 74.118103027 158.27870178 0.9083999991 19.197195053 0.5810999870
