# LAS format log file from PETREL
# Project units are specified as depth units
#==================================================================
~Version information
VERS.   2.0:
WRAP.   NO:
#==================================================================
~Well
STRT .m      1845.0031738 :
STOP .m      3450.9943848 :
STEP .m     0.00000000 :
NULL .        -999.250000 :
COMP.           : COMPANY
WELL.  7/4-2 Brynhild Appr   : WELL
FLD.            : FIELD
LOC.            : LOCATION
SRVC.           : SERVICE COMPANY
DATE.  2018-09-11 21:49:22   : Log Export Date {yyyy-MM-dd HH:mm:ss}
PROV.           : PROVINCE
UWI.   7/4-2   : UNIQUE WELL ID
API.            : API NUMBER
#==================================================================
~Curve
DEPT .m                   : DEPTH
CALI .in                  : CALI
BS .in                    : BS
DRHO .g/cm3               : DRHO
THOR .ppm                 : THOR
NPHI .m3/m3               : NPHI
RHOB .g/cm3               : RHOB
PEF .b/e                  : PEF
GR .gAPI                  : GR
URAN .ppm                 : URAN
DTC .us/ft                : DTC
DTS .us/ft                : DTS
RDEP .ohm.m               : RDEP
RMED .ohm.m               : RMED
~Parameter
#==================================================================
~Ascii
# ...
 2274.1616211 12.330699921 12.250000954 0.0463000014  -999.250000 0.4422000051 2.3605000973 11.139798164 75.951797485  -999.250000 137.18190002 365.86511230 0.4194999933 0.4178999960
 2274.3139648 12.302399635 12.250000954 0.0439038426  -999.250000 0.4469999969 2.3686869144 10.883410454 82.743911743  -999.250000 137.09489441 365.45794678 0.4194999933 0.3815000057
 2274.4663086 12.302399635 12.250000954 0.0395070538  -999.250000 0.4408999979 2.3540236950 9.8215751648 81.147476196  -999.250000 137.07220459 365.30944824 0.4063000083 0.3767000139
 2274.6186523 12.302399635 12.250000954 0.0391006395  -999.250000 0.4363000095 2.3322350979 10.574743271 91.662513733  -999.250000 137.24099731 366.01278687 0.4016000032 0.3781999946
 2274.7712402 12.302399635 12.250000954 0.0384999998  -999.250000 0.4334999919 2.3289999962 10.399877548 89.606201172  -999.250000 137.33569336 366.41445923 0.3995000124 0.3810999990
 2274.9235840 12.302399635 12.250000954 0.0331000015  -999.250000 0.4167999923 2.3266000748 8.9706897736 90.434898376  -999.250000 137.47999573 368.30801392 0.3948999941 0.3794000149
 2275.0759277 12.302399635 12.250000954 0.0319019184  -999.250000 0.4275999963 2.3240039349 9.3534173965 85.000015259  -999.250000 137.57420349 369.81488037 0.3847000003 0.3722999990
 2275.2282715 12.302399635 12.250000954 0.0330980793  -999.250000 0.4431000054 2.3229017258 9.7524757385 85.542312622  -999.250000 137.58270264 370.11581421 0.3844999969 0.3740000129
 2275.3808594 12.302399635 12.250000954 0.0373999998  -999.250000 0.4596999884 2.3243999481 9.6918592453 81.719703674  -999.250000 137.44529724 370.42910767 0.3901999891 0.3743999898
 2275.5332031 12.302399635 12.250000954 0.0401999988  -999.250000 0.4578999877 2.3275001049 10.340910912 83.107101440  -999.250000 137.22680664 370.30880737 0.4031000137 0.3781999946
 2275.6855469 12.330699921 12.250000954 0.0440937616  -999.250000 0.4363999963 2.3360862732 10.168098450 79.495689392  -999.250000 136.78579712 370.08114624 0.4210999906 0.3849999905
 2275.8378906 12.317399979 12.250000954 0.0441998392  -999.250000 0.4277000129 2.3397939205 10.327954292 81.495178223  -999.250000 136.56069946 369.98074341 0.4113999903 0.3851000071
 2275.9902344 12.330699921 12.250000954 0.0407056101  -999.250000 0.4181999862 2.3413972855 9.4053249359 87.027824402  -999.250000 135.97459412 370.10919189 0.3934000134 0.3876000047
 2276.1428223 12.330699921 12.250000954 0.0392000005  -999.250000 0.4198000133 2.3405001163 9.7573480606 88.160301208  -999.250000 135.51690674 370.57321167 0.3901999891 0.3883999884
 2276.2951660 12.302399635 12.250000954 0.0435929596  -999.250000 0.4287999868 2.3574728966 10.248479843 85.269729614  -999.250000 134.78390503 371.98837280 0.3894000053 0.3862000108
 2276.4475098 12.330699921 12.250000954 0.0471942313  -999.250000 0.4334999919 2.3792650700 9.7038822174 85.028182983  -999.250000 134.66650391 373.36541748 0.3943000138 0.3826999962
 2276.5998535 12.302399635 12.250000954 0.0412096158  -999.250000 0.4560999870 2.4090523720 9.6739997864 83.541587830  -999.250000 134.57870483 373.99713135 0.4210999906 0.4386999905
 2276.7524414 12.302399635 12.250000954 0.0310999993  -999.250000 0.4736999869 2.3968000412 10.235434532 85.520301819  -999.250000 134.76269531 371.02200317 0.4280999899 0.4663999975
 2276.9047852 12.302399635 12.250000954 0.0209999997  -999.250000 0.4914999902 2.3436000347 9.3503751755 86.071701050  -999.250000 135.23970032 365.79324341 0.4438000023 0.4120000005
 2277.0571289 12.330699921 12.250000954 0.0233961586  -999.250000 0.4846999943 2.3310203552 9.4637613297 87.811416626  -999.250000 135.67100525 364.46374512 0.4129999876 0.3883000016
 2277.2094727 12.302399635 12.250000954 0.0248975959  -999.250000 0.4735000134 2.3305006027 8.6400938034 92.540916443  -999.250000 136.53410339 362.04818726 0.3950000107 0.3806999922
 2277.3620605 12.302399635 12.250000954 0.0230999999  -999.250000 0.4607999921 2.3301999569 8.7438716888 89.254501343  -999.250000 136.96640015 361.34210205 0.3953999877 0.3817000091
 2277.5144043 12.330699921 12.250000954 0.0187999997  -999.250000 0.4449999928 2.3206999302 8.2804231644 88.147796631  -999.250000 137.60719299 360.84548950 0.4092999995 0.3831999898
 2277.6667480 12.330699921 12.250000954 0.0175020806  -999.250000 0.4560999870 2.3134117126 8.3041563034 85.532691956  -999.250000 137.38960266 362.77770996 0.4379000068 0.3899999857
 2277.8190918 12.330699921 12.250000954 0.0203953534  -999.250000 0.5019999743 2.3072099686 8.9733638763 86.515213013  -999.250000 136.93820190 366.63641357 0.4948999882 0.4422999918
 2277.9716797 12.330699921 12.250000954 0.0252000000  -999.250000 0.5243999958 2.3125998974 9.2128305435 88.135200500  -999.250000 136.66670227 368.54470825 0.4647000134 0.4293999970
 2278.1240234 12.302399635 12.250000954 0.0359999985  -999.250000 0.5286999941 2.3322000504 9.5545854568 84.659202576  -999.250000 136.10670471 371.57550049 0.4255000055 0.3925999999
 2278.2763672 12.302399635 12.250000954 0.0382963195  -999.250000 0.4848000109 2.3431823254 9.2534427643 88.874649048  -999.250000 135.42630005 369.14907837 0.3923000097 0.3817000091
 2278.4287109 12.302399635 12.250000954 0.0363032036  -999.250000 0.4717999995 2.3439989090 9.5825204849 92.990699768  -999.250000 135.13740540 367.79556274 0.3975999951 0.3822000027
 2278.5810547 12.302399635 12.250000954 0.0317073725  -999.250000 0.4611999989 2.3426022530 9.3453416824 95.653434753  -999.250000 134.97019958 364.00387573 0.4041000009 0.3901999891
 2278.7336426 12.302399635 12.250000954 0.0304000005  -999.250000 0.4573999941 2.3413000107 9.2382564545 91.981201172  -999.250000 134.92399597 362.08169556 0.4086000025 0.3993000090
 2278.8859863 12.302399635 12.250000954 0.0304998402  -999.250000 0.4589999914 2.3409006596 8.9761028290 90.448860168  -999.250000 135.24830627 358.05276489 0.4104000032 0.3986999989
 2279.0383301 12.302399635 12.250000954 0.0319975987  -999.250000 0.4650999904 2.3435957432 9.4744663239 92.196792603  -999.250000 135.42979431 356.12451172 0.4108000100 0.3977999985
 2279.1906738 12.302399635 12.250000954 0.0333977565  -999.250000 0.4882999957 2.3475935459 9.6459026337 96.369010925  -999.250000 136.12680054 353.87847900 0.4129999876 0.4061999917
 2279.3432617 12.302399635 12.250000954 0.0322000012  -999.250000 0.4932999909 2.3452000618 9.4307069778 91.709297180  -999.250000 136.50320435 352.94869995 0.4133000076 0.4138000011
 2279.4956055 12.302399635 12.250000954 0.0366000012  -999.250000 0.4607999921 2.3591001034 9.3924388885 89.720397949  -999.250000 138.19869995 357.72671509 0.4063999951 0.4023999870
 2279.6479492 12.330699921 12.250000954 0.0409929603  -999.250000 0.4372000098 2.3792676926 9.6503896713 92.080413818  -999.250000 139.04240417 360.10189819 0.4032999873 0.3860000074
 2279.8002930 12.302399635 12.250000954 0.0316150635  -999.250000 0.4260999858 2.3891839981 10.108715057 86.219215393  -999.250000 139.69219971 362.24545288 0.3973999918 0.4208000004
 2279.9528809 12.302399635 12.250000954 0.0209999997  -999.250000 0.4275000095 2.3699998856 9.7278089523 86.603401184  -999.250000 140.01710510 363.32049561 0.3946000040 0.4246000051
 2280.1052246 12.302399635 12.250000954 0.0186000001  -999.250000 0.4372000098 2.3326001167 9.8574638367 78.510398865  -999.250000 140.36480713 371.72619629 0.4000999928 0.3894000053
 2280.2575684 12.330699921 12.250000954 0.0251894407  -999.250000 0.4515999854 2.3259108067 9.7850818634 80.933616638  -999.250000 140.53570557 375.98654175 0.3968999982 0.3864000142
 2280.4099121 12.302399635 12.250000954 0.0296927877  -999.250000 0.4756999910 2.3172137737 10.129449844 85.100914001  -999.250000 139.35890198 374.98339844 0.3950000107 0.3916999996
 2280.5622559 12.302399635 12.250000954 0.0283022448  -999.250000 0.4699000120 2.3121080399 9.3055295944 86.157714844  -999.250000 138.73550415 374.25726318 0.3874999881 0.3790000081
 2280.7148438 12.316499710 12.250000954 0.0263999999  -999.250000 0.4347999990 2.3087000847 9.2181034088 84.474800110  -999.250000 138.56149292 375.10058594 0.3781999946 0.3616000116
