# LAS format log file from PETREL
# Project units are specified as depth units
#==================================================================
~Version information
VERS.   2.0:
WRAP.   NO:
#==================================================================
~Well
STRT .m      2290.9255371 :
STOP .m      2985.5649414 :
STEP .m     0.00000000 :
NULL .        -999.250000 :
COMP.           : COMPANY
WELL.  7/4-3 Carlsberg   : WELL
FLD.            : FIELD
LOC.            : LOCATION
SRVC.           : SERVICE COMPANY
DATE.  2018-09-11 21:49:22   : Log Export Date {yyyy-MM-dd HH:mm:ss}
PROV.           : PROVINCE
UWI.   7/4-3   : UNIQUE WELL ID
API.            : API NUMBER
#==================================================================
~Curve
DEPT .m                   : DEPTH
CALI .in                  : CALI
BS .in                    : BS
ROP .m/h                  : ROP
DRHO .g/cm3               : DRHO
NPHI .m3/m3               : NPHI
RHOB .g/cm3               : RHOB
PEF .b/e                  : PEF
GR .gAPI                  : GR
DTC .us/ft                : DTC
DTS .us/ft                : DTS
RDEP .ohm.m               : RDEP
RMED .ohm.m               : RMED
~Parameter
#==================================================================
~Ascii
# ...
 2700.5769043 8.7946996689 8.5000000000 19611.025391 0.0513999984 0.3068999946 2.4872999191 7.9503998756 109.92400360 108.07520294 211.36529541 0.6830999851 0.6675999761
 2700.7292480 8.7903003693 8.5000000000 17534.644531 0.0494999997 0.3012000024 2.4763000011 7.7266998291 109.38459778 107.53420258 207.25939941 0.6850000024 0.6334000230
 2700.8815918 8.7870998383 8.5000000000 15640.157227 0.0489999987 0.3093000054 2.4695000648 7.6923999786 109.56559753 107.14969635 207.16329956 0.6848999858 0.6126000285
 2701.0341797 8.7446002960 8.5000000000 14893.701172 0.0527999997 0.3012999892 2.4874999523 7.8973999023 110.96089935 106.84609985 212.00579834 0.6822999716 0.6273000240
 2701.1865234 8.8135004044 8.5000000000 16870.867188 0.0456000008 0.2935999930 2.4762001038 7.5555000305 114.20899963 106.48300171 215.16859436 0.6807000041 0.6549999714
 2701.3388672 8.8519001007 8.5000000000 22725.589844 0.0493000001 0.2888999879 2.4649000168 7.3575000763 117.11389923 105.89230347 217.78778076 0.6814000010 0.6722000241
 2701.4912109 8.8413000107 8.5000000000 24297.638672 0.0505000018 0.2969999909 2.4572000504 7.5071001053 121.34519958 105.04530334 217.42269897 0.6840999722 0.6944000125
 2701.6435547 8.8079996109 8.5000000000 19769.291016 0.0518000014 0.2820999920 2.4563999176 7.5096998215 122.48609924 104.01280212 214.01820374 0.6906999946 0.7098000050
 2701.7961426 8.7881002426 8.5000000000 16087.794922 0.0461000018 0.2795000076 2.4474999905 7.0662999153 117.40599823 103.27490234 211.66641235 0.6923000216 0.7017999887
 2701.9484863 8.8166999817 8.5000000000 13629.921875 0.0498000011 0.2763000131 2.4676001072 7.8344001770 112.20320129 103.23680115 209.53900146 0.6930999756 0.7117999792
 2702.1008301 8.9075002670 8.5000000000 10474.015625 0.0549000017 0.2685999870 2.4744000435 8.2952003479 107.07530212 104.08360291 214.31358337 0.6919000149 0.7530000210
 2702.2531738 9.0025997162 8.5000000000 10179.920898 0.0593000017 0.2658999860 2.4604001045 8.0784997940 106.30889893 105.67240143 220.53840637 0.6905999780 0.7912999988
 2702.4052734 9.0334997177 8.5000000000 15800.460938 0.0667760000 0.2607166171 2.4682748318 8.7065839767 102.15005493 107.47062683 226.13781738 0.6850179434 0.7843224406
 2702.5578613 9.1136999130 8.5000000000 17594.394531 0.0747871771 0.2523134649 2.4812793732 9.3329973221 104.09864807 108.79059601 231.54594421 0.6816053987 0.7603384256
 2702.7102051 9.1156997681 8.5000000000 19022.908203 0.0755987167 0.2540971041 2.4666235447 9.3921070099 106.39711761 109.02333069 229.78593445 0.6798028350 0.7288504839
 2702.8625488 9.0822000504 8.5000000000 19038.167969 0.0731040090 0.2600903809 2.4547190666 9.3201150894 111.62661743 108.12204742 225.55688477 0.6757065654 0.6868672967
 2703.0148926 9.0564002991 8.5000000000 18082.203125 0.0692124814 0.2652833760 2.4509122372 9.1569232941 115.23245239 106.64354706 218.27734375 0.6819798350 0.6565969586
 2703.1674805 8.8905000687 8.5000000000 16785.541016 0.0659052879 0.2734868526 2.4427130222 8.6442222595 114.50308990 104.95760345 209.89022827 0.6946796775 0.6497108936
 2703.3198242 8.7819995880 8.5000000000 15124.317383 0.0492267609 0.2727012932 2.4260268211 7.6519913673 117.38107300 103.32750702 206.27348328 0.7032862306 0.6502990723
 2703.4721680 8.7630996704 8.5000000000 14420.024414 0.0434092954 0.2723006606 2.4214074612 7.3574700356 117.06761169 102.27687836 207.34886169 0.7105883360 0.6507992148
 2703.6245117 8.8920001984 8.5000000000 14588.704102 0.0456963144 0.2626155615 2.4211003780 7.5562801361 112.92175293 101.68604279 207.57653809 0.7191862464 0.6571897268
 2703.7768555 8.8534002304 8.5000000000 15314.208008 0.0525779203 0.2518345714 2.4385440350 7.8154687881 107.27560425 101.32086182 206.63691711 0.7363449931 0.7009595037
 2703.9294434 8.8782997131 8.5000000000 17120.726563 0.0531990379 0.2366243601 2.4483842850 7.8592309952 101.54886627 100.94709778 206.72494507 0.7537720799 0.7696899176
 2704.0817871 8.7677001953 8.5000000000 18625.935547 0.0567942299 0.2321072072 2.4722616673 7.7646522522 102.05976868 100.56751251 201.92300415 0.7647823691 0.8086376786
 2704.2341309 8.7293996811 8.5000000000 19341.769531 0.0456179492 0.2329985499 2.4845802784 7.3117265701 95.550254822 100.44989014 199.42410278 0.7744844556 0.8206807375
 2704.3864746 8.6891002655 8.5000000000 19331.140625 0.0458990373 0.2293118536 2.4855968952 7.2158055305 92.024085999 100.25343323 196.99168396 0.7870597243 0.8169121742
 2704.5390625 8.6915998459 8.5000000000 18833.474609 0.0343185887 0.2316961586 2.4611394405 6.5820164680 95.173629761 100.63149261 199.39283752 0.7907940745 0.8073153496
 2704.6914063 8.7285003662 8.5000000000 18621.597656 0.0423870198 0.2317000031 2.4749777317 7.0861887932 95.179199219 101.36592865 203.38230896 0.7885037065 0.8022081852
 2704.8437500 8.7812995911 8.5000000000 18806.396484 0.0489894226 0.2326983958 2.4854831696 7.4292507172 97.842330933 102.25238037 208.10813904 0.7757204771 0.8177750111
 2704.9960938 8.7073001862 8.5000000000 18997.421875 0.0509935990 0.2329990417 2.4955675602 7.5352616310 95.896858215 103.88935089 213.33155823 0.7652336359 0.8338484764
 2705.1486816 8.8179998398 8.5000000000 19534.572266 0.0452092960 0.2447810918 2.4919059277 7.0460858345 96.219871521 105.25221252 219.02468872 0.7618054152 0.8504734039
 2705.3010254 8.8156995773 8.5000000000 20266.541016 0.0563820526 0.2457983941 2.5061774254 7.9836935997 96.214805603 105.65914917 225.70050049 0.7603023648 0.8572890759
 2705.4533691 8.8043003082 8.5000000000 20185.171875 0.0551020838 0.2542863786 2.4983127117 8.2598590851 100.47686005 105.14991760 227.13641357 0.7579038739 0.8345365524
 2705.6057129 8.8926000595 8.5000000000 19019.980469 0.0509067327 0.2698749900 2.4790310860 7.9127578735 101.58753204 103.94004059 222.56733704 0.7545053959 0.7992565632
 2705.7580566 8.9191999435 8.5000000000 17600.615234 0.0576782413 0.2618259192 2.4532825947 7.9954328537 103.55728149 102.53022766 216.06764221 0.7580884695 0.7556398511
 2705.9106445 8.8515996933 8.5000000000 17172.728516 0.0559028834 0.2601027191 2.4422175884 7.7622747421 106.97373199 100.84190369 210.23892212 0.7686830163 0.7156639695
 2706.0629883 8.7159004211 8.5000000000 18075.322266 0.0515070520 0.2524123490 2.4455945492 7.4188508987 114.88680267 99.109375000 202.17822266 0.7769867182 0.7295776010
 2706.2153320 8.7887001038 8.5000000000 25081.277344 0.0426142626 0.2407187521 2.4361152649 6.7779278755 108.09751892 97.855415344 194.99800110 0.7922754884 0.7290009260
 2706.3676758 8.6765003204 8.5000000000 34909.039063 0.0570536032 0.2117928118 2.4837470055 7.8938140869 85.774726868 97.558242798 193.04692078 0.8023676872 0.7692707181
 2706.5202637 8.7433996201 8.5000000000 31947.718750 0.0450193919 0.2043118626 2.5031690598 7.7175884247 78.219116211 98.469734192 197.17456055 0.8118848205 0.8379899263
 2706.6726074 8.7565002441 8.5000000000 28443.019531 0.0487939082 0.2046993524 2.5028007030 7.4416422844 76.805747986 100.05995178 205.35139465 0.8175908923 0.8976045251
 2706.8249512 8.8233995438 8.5000000000 27195.695313 0.0496985577 0.2143844515 2.5008029938 7.6296973228 77.310882568 100.93010712 206.72212219 0.8210943937 0.8954036832
 2706.9772949 8.7157001495 8.5000000000 25451.265625 0.0525907204 0.2148984075 2.5110671520 7.4344282150 79.032279968 101.27280426 202.48402405 0.8287754059 0.8964964747
 2707.1298828 8.6192998886 8.5000000000 25427.982422 0.0460105762 0.2304749936 2.5230805874 7.4661478996 83.836097717 101.41178131 202.24037170 0.8304972649 0.8807253242
 2707.2822266 8.6932001114 8.5000000000 25702.707031 0.0341190696 0.2459751666 2.5042302608 7.0899043083 91.789245605 101.42557526 207.91949463 0.8224129677 0.8412632942
 2707.4345703 8.7592000961 8.5000000000 25717.300781 0.0399905443 0.2552850842 2.4803383350 6.8094491959 96.362777710 101.70655060 207.19827271 0.8110182881 0.7947745323
 2707.5869141 8.7876996994 8.5000000000 25148.943359 0.0443929471 0.2652839720 2.4711148739 7.0775690079 94.330070496 102.31801605 204.41665649 0.8031126261 0.7905067205
 2707.7392578 8.8164997101 8.5000000000 23905.957031 0.0440012813 0.2677920163 2.4649198055 7.3726539612 88.749908447 102.83454132 201.92907715 0.7946271896 0.8186097741
