# LAS format log file from PETREL
# Project units are specified as depth units
#==================================================================
~Version information
VERS.   2.0:
WRAP.   NO:
#==================================================================
~Well
STRT .m      2290.9255371 :
STOP .m      2985.5649414 :
STEP .m     0.00000000 :
NULL .        -999.250000 :
COMP.           : COMPANY
WELL.  7/4-3 Carlsberg   : WELL
FLD.            : FIELD
LOC.            : LOCATION
SRVC.           : SERVICE COMPANY
DATE.  2018-09-11 21:49:22   : Log Export Date {yyyy-MM-dd HH:mm:ss}
PROV.           : PROVINCE
UWI.   7/4-3   : UNIQUE WELL ID
API.            : API NUMBER
#==================================================================
~Curve
DEPT .m                   : DEPTH
CALI .in                  : CALI
BS .in                    : BS
ROP .m/h                  : ROP
DRHO .g/cm3               : DRHO
NPHI .m3/m3               : NPHI
RHOB .g/cm3               : RHOB
PEF .b/e                  : PEF
GR .gAPI                  : GR
DTC .us/ft                : DTC
DTS .us/ft                : DTS
RDEP .ohm.m               : RDEP
RMED .ohm.m               : RMED
~Parameter
#==================================================================
~Ascii
# ...
 2568.9030762 12.141900063 12.250000954 274637.00000 0.0070116990 0.0849017650 2.5298306942 5.5519394875 23.642936707 65.189582825 121.82990265 1.9526177645 1.9008818865
 2569.0554199 12.196000099 12.250000954 274710.25000 0.0156860575 0.0898919925 2.5307984352 5.9888982773 13.027544022 64.798423767 122.27829742 1.8766218424 1.8315112591
 2569.2077637 12.168899536 12.250000954 270829.12500 0.0198932681 0.0889016017 2.5313990116 6.0767602921 22.984090805 64.580848694 122.47010803 1.7542960644 1.6527867317
 2569.3601074 12.184900284 12.250000954 270036.62500 0.0151153607 0.0856105611 2.5131585598 5.7562294006 23.266244888 64.600830078 122.79240417 1.6349824667 1.4870312214
 2569.5126953 12.105900764 12.250000954 272440.18750 0.0199921466 0.0858995169 2.5197892189 6.1267032623 14.190269470 64.743171692 122.69960022 1.7891519070 1.5887358189
 2569.6650391 12.170499802 12.250000954 275702.37500 0.0138099361 0.0793105811 2.5460577011 6.2553944588 26.379510880 64.883476257 123.11389923 2.1407361031 2.0279953480
 2569.8173828 12.138599396 12.250000954 276069.65625 0.0264796466 0.0763048083 2.5849378109 6.5251674652 16.624090195 64.943702698 122.75360107 2.1728494167 2.1697735786
 2569.9697266 12.232701302 12.250000954 272083.46875 0.0153358402 0.0790910348 2.5462243557 6.1437258720 21.388753891 64.511390686 122.98370361 1.9503145218 1.9650579691
 2570.1223145 12.115500450 12.250000954 269147.25000 0.0196929481 0.0841918290 2.5355169773 5.9273452759 23.512714386 64.050140381 122.97219849 1.7125804424 1.6589901447
 2570.2746582 12.055600166 12.250000954 272546.46875 0.0079189101 0.0893916711 2.5300087929 5.2632651329 20.116056442 64.464736938 123.77480316 1.8876184225 1.7333798409
 2570.4270020 12.230400085 12.250000954 276892.90625 0.0152881416 0.0814128220 2.5564575195 5.9440054893 18.139663696 64.940238953 124.65959930 2.3854014874 2.3537046909
 2570.5793457 12.168899536 12.250000954 276700.40625 0.0276801270 0.0729136169 2.5861523151 6.4340152740 23.672914505 65.380401611 124.38219452 2.3574461937 2.3802590370
 2570.7316895 12.246899605 12.250000954 268824.78125 0.0125486404 0.0806750432 2.5490193367 5.5518345833 24.337993622 65.208160400 124.54930115 2.1311264038 2.0722887516
 2570.8842773 12.306699753 12.250000954 260418.90625 0.0241812505 0.0845937505 2.5357213020 6.0954232216 18.698455811 65.023895264 124.12950134 1.8511482477 1.7091813087
 2571.0366211 12.103199959 12.250000954 258682.68750 0.0328860581 0.0886934251 2.5565667152 6.3892297745 22.393953323 65.244552612 123.95760345 1.9734030962 1.7635118961
 2571.1889648 12.027600288 12.250000954 264028.34375 0.0114344554 0.0848062485 2.5690798759 6.1186347008 22.221786499 65.576965332 125.18099976 2.4873752594 2.4155535698
 2571.3413086 12.156599998 12.250000954 268196.46875 0.0071137599 0.0736358389 2.5709939003 5.6460156441 18.676778793 65.556968689 125.39099884 2.4984672070 2.5929338932
 2571.4938965 12.191999435 12.250000954 268322.84375 0.0151870195 0.0750975907 2.5529291630 5.5440611839 12.155649185 65.623489380 125.04149628 2.0535142422 2.0968971252
 2571.6462402 12.054300308 12.250000954 267761.81250 0.0157990381 0.0867812485 2.5276405811 5.5765476227 20.464546204 65.176818848 124.55149841 1.7138440609 1.6618969440
 2571.7985840 12.033200264 12.250000954 268611.03125 0.0052169873 0.0949868560 2.5145208836 5.2931547165 25.229772568 64.754081726 124.16529846 1.5897982121 1.4282737970
 2571.9509277 12.059000969 12.250000954 272793.31250 0.0197532792 0.0952990353 2.5688257217 6.1283173561 21.566184998 64.874107361 124.69779968 2.0652730465 1.9127434492
 2572.1035156 12.050398827 12.250000954 274491.71875 0.0140092950 0.0858152211 2.5743913651 5.8183021545 17.928520203 65.872894287 125.68370056 2.3843903542 2.3477044106
 2572.2558594 12.122899055 12.250000954 270453.53125 0.0052141026 0.0934876651 2.5606222153 5.4101543427 17.109704971 66.428504944 126.64489746 2.1394939423 2.1462244987
 2572.4082031 12.240900040 12.250000954 262857.87500 0.0075961538 0.1009879857 2.5224611759 5.4798870087 19.690355301 66.954750061 127.58769989 1.7652002573 1.7474395037
 2572.5605469 12.241001129 12.250000954 255303.53125 0.0204793271 0.1030966341 2.5157108307 6.0802364349 22.325477600 67.624122620 128.90840149 1.5248848200 1.4654515982
 2572.7128906 12.229998589 12.250000954 256772.84375 0.0268795211 0.1082833633 2.5217804909 6.2746787071 23.486087799 68.045249939 130.03790283 1.5516129732 1.4999877214
 2572.8654785 12.128499985 12.250000954 265860.25000 0.0187131409 0.1046059281 2.5075228214 5.7364649773 28.823738098 69.333534241 131.67329407 1.5465083122 1.4762382507
 2573.0178223 12.150700569 12.250000954 268851.96875 0.0125099365 0.1052988768 2.5001118183 5.5473022461 20.336538315 70.626121521 133.35369873 1.6637119055 1.5210280418
 2573.1701660 12.107899666 12.250000954 260006.70313 0.0180910267 0.1053998396 2.5249602795 5.9133119583 19.812618256 70.913841248 134.20140076 1.9020178318 1.7431435585
 2573.3225098 12.068300247 12.250000954 249981.51563 0.0083313603 0.0998179168 2.5450353622 5.5432896614 18.954551697 70.803558350 135.17070007 1.8467786312 1.7534680367
 2573.4750977 12.155799866 12.250000954 252804.34375 0.0086993594 0.0926115438 2.5360145569 5.5255265236 20.191209793 70.319076538 134.80090332 1.6944442987 1.6298983097
 2573.6274414 12.126799583 12.250000954 261942.51563 0.0115953526 0.0923004821 2.5192270279 5.7906742096 21.892072678 69.733039856 134.40809631 1.6434813738 1.6104308367
 2573.7797852 12.229800224 12.250000954 267503.12500 0.0192876607 0.1001873389 2.5300827026 6.1114859581 22.622032166 69.538009644 134.12280273 1.5895863771 1.5807476044
 2573.9321289 12.094799995 12.250000954 265866.15625 0.0255798399 0.0964121595 2.5452513695 5.9448366165 23.352857590 69.583053589 134.19459534 1.5521200895 1.5330529213
 2574.0847168 12.071700096 12.250000954 258224.40625 0.0060314103 0.0957011282 2.5186426640 5.1483774185 24.906509399 69.807144165 134.72489929 1.4521602392 1.4011116028
 2574.2370605 12.151100159 12.250000954 257069.28125 0.0059001604 0.1052846164 2.4977333546 5.1811451912 21.486793518 70.593643188 135.71470642 1.4952306747 1.3650575876
 2574.3894043 12.211899757 12.250000954 262456.28125 0.0171818919 0.1085947081 2.4949045181 5.7205338478 18.791618347 71.235671997 136.27619934 1.7618721724 1.6317718029
 2574.5417480 12.243099213 12.250000954 263717.71875 0.0256863777 0.1074019223 2.5188615322 6.4961562157 19.920183182 71.412117004 135.76849365 1.8465646505 1.7869515419
 2574.6940918 12.098898888 12.250000954 267357.87500 0.0237064008 0.1066025645 2.5431222916 6.2022476196 19.757328033 70.853996277 134.40490723 1.6533207893 1.6163485050
 2574.8466797 12.183799744 12.250000954 272612.59375 0.0126177883 0.0893277228 2.5282239914 5.4472103119 22.236719131 70.041999817 132.59080505 1.4884635210 1.4282010794
 2574.9990234 12.223300934 12.250000954 273353.12500 0.0093052881 0.0958894193 2.4988472462 5.5492339134 17.823389053 69.283615112 130.68150330 1.5299329758 1.4493654966
 2575.1513672 12.064000130 12.250000954 268570.87500 0.0088008009 0.0974974334 2.5128774643 5.3012981415 22.963638306 68.494064331 129.87770081 1.6388254166 1.5944671631
 2575.3037109 12.041000366 12.250000954 260501.57813 0.0007259200 0.0978987217 2.4954559803 5.3150548935 21.890272141 68.130661011 129.60220337 1.6638203859 1.6437425613
 2575.4562988 12.196800232 12.250000954 258315.35938 0.0109834932 0.0958033651 2.5118734837 5.6126222610 22.045543671 68.150772095 130.34150696 1.5255221128 1.4873512983
 2575.6086426 12.142299652 12.250000954 260886.62500 0.0207842942 0.0959996805 2.5351626873 5.9078269005 21.371782303 68.488456726 131.24139404 1.4324489832 1.3117814064
 2575.7609863 12.092000008 12.250000954 260685.81250 0.0086195515 0.0993945524 2.5042495728 5.3931269646 27.339818954 69.410018921 132.56100464 1.7211364508 1.5826647282
 2575.9133301 12.142999649 12.250000954 261043.70313 0.0100951996 0.1052811220 2.5062932968 5.1761937141 24.794502258 70.317192078 134.24960327 1.9221560955 1.8679853678
 2576.0659180 12.201000214 12.250000954 260200.39063 0.0204833336 0.1056993604 2.5300619602 6.2329030037 22.702045441 70.818099976 134.95530701 1.8216623068 1.8330575228
