# LAS format log file from PETREL
# Project units are specified as depth units
#==================================================================
~Version information
VERS.   2.0:
WRAP.   NO:
#==================================================================
~Well
STRT .m      871.77679443 :
STOP .m      3117.6955566 :
STEP .m     0.00000000 :
NULL .        -999.250000 :
COMP.           : COMPANY
WELL.  7/4-1   : WELL
FLD.            : FIELD
LOC.            : LOCATION
SRVC.           : SERVICE COMPANY
DATE.  2018-09-11 21:49:21   : Log Export Date {yyyy-MM-dd HH:mm:ss}
PROV.           : PROVINCE
UWI.   7/4-1   : UNIQUE WELL ID
API.            : API NUMBER
#==================================================================
~Curve
DEPT .m                   : DEPTH
DCAL .in                  : DCAL
CALI .in                  : CALI
NPHI .m3/m3               : NPHI
RHOB .g/cm3               : RHOB
GR .gAPI                  : GR
DTC .us/ft                : DTC
RDEP .ohm.m               : RDEP
SP .mV                    : SP
RMED .ohm.m               : RMED
~Parameter
#==================================================================
~Ascii
# ...
 2667.0488281 13.115400314 13.115400314  -999.250000 2.6070001125 24.836900711 61.176399231 4.2070999146 -18.36044693 2.9862000942
 2667.2011719 13.115400314 13.115400314  -999.250000 2.6013000011 25.610000610 61.486694336 4.1673998833 -17.86764908 2.9835000038
 2667.3535156 13.115400314 13.115400314  -999.250000 2.5996999741 26.008399963 61.551601410 4.1079001427 -17.77828789 2.9618999958
 2667.5061035 13.117500305 13.117500305  -999.250000 2.6020998955 25.498300552 61.162296295 4.0271000862 -17.91261482 2.9040000439
 2667.6584473 13.123800278 13.123800278  -999.250000 2.6054000854 24.335100174 60.432201385 3.9410998821 -17.88538551 2.8239998817
 2667.8107910 13.131799698 13.131799698  -999.250000 2.6064000130 23.302200317 59.651199341 3.8650000095 -17.46731186 2.7467000484
 2667.9631348 13.135199547 13.135199547  -999.250000 2.6033999920 23.276599884 59.317401886 3.8101999760 -16.75519371 2.7021999359
 2668.1154785 13.130901337 13.130901337  -999.250000 2.5962998867 24.444099426 59.825000763 3.7797000408 -16.10136032 2.7049999237
 2668.2680664 13.126500130 13.126500130  -999.250000 2.5878000259 25.878400803 60.976299286 3.7569999695 -15.82358360 2.7269999981
 2668.4204102 13.128699303 13.128699303  -999.250000 2.5815999508 26.834199905 62.187198639 3.7269001007 -15.98342800 2.7290999889
 2668.5727539 13.134100914 13.134100914  -999.250000 2.5801000595 27.018699646 62.756698608 3.6888999939 -16.37773132 2.6958000660
 2668.7250977 13.134100914 13.134100914  -999.250000 2.5827999115 26.543199539 62.502998352 3.6602001190 -16.70937538 2.6493000984
 2668.8776855 13.127300262 13.127300262  -999.250000 2.5868999958 25.888299942 61.803596497 3.6688001156 -16.87412643 2.6235001087
 2669.0300293 13.119500160 13.119500160  -999.250000 2.5913000107 25.520099640 61.168701172 3.7256000042 -16.94841576 2.6301999092
 2669.1823730 13.114100456 13.114100456  -999.250000 2.5961999893 25.530399323 60.976402283 3.8185000420 -17.05076599 2.6682000160
 2669.3347168 13.104800224 13.104800224  -999.250000 2.6008999348 25.781299591 61.198398590 3.9210999012 -17.21049500 2.7297000885
 2669.4873047 13.084698677 13.084698677  -999.250000 2.6026999950 26.266899109 61.552898407 4.0139999390 -17.31616592 2.8039999008
 2669.6396484 13.061100006 13.061100006  -999.250000 2.6006000042 27.030000687 61.720500946 4.0950999260 -17.26080513 2.8740999699
 2669.7919922 13.043299675 13.043299675  -999.250000 2.5968999863 27.882999420 61.472099304 4.1634998322 -17.00282860 2.9244000912
 2669.9443359 13.032500267 13.032500267  -999.250000 2.5950000286 28.293199539 60.961498260 4.2070999146 -16.48247719 2.9533998966
 2670.0966797 13.022800446 13.022800446  -999.250000 2.5954000950 27.766000748 60.423400879 4.1803002357 -15.91114616 2.9474999905
 2670.2492676 13.007599831 13.007599831  -999.250000 2.5966000557 26.635700226 59.988998413 4.0556001663 -15.63724804 2.8910999298
 2670.4016113 12.985799789 12.985799789  -999.250000 2.5987999439 25.606199265 59.721298218 3.7869000435 -15.67227077 2.7395999432
 2670.5539551 12.957098961 12.957098961  -999.250000 2.6019001007 25.285699844 59.571903229 3.4284000397 -15.72145271 2.5076000690
 2670.7062988 12.909900665 12.909900665  -999.250000 2.6024000645 25.906200409 59.659400940 3.0427999496 -15.35842514 2.2235999107
 2670.8588867 12.845899582 12.845899582  -999.250000 2.5952000618 26.904100418 60.173999786 2.7104001045 -14.37707710 1.9589999914
 2671.0112305 12.781500816 12.781500816  -999.250000 2.5776998997 27.744699478 61.273498535 2.4893000126 -13.20271492 1.7745000124
 2671.1635742 12.735699654 12.735699654  -999.250000 2.5567998886 28.130899429 62.699199677 2.3684000969 -12.31312847 1.6780999899
 2671.3159180 12.717399597 12.717399597  -999.250000 2.5411999226 28.227199554 64.049102783 2.3350000381 -11.93836308 1.6655999422
 2671.4685059 12.719099998 12.719099998  -999.250000 2.5360999107 28.357400894 64.861198425 2.3659000397 -12.06653118 1.7122000456
 2671.6208496 12.732000351 12.732000351  -999.250000 2.5411000252 28.494800568 64.922897339 2.4547998905 -12.39931297 1.8057999611
 2671.7731934 12.740900040 12.740900040  -999.250000 2.5513000488 28.415300369 64.369201660 2.5710999966 -12.67808914 1.9155000448
 2671.9255371 12.724100113 12.724100113  -999.250000 2.5622999668 28.072799683 63.404701233 2.6579000950 -12.78623486 1.9946000576
 2672.0778809 12.658900261 12.658900261  -999.250000 2.5720000267 27.795099258 62.338298798 2.6375000477 -12.77699757 1.9902000427
 2672.2304688 12.550800323 12.550800323  -999.250000 2.5797998905 27.771999359 61.503601074 2.4681999683 -12.71590519 1.8804999590
 2672.3828125 12.433698654 12.433698654  -999.250000 2.5836000443 27.869699478 61.273200989 2.1579000950 -12.57198048 1.6720000505
 2672.5351563 12.344799995 12.344799995  -999.250000 2.5803000927 28.136899948 61.812400818 1.7825000286 -12.17905140 1.4120999575
 2672.6875000 12.304699898 12.304699898  -999.250000 2.5643000603 28.718999863 63.164798737 1.4254000187 -11.57648849 1.1559000015
 2672.8400879 12.296899796 12.296899796  -999.250000 2.5355999470 29.348899841 65.011802673 1.1317000389 -11.10982704 0.9430999756
 2672.9924316 12.301600456 12.301600456  -999.250000 2.4990000725 29.579599380 67.032699585 0.9187999964 -11.05995369 0.7969999909
 2673.1447754 12.309899330 12.309899330  -999.250000 2.4646999836 29.434999466 68.966903687 0.7594000101 -11.40229511 0.6976000071
 2673.2971191 12.322500229 12.322500229  -999.250000 2.4407000542 29.228500366 70.666496277 0.6488000154 -11.70495510 0.6352999806
 2673.4497070 12.332699776 12.332699776  -999.250000 2.4247999191 29.238300323 72.191802979 0.5740000010 -11.61742115 0.5971000195
 2673.6020508 12.329298973 12.329298973  -999.250000 2.4135000706 29.217699051 73.491798401 0.5389999747 -11.36200237 0.5867000222
 2673.7543945 12.315199852 12.315199852  -999.250000 2.4044001102 28.927600861 74.487800598 0.5327000022 -11.25946999 0.5979999900
 2673.9067383 12.301699638 12.301699638  -999.250000 2.4015998840 28.598199844 74.933197021 0.5562999845 -11.37538624 0.6370000243
 2674.0593262 12.297800064 12.297800064  -999.250000 2.4072000980 28.631200790 74.818801880 0.6039000154 -11.57622337 0.7073000073
 2674.2116699 12.302399635 12.302399635  -999.250000 2.4214000702 29.126300812 74.124099731 0.6840000153 -11.65953159 0.8240000010
 2674.3640137 12.313599586 12.313599586  -999.250000 2.4407000542 29.777900696 72.983398438 0.8065999746 -11.71464157 0.9846000075
 2674.5163574 12.343400002 12.343400002  -999.250000 2.4644999504 29.935600281 71.258201599 1.0003999472 -12.02644634 1.1880999804
 2674.6687012 12.398799896 12.398799896  -999.250000 2.4925000668 29.265600204 68.793800354 1.3035999537 -12.73476601 1.4275000095
 2674.8212891 12.471599579 12.471599579  -999.250000 2.5229001045 28.179500580 65.658897400 1.7728999853 -13.65532207 1.6966999769
 2674.9736328 12.537899971 12.537899971  -999.250000 2.5506000519 27.465900421 62.589099884 2.4133999348 -14.44665909 1.9697999954
 2675.1259766 12.578200340 12.578200340  -999.250000 2.5703999996 27.486900330 60.463405609 3.1496999264 -14.83534622 2.2151999474
 2675.2783203 12.588298798 12.588298798  -999.250000 2.5771999359 27.892900467 59.762199402 3.8115999699 -14.80083561 2.4010000229
 2675.4309082 12.581100464 12.581100464  -999.250000 2.5748000145 27.989799500 60.173900604 4.2548999786 -14.55833626 2.5109999180
 2675.5832520 12.572098732 12.572098732  -999.250000 2.5699999332 27.650699615 61.015300751 4.4166998863 -14.50327301 2.5369999409
 2675.7355957 12.569600105 12.569600105  -999.250000 2.5673000813 27.382699966 61.706798553 4.3801999092 -14.93272114 2.4997999668
 2675.8879395 12.574299812 12.574299812  -999.250000 2.5685999393 27.721900940 61.957401276 4.2442998886 -15.66659355 2.4333999157
 2676.0405273 12.579098701 12.579098701  -999.250000 2.5727999210 28.576999664 61.861000061 4.0910000801 -16.25392723 2.3782000542
 2676.1928711 12.579999924 12.579999924  -999.250000 2.5778999329 29.375600815 61.563404083 3.9472000599 -16.36822701 2.3619000912
 2676.3452148 12.579999924 12.579999924  -999.250000 2.5806999207 29.374900818 61.264801025 3.8076000214 -15.96088314 2.3810000420
