# LAS format log file from PETREL
# Project units are specified as depth units
#==================================================================
~Version information
VERS.   2.0:
WRAP.   NO:
#==================================================================
~Well
STRT .m      1845.0031738 :
STOP .m      3450.9943848 :
STEP .m     0.00000000 :
NULL .        -999.250000 :
COMP.           : COMPANY
WELL.  7/4-2 Brynhild Appr   : WELL
FLD.            : FIELD
LOC.            : LOCATION
SRVC.           : SERVICE COMPANY
DATE.  2018-09-11 21:49:22   : Log Export Date {yyyy-MM-dd HH:mm:ss}
PROV.           : PROVINCE
UWI.   7/4-2   : UNIQUE WELL ID
API.            : API NUMBER
#==================================================================
~Curve
DEPT .m                   : DEPTH
CALI .in                  : CALI
BS .in                    : BS
DRHO .g/cm3               : DRHO
THOR .ppm                 : THOR
NPHI .m3/m3               : NPHI
RHOB .g/cm3               : RHOB
PEF .b/e                  : PEF
GR .gAPI                  : GR
URAN .ppm                 : URAN
DTC .us/ft                : DTC
DTS .us/ft                : DTS
RDEP .ohm.m               : RDEP
RMED .ohm.m               : RMED
~Parameter
#==================================================================
~Ascii
# ...
 2891.0766602 12.302399635 12.250000954 0.0351943895  -999.250000 0.2596000135 2.3173091412 10.108904839 10.227175713  -999.250000 75.853797913 157.36311340 0.3816631436 0.4939280450
 2891.2290039 12.285400391 12.250000954 0.0383948721  -999.250000 0.2560000122 2.3254868984 10.112321854 9.9142026901  -999.250000 75.480400085 157.13188171 0.3743117154 0.6114115119
 2891.3813477 12.286499977 12.250000954 0.0395961590  -999.250000 0.2423000038 2.3486258984 10.248917580 9.7830200195  -999.250000 74.581497192 156.20158386 0.4096863866 0.7231419086
 2891.5339355 12.266999245 12.250000954 0.0360057689  -999.250000 0.2451000065 2.3530929089 10.104513168 9.8378114700  -999.250000 73.981903076 155.27447510 0.4065052867 0.6932485700
 2891.6862793 12.302399635 12.250000954 0.0302092955  -999.250000 0.2469999939 2.3412191868 10.317083359 10.666170120  -999.250000 72.976402283 153.42756653 0.3822389543 0.4078580141
 2891.8386230 12.278800011 12.250000954 0.0313980766  -999.250000 0.2475000024 2.3371067047 9.5975294113 11.059969902  -999.250000 72.686798096 152.50447083 0.4047637880 0.4214774072
 2891.9909668 12.288300514 12.250000954 0.0356862396  -999.250000 0.2301000059 2.3461709023 9.5717086792 9.8937463760  -999.250000 72.158096313 150.86575317 0.4706884921 0.5041347146
 2892.1435547 12.302399635 12.250000954 0.0371975973  -999.250000 0.2140000015 2.3583805561 9.7178258896 9.7925567627  -999.250000 71.956001282 150.28851318 0.4983559251 0.5362488627
 2892.2958984 12.342799187 12.250000954 0.0398956761  -999.250000 0.1911000013 2.4019300938 10.134618759 9.5318183899  -999.250000 71.709197998 149.38674927 0.5197657347 0.6084841490
 2892.4482422 12.373100281 12.250000954 0.0408983976  -999.250000 0.1877000034 2.4238648415 11.115754128 9.4240722656  -999.250000 71.805099487 149.27378845 0.5030269623 0.6181846261
 2892.6005859 12.379199028 12.250000954 0.0399016030  -999.250000 0.1994999945 2.4307889938 11.714197159 10.202650070  -999.250000 71.994003296 149.03558350 0.4787389636 0.5604926348
 2892.7529297 12.397300720 12.250000954 0.0406974405  -999.250000 0.2029999942 2.4229252338 11.948658943 10.576602936  -999.250000 72.083801270 148.89297485 0.5068097711 0.5703679919
 2892.9055176 12.373100281 12.250000954 0.0456919856  -999.250000 0.2094999999 2.4191062450 11.594128609 10.300245285  -999.250000 72.263397217 148.51818848 0.6506692171 0.7658862472
 2893.0578613 12.404899597 12.250000954 0.0460993610  -999.250000 0.2053000033 2.4278860092 11.306065559 10.753771782  -999.250000 72.353500366 148.16796875 0.6879405975 0.9421176314
 2893.2102051 12.443799973 12.250000954 0.0393108949  -999.250000 0.2017000020 2.4362866879 10.656539917 11.535246849  -999.250000 72.469200134 147.56596375 0.6473652124 1.0139850378
 2893.3625488 12.454400063 12.250000954 0.0349140801  -999.250000 0.2022999972 2.4289236069 10.648655891 10.668984413  -999.250000 72.391296387 147.47019958 0.6087238789 0.9400377870
 2893.5151367 12.489800453 12.250000954 0.0311060883  -999.250000 0.2022999972 2.3992476463 10.372459412 9.6977548599  -999.250000 72.154998779 147.24905396 0.5212402344 0.6262033582
 2893.6674805 12.457900047 12.250000954 0.0332964808  -999.250000 0.2013999969 2.3893160820 9.3548536301 8.8655328751  -999.250000 71.837600708 147.06159973 0.5174059272 0.5340471268
 2893.8198242 12.381600380 12.250000954 0.0404884629  -999.250000 0.2029000074 2.4043760300 8.4136800766 10.123578072  -999.250000 71.205200195 146.41253662 0.5848916173 0.5831209421
 2893.9721680 12.432499886 12.250000954 0.0416961610  -999.250000 0.1947000027 2.4219436646 10.618479729 10.300638199  -999.250000 70.896400452 145.27354431 0.6312515140 0.6567638516
 2894.1247559 12.431200027 12.250000954 0.0414004810  -999.250000 0.1770000011 2.4492561817 10.808557510 10.214639664  -999.250000 70.328598022 142.92805481 0.7140673399 0.7708173394
 2894.2770996 12.410200119 12.250000954 0.0410006419  -999.250000 0.1583999991 2.4673709869 10.913076401 10.556351662  -999.250000 70.127197266 140.12249756 0.7221871614 0.8853164911
 2894.4294434 12.373100281 12.250000954 0.0380048081  -999.250000 0.1562999934 2.4719924927 9.6367073059 11.033535004  -999.250000 70.096000671 139.01019287 0.7133142352 0.8960829973
 2894.5817871 12.373100281 12.250000954 0.0304121803  -999.250000 0.1694999933 2.4593203068 9.5612859726 10.728291512  -999.250000 70.618400574 139.25860596 0.6742626429 0.7546271086
 2894.7341309 12.373100281 12.250000954 0.0296025593  -999.250000 0.1840000004 2.4448463917 9.8093605042 11.039499283  -999.250000 70.894699097 139.47569275 0.6463893056 0.6881127954
 2894.8867188 12.542799950 12.250000954 0.0312972777  -999.250000 0.1949000061 2.4147481918 10.806448936 11.417095184  -999.250000 71.629096985 141.00424194 0.6007730961 0.5844659805
 2895.0390625 12.694800377 12.250000954 0.0322983973  -999.250000 0.1870000064 2.4051156044 11.490307808 11.335432053  -999.250000 72.008201599 141.77957153 0.5767384171 0.5531499982
 2895.1914063 12.606399536 12.250000954 0.0337975956  -999.250000 0.1873999983 2.4028036594 11.878010750 11.093388557  -999.250000 72.990097046 143.49365234 0.5418559313 0.5685751438
 2895.3437500 12.500399590 12.250000954 0.0327035189  -999.250000 0.1931000054 2.4019029140 10.880573273 10.952152252  -999.250000 73.473999023 144.36141968 0.5333271623 0.5863429904
 2895.4963379 12.484699249 12.250000954 0.0293054488  -999.250000 0.2070000023 2.3884217739 10.308254242 10.689021111  -999.250000 74.168701172 146.50506592 0.5308039784 0.5672307611
 2895.6486816 12.443799973 12.250000954 0.0304980781  -999.250000 0.2178999931 2.3814113140 10.316883087 10.963359833  -999.250000 74.516098022 147.57887268 0.5203167796 0.5766847730
 2895.8010254 12.443799973 12.250000954 0.0366900638  -999.250000 0.2278999984 2.3716156483 11.005037308 11.159785271  -999.250000 75.078102112 149.00073242 0.4941419959 0.6152381301
 2895.9533691 12.443799973 12.250000954 0.0376968011  -999.250000 0.2317000031 2.3656194210 11.192957878 10.842918396  -999.250000 75.359199524 149.71202087 0.4845307171 0.5757270455
 2896.1059570 12.438199997 12.250000954 0.0351041667  -999.250000 0.2374999970 2.3485274315 10.842614174 10.513327599  -999.250000 75.791198730 150.91197205 0.4939847589 0.5076091290
 2896.2583008 12.429699898 12.250000954 0.0351000018  -999.250000 0.2361000031 2.3436079025 11.655393600 10.803533554  -999.250000 76.005599976 151.51013184 0.5007891059 0.5618128181
 2896.4106445 12.347599983 12.250000954 0.0405911878  -999.250000 0.2360000014 2.3551814556 11.218593597 10.185992241  -999.250000 76.365196228 153.03355408 0.5164748430 0.8525334597
 2896.5629883 12.347599983 12.250000954 0.0414985567  -999.250000 0.2363999933 2.3634867668 11.283475876 10.045523643  -999.250000 76.543296814 153.80555725 0.5218913555 0.8935348988
 2896.7155762 12.340099335 12.250000954 0.0362084806  -999.250000 0.2471999973 2.3533163071 11.279136658 10.149533272  -999.250000 76.706596375 153.70506287 0.4840606451 0.6534848213
 2896.8679199 12.302399635 12.250000954 0.0340035260  -999.250000 0.2526000142 2.3380246162 10.961854935 10.024201393  -999.250000 76.780792236 153.59037781 0.4389722645 0.5155208111
 2897.0202637 12.330699921 12.250000954 0.0326022431  -999.250000 0.2483000010 2.3195295334 10.990567207 9.8802309036  -999.250000 76.618896484 152.40679932 0.3708092868 0.3905003369
 2897.1726074 12.311800957 12.250000954 0.0312022436  -999.250000 0.2481999993 2.3174033165 10.876754761 9.4377098083  -999.250000 76.416702271 151.26643372 0.3467384875 0.3730277121
 2897.3249512 12.330699921 12.250000954 0.0311999992  -999.250000 0.2479999959 2.3208887577 10.775770187 9.2333545685  -999.250000 76.309501648 150.81535339 0.3459025621 0.3808747232
 2897.4775391 12.351900101 12.250000954 0.0335961543  -999.250000 0.2461999953 2.3315827847 10.934875488 9.7214155197  -999.250000 76.007110596 150.31997681 0.3599774241 0.4196378291
 2897.6298828 12.373100281 12.250000954 0.0345983990  -999.250000 0.2457000017 2.3345952034 11.512068748 9.3322257996  -999.250000 75.776397705 150.43968201 0.3628953397 0.4329786897
