# LAS format log file from PETREL
# Project units are specified as depth units
#==================================================================
~Version information
VERS.   2.0:
WRAP.   NO:
#==================================================================
~Well
STRT .m      1845.0031738 :
STOP .m      3450.9943848 :
STEP .m     0.00000000 :
NULL .        -999.250000 :
COMP.           : COMPANY
WELL.  7/4-2 Brynhild Appr   : WELL
FLD.            : FIELD
LOC.            : LOCATION
SRVC.           : SERVICE COMPANY
DATE.  2018-09-11 21:49:22   : Log Export Date {yyyy-MM-dd HH:mm:ss}
PROV.           : PROVINCE
UWI.   7/4-2   : UNIQUE WELL ID
API.            : API NUMBER
#==================================================================
~Curve
DEPT .m                   : DEPTH
CALI .in                  : CALI
BS .in                    : BS
DRHO .g/cm3               : DRHO
THOR .ppm                 : THOR
NPHI .m3/m3               : NPHI
RHOB .g/cm3               : RHOB
PEF .b/e                  : PEF
GR .gAPI                  : GR
URAN .ppm                 : URAN
DTC .us/ft                : DTC
DTS .us/ft                : DTS
RDEP .ohm.m               : RDEP
RMED .ohm.m               : RMED
~Parameter
#==================================================================
~Ascii
# ...
 3420.8190918 8.6118001938 8.5000000000 -0.002200000  -999.250000 0.1764999926 2.6368999481  -999.250000 87.185302734  -999.250000 74.887100220  -999.250000 1.9645999670 1.9874000549
 3420.9716797 8.6014995575 8.5000000000 0.0051000002  -999.250000 0.2285999954 2.6563000679  -999.250000 92.234298706  -999.250000 76.047798157  -999.250000 1.9254000187 1.9422999620
 3421.1240234 8.6061000824 8.5000000000 0.0116999997  -999.250000 0.2578999996 2.6589999199  -999.250000 93.164901733  -999.250000 76.614898682  -999.250000 1.8636000156 1.8751000166
 3421.2763672 8.6142997742 8.5000000000 0.0109999999  -999.250000 0.2536999881 2.6515998840  -999.250000 94.726898193  -999.250000 76.628692627  -999.250000 1.7774000168 1.7845000029
 3421.4287109 8.6258001328 8.5000000000 0.0063999998  -999.250000 0.2361000031 2.6482000351  -999.250000 95.465103149  -999.250000 76.198997498  -999.250000 1.7071000338 1.7107000351
 3421.5812988 8.6030998230 8.5000000000 0.0077999998  -999.250000 0.1832000017 2.6603000164  -999.250000 91.267402649  -999.250000 75.569999695  -999.250000 1.6830999851 1.6837999821
 3421.7336426 8.5862998962 8.5000000000 0.0055999998  -999.250000 0.1657000035 2.6517999172  -999.250000 88.946800232  -999.250000 75.109802246  -999.250000 1.7077000141 1.7059999704
 3421.8859863 8.5862998962 8.5000000000 0.0023000001  -999.250000 0.1941999942 2.6426999569  -999.250000 88.235198975  -999.250000 75.152397156  -999.250000 1.7587000132 1.7546999454
 3422.0383301 8.6044998169 8.5000000000 -0.004800000  -999.250000 0.2284999937 2.6282999516  -999.250000 86.616798401  -999.250000 75.761703491  -999.250000 1.7962000370 1.7899999619
 3422.1909180 8.6113004684 8.5000000000 -0.001700000  -999.250000  -999.250000 2.6422998905  -999.250000 88.851196289  -999.250000 76.628501892  -999.250000 1.7943999767 1.7862000465
 3422.3432617 8.6006002426 8.5000000000 -0.001600000  -999.250000  -999.250000 2.6317000389  -999.250000 91.269599915  -999.250000 77.369796753  -999.250000 1.7804000378 1.7702000141
 3422.4956055 8.6204004288 8.5000000000 0.0051000002  -999.250000  -999.250000 2.6487998962  -999.250000 91.873298645  -999.250000 77.815101624  -999.250000 1.8046000004 1.7919000387
 3422.6479492 8.6412000656 8.5000000000 0.0068000001  -999.250000  -999.250000 2.6635999680  -999.250000 89.268798828  -999.250000 77.958099365  -999.250000 1.8708000183 1.8549000025
 3422.8005371 8.6517000198 8.5000000000 0.0098999999  -999.250000  -999.250000 2.6765999794  -999.250000 82.440902710  -999.250000 77.843902588  -999.250000 1.9276000261 1.9079999924
 3422.9528809 8.6667003632 8.5000000000 -0.000600000  -999.250000  -999.250000 2.6508998871  -999.250000 82.573799133  -999.250000 77.591598511  -999.250000 1.9314999580 1.9082000256
 3423.1052246 8.6652002335 8.5000000000 0.0086000003  -999.250000  -999.250000 2.6819999218  -999.250000 86.034599304  -999.250000 77.411598206  -999.250000 1.9075000286 1.8805999756
 3423.2575684 8.6258001328 8.5000000000 0.0243999995  -999.250000  -999.250000 2.7123000622  -999.250000 87.783599854  -999.250000 77.529502869  -999.250000 1.9062000513 1.8750000000
 3423.4099121 8.6212997437 8.5000000000 0.0114000002  -999.250000  -999.250000 2.6744000912  -999.250000 84.619903564  -999.250000 77.979797363  -999.250000 1.9271999598 1.8913999796
 3423.5625000 8.6449003220 8.5000000000 -0.010100000  -999.250000  -999.250000 2.6305000782  -999.250000 85.064300537  -999.250000 78.452705383  -999.250000 1.9428000450 1.9021999836
 3423.7148438 8.6247997284 8.5000000000 -0.003500000  -999.250000  -999.250000 2.6530001163  -999.250000 88.956001282  -999.250000 78.576698303  -999.250000 1.9487999678 1.9038000107
 3423.8671875 8.6267995834 8.5000000000 0.0219000001  -999.250000  -999.250000 2.6940000057  -999.250000 88.015998840  -999.250000 78.296394348  -999.250000 1.9551999569 1.9059000015
 3424.0195313 8.6354999542 8.5000000000 -0.000600000  -999.250000  -999.250000 2.6135001183  -999.250000 86.161300659  -999.250000 77.881896973  -999.250000 1.9594999552 1.9063999653
 3424.1721191 8.6391000748 8.5000000000 -0.008000000  -999.250000  -999.250000 2.5999999046  -999.250000 86.410499573  -999.250000 77.645210266  -999.250000 1.9464999437 1.8904000521
 3424.3244629 8.6301002502 8.5000000000 -0.007400000  -999.250000  -999.250000 2.6177999973  -999.250000 92.173698425  -999.250000 77.635803223  -999.250000 1.9076000452 1.8501000404
 3424.4768066 8.6314001083 8.5000000000 -0.001200000  -999.250000  -999.250000 2.6347999573  -999.250000 96.433601379  -999.250000 77.541397095  -999.250000 1.8657000065 1.8075000048
 3424.6291504 8.6550998688 8.5000000000 0.0020999999  -999.250000  -999.250000 2.6252000332  -999.250000 98.504699707  -999.250000 76.965492249  -999.250000 1.8567999601 1.7977000475
 3424.7817383 8.6541996002 8.5000000000 0.0076000001  -999.250000  -999.250000 2.6289999485  -999.250000 96.608100891  -999.250000 75.841499329  -999.250000 1.9009000063 1.8400000334
 3424.9340820 8.6265001297 8.5000000000  -999.250000  -999.250000  -999.250000  -999.250000  -999.250000 95.388298035  -999.250000 74.552299500  -999.250000 1.9960999489 1.9327000380
 3425.0864258 8.5897998810 8.5000000000  -999.250000  -999.250000  -999.250000  -999.250000  -999.250000 89.902000427  -999.250000 73.781402588  -999.250000 2.1006000042 2.0353999138
 3425.2387695 8.5763998032 8.5000000000  -999.250000  -999.250000  -999.250000  -999.250000  -999.250000 88.719398499  -999.250000 74.103996277  -999.250000 2.1291999817 2.0655000210
 3425.3911133 8.5820999146 8.5000000000  -999.250000  -999.250000  -999.250000  -999.250000  -999.250000 96.226898193  -999.250000 75.517196655  -999.250000 2.0508000851 1.9924000502
 3425.5437012 8.5762996674 8.5000000000  -999.250000  -999.250000  -999.250000  -999.250000  -999.250000 100.29429626  -999.250000 77.430397034  -999.250000 1.9433000088 1.8912999630
 3425.6960449 8.5853004456 8.5000000000  -999.250000  -999.250000  -999.250000  -999.250000  -999.250000 104.66649628  -999.250000 79.099899292  -999.250000 1.8790999651 1.8324999809
 3425.8483887 8.6069002151 8.5000000000  -999.250000  -999.250000  -999.250000  -999.250000  -999.250000 104.82649994  -999.250000 80.043090820  -999.250000 1.8589999676 1.8166999817
 3426.0007324 8.6099004745 8.5000000000  -999.250000  -999.250000  -999.250000  -999.250000  -999.250000 102.45939636  -999.250000 80.168800354  -999.250000 1.8607000113 1.8221999407
 3426.1533203 8.6047000885 8.5000000000  -999.250000  -999.250000  -999.250000  -999.250000  -999.250000 102.06089783  -999.250000 79.644699097  -999.250000 1.8794000149 1.8443000317
 3426.3056641 8.6125001907 8.5000000000  -999.250000  -999.250000  -999.250000  -999.250000  -999.250000 100.08899689  -999.250000 78.735397339  -999.250000 1.9240000248 1.8918000460
 3426.4580078 8.6099996567 8.5000000000  -999.250000  -999.250000  -999.250000  -999.250000  -999.250000 98.343399048  -999.250000 77.702102661  -999.250000 1.9760999680 1.9465999603
 3426.6103516 8.6033000946 8.5000000000  -999.250000  -999.250000  -999.250000  -999.250000  -999.250000 92.464996338  -999.250000 76.724403381  -999.250000 1.9940999746 1.9675999880
 3426.7629395 8.6063995361 8.5000000000  -999.250000  -999.250000  -999.250000  -999.250000  -999.250000 91.840896606  -999.250000 75.860900879  -999.250000 1.9895000458 1.9657000303
 3426.9152832 8.6176004410 8.5000000000  -999.250000  -999.250000  -999.250000  -999.250000  -999.250000 88.021400452  -999.250000 75.098999023  -999.250000 2.0137999058 1.9918999672
 3427.0676270 8.6057996750 8.5000000000  -999.250000  -999.250000  -999.250000  -999.250000  -999.250000 87.882202148  -999.250000 74.531196594  -999.250000 2.0785000324 2.0573999882
 3427.2199707 8.6072998047 8.5000000000  -999.250000  -999.250000  -999.250000  -999.250000  -999.250000 93.153396606  -999.250000 74.393096924  -999.250000 2.1540000439 2.1329998970
 3427.3723145 8.6169996262 8.5000000000  -999.250000  -999.250000  -999.250000  -999.250000  -999.250000 95.208000183  -999.250000 74.833106995  -999.250000 2.1965000629 2.1749999523
