# LAS format log file from PETREL
# Project units are specified as depth units
#==================================================================
~Version information
VERS.   2.0:
WRAP.   NO:
#==================================================================
~Well
STRT .m      1845.0031738 :
STOP .m      3450.9943848 :
STEP .m     0.00000000 :
NULL .        -999.250000 :
COMP.           : COMPANY
WELL.  7/4-2 Brynhild Appr   : WELL
FLD.            : FIELD
LOC.            : LOCATION
SRVC.           : SERVICE COMPANY
DATE.  2018-09-11 21:49:22   : Log Export Date {yyyy-MM-dd HH:mm:ss}
PROV.           : PROVINCE
UWI.   7/4-2   : UNIQUE WELL ID
API.            : API NUMBER
#==================================================================
~Curve
DEPT .m                   : DEPTH
CALI .in                  : CALI
BS .in                    : BS
DRHO .g/cm3               : DRHO
THOR .ppm                 : THOR
NPHI .m3/m3               : NPHI
RHOB .g/cm3               : RHOB
PEF .b/e                  : PEF
GR .gAPI                  : GR
URAN .ppm                 : URAN
DTC .us/ft                : DTC
DTS .us/ft                : DTS
RDEP .ohm.m               : RDEP
RMED .ohm.m               : RMED
~Parameter
#==================================================================
~Ascii
# ...
 2166.8720703 12.415499687 12.250000954 0.0293000005  -999.250000 0.4941999912 2.2685999870 7.9512691498 117.23680115  -999.250000 144.24839783 333.27957153 0.7093999982 0.6779000163
 2167.0244141 12.443799973 12.250000954 0.0315000005  -999.250000 0.4972000122 2.2751998901 8.4848423004 113.30609894  -999.250000 143.90420532 331.97619629 0.6890000105 0.6643000245
 2167.1767578 12.443799973 12.250000954 0.0366999991  -999.250000 0.5207999945 2.2897000313 8.1285314560 116.21019745  -999.250000 143.77279663 331.88809204 0.6579999924 0.6244000196
 2167.3293457 12.443799973 12.250000954 0.0370000005  -999.250000 0.5152000189 2.2976000309 7.7183780670 115.39050293  -999.250000 143.92340088 332.64373779 0.6478999853 0.6129000187
 2167.4816895 12.486200333 12.250000954 0.0342000015  -999.250000 0.4943999946 2.3199999332 7.2006998062 113.53320313  -999.250000 144.30499268 334.80130005 0.6333000064 0.6058999896
 2167.6340332 12.514499664 12.250000954 0.0335999988  -999.250000 0.4846000075 2.3331999779 7.6237292290 114.14330292  -999.250000 144.57550049 336.51852417 0.6327000260 0.6039000154
 2167.7863770 12.538000107 12.250000954 0.0313000008  -999.250000 0.4747000039 2.3447000980 8.6481456757 110.43440247  -999.250000 145.13540649 339.26950073 0.6322000027 0.6014999747
 2167.9387207 12.556900024 12.250000954 0.0293000005  -999.250000 0.4785000086 2.3420000076 8.7628030777 116.01519775  -999.250000 145.43659973 339.89230347 0.6317999959 0.6049000025
 2168.0913086 12.627599716 12.250000954 0.0282000005  -999.250000 0.5239999890 2.3315000534 8.8261108398 107.79370117  -999.250000 145.72360229 341.08938599 0.6327999830 0.5916000009
 2168.2436523 12.627599716 12.250000954 0.0285999998  -999.250000 0.5514000058 2.3255000114 13.413297653 112.40879822  -999.250000 145.47740173 341.62799072 0.6340000033 0.5924999714
 2168.3959961 12.698300362 12.250000954 0.0275999997  -999.250000 0.5630999804 2.3076000214 13.144504547 119.63700104  -999.250000 145.01609802 342.21737671 0.6449000239 0.6155999899
 2168.5483398 12.740799904 12.250000954 0.0255999994  -999.250000 0.5472999811 2.2962000370 13.162284851 116.87449646  -999.250000 144.82859802 341.83209229 0.6518999934 0.6216999888
 2168.7009277 12.740799904 12.250000954 0.0241000000  -999.250000 0.5504999757 2.2769999504 13.427021027 113.93460083  -999.250000 143.92849731 342.01928711 0.6674000025 0.6377000213
 2168.8532715 12.740799904 12.250000954 0.0242999997  -999.250000 0.5605000257 2.2702999115 13.859149933 115.32399750  -999.250000 142.64689636 343.62908936 0.6747999787 0.6503999829
 2169.0056152 12.571100235 12.250000954 0.0230000000  -999.250000 0.5669999719 2.2643001080 13.297851563 114.82579803  -999.250000 140.54089355 346.56250000 0.6837999821 0.6603999734
 2169.1579590 12.443799973 12.250000954 0.0216000006  -999.250000 0.5457999706 2.2639000416 13.216089249 113.53730011  -999.250000 140.31709290 347.51080322 0.6868000031 0.6625999808
 2169.3105469 12.443799973 12.250000954 0.0193000007  -999.250000 0.5170000196 2.2639999390 12.063726425 111.34410095  -999.250000 139.78799438 349.39550781 0.6905000210 0.6700000167
 2169.4628906 12.415499687 12.250000954 0.0201999992  -999.250000 0.5105999708 2.2646999359 11.306803703 113.21350098  -999.250000 139.35169983 350.31329346 0.6834999919 0.6647999883
 2169.6152344 12.415499687 12.250000954 0.0253999997  -999.250000 0.5022000074 2.2697999477 11.146661758 112.33910370  -999.250000 138.62770081 350.67858887 0.6678000093 0.6387000084
 2169.7675781 12.415499687 12.250000954 0.0267999992  -999.250000 0.5013999939 2.2723000050 10.690917015 112.12920380  -999.250000 138.63349915 347.21981812 0.6640999913 0.6315000057
 2169.9199219 12.330699921 12.250000954 0.0280000009  -999.250000 0.5138999820 2.2804999352 10.798740387 108.31510162  -999.250000 138.54809570 340.48330688 0.6776999831 0.6607999802
 2170.0725098 12.330699921 12.250000954 0.0311999992  -999.250000 0.5073000193 2.2901000977 10.733735085 108.16780090  -999.250000 138.21719360 337.65289307 0.6894000173 0.7100999951
 2170.2248535 12.373100281 12.250000954 0.0394000001  -999.250000 0.4907000065 2.3189001083 10.861781120 104.23829651  -999.250000 137.66859436 333.10018921 0.7056999803 0.7483999729
 2170.3771973 12.415499687 12.250000954 0.0390999988  -999.250000 0.5066000223 2.3396000862 11.819051743 104.84909821  -999.250000 137.95069885 336.67260742 0.6649000049 0.6532999873
 2170.5295410 12.443799973 12.250000954 0.0361000001  -999.250000 0.5152000189 2.3383998871 13.278690338 108.95279694  -999.250000 138.10769653 338.76721191 0.6460999846 0.6226000190
 2170.6821289 12.443799973 12.250000954 0.0322999991  -999.250000 0.4984000027 2.3203999996 13.539173126 119.60910034  -999.250000 138.55700684 345.55169678 0.6306999922 0.6097999811
 2170.8344727 12.486200333 12.250000954 0.0326000005  -999.250000 0.4665000141 2.3146998882 13.765111923 120.30729675  -999.250000 138.77311707 348.95953369 0.6237000227 0.5992000103
 2170.9868164 12.599399567 12.250000954 0.0326000005  -999.250000 0.4573999941 2.3162000179 13.610184669 121.54290009  -999.250000 139.09739685 355.97540283 0.6168000102 0.5828999877
 2171.1391602 12.627599716 12.250000954 0.0310999993  -999.250000 0.4860999882 2.3160998821 14.197953224 124.77690125  -999.250000 139.22019958 359.06729126 0.6165000200 0.5784000158
 2171.2917480 12.740799904 12.250000954 0.0292000007  -999.250000 0.5199000239 2.3097999096 13.136649132 119.15820313  -999.250000 138.72628784 357.41699219 0.6137999892 0.5903000236
 2171.4440918 12.698300362 12.250000954 0.0293000005  -999.250000 0.5145000219 2.3092000484 13.657495499 116.64089966  -999.250000 138.47300720 356.42880249 0.6128000021 0.5932999849
 2171.5964355 12.740799904 12.250000954 0.0274000000  -999.250000 0.5083000064 2.3104999065 13.003270149 111.29799652  -999.250000 137.73451233 347.95059204 0.6069999933 0.5842000246
 2171.7487793 12.698300362 12.250000954 0.0253999997  -999.250000 0.5088000298 2.3094000816 12.384325981 112.12069702  -999.250000 137.36549377 343.71148682 0.6039999723 0.5766000152
 2171.9011230 12.740799904 12.250000954 0.0229000002  -999.250000 0.5184000134 2.3069999218 13.331497192 117.76129913  -999.250000 136.54029846 338.12188721 0.6018000245 0.5724999905
 2172.0537109 12.783200264 12.250000954 0.0233999994  -999.250000 0.5307000279 2.3078000546 13.380887032 118.54519653  -999.250000 136.12707520 335.32708740 0.6013000011 0.5716999769
 2172.2060547 12.599399567 12.250000954 0.0245999992  -999.250000 0.5110999942 2.3092000484 13.312614441 117.62960052  -999.250000 135.80735779 342.60650635 0.6133000255 0.5831999779
 2172.3583984 12.514499664 12.250000954 0.0253999997  -999.250000 0.4970000088 2.3108000755 12.734607697 119.55909729  -999.250000 135.65370178 346.40451050 0.6158999801 0.5964000225
 2172.5107422 12.443799973 12.250000954 0.0275999997  -999.250000 0.5070999861 2.3152000904 12.919563293 129.45469666  -999.250000 135.80610657 363.24029541 0.6208000183 0.5999000072
 2172.6633301 12.443799973 12.250000954 0.0278999992  -999.250000 0.5396000147 2.3134000301 11.799650192 126.81800079  -999.250000 135.89474487 371.89120483 0.6208000183 0.5986999869
 2172.8156738 12.443799973 12.250000954 0.0286999997  -999.250000 0.5821999907 2.3046000004 11.646163940 128.87730408  -999.250000 136.35839844 376.14529419 0.6281999946 0.5867999792
 2172.9680176 12.443799973 12.250000954 0.0296999998  -999.250000 0.5663999915 2.3029999733 11.156012535 125.22779846  -999.250000 136.60119629 377.76699829 0.6362000108 0.5960000157
 2173.1203613 12.443799973 12.250000954 0.0296000000  -999.250000 0.5406000018 2.3064000607 10.892664909 127.30400085  -999.250000 135.79159546 363.14630127 0.6395000219 0.6104999781
 2173.2729492 12.330699921 12.250000954 0.0286999997  -999.250000 0.5504000187 2.3111999035 11.178386688 123.17769623  -999.250000 134.57518005 349.52529907 0.6241000295 0.5989000201
 2173.4252930 12.302399635 12.250000954 0.0293000005  -999.250000 0.5594000220 2.3146998882 11.247323990 119.97029877  -999.250000 133.74668884 345.07571411 0.6201999784 0.5752999783
