# LAS format log file from PETREL
# Project units are specified as depth units
#==================================================================
~Version information
VERS.   2.0:
WRAP.   NO:
#==================================================================
~Well
STRT .m      873.00000000 :
STOP .m      3593.0000000 :
STEP .m     0.00000000 :
NULL .        -999.250000 :
COMP.           : COMPANY
WELL.  7/7-3 Brynhild Appr   : WELL
FLD.            : FIELD
LOC.            : LOCATION
SRVC.           : SERVICE COMPANY
DATE.  2018-09-11 21:49:23   : Log Export Date {yyyy-MM-dd HH:mm:ss}
PROV.           : PROVINCE
UWI.   7/7-3   : UNIQUE WELL ID
API.            : API NUMBER
#==================================================================
~Curve
DEPT .m                   : DEPTH
CALI .in                  : CALI
GR .gAPI                  : GR
RDEP .ohm.m               : RDEP
SP .mV                    : SP
RMED .ohm.m               : RMED
~Parameter
#==================================================================
~Ascii
# ...
 1444.2000732 18.829833984 155.26116943 0.6537268162 13.137071609 0.6027444601
 1444.3000488 18.821079254 155.03965759 0.6516577005 13.021085739 0.6016396284
 1444.4000244 18.789951324 154.68208313 0.6486366987 12.890750885 0.5976227522
 1444.5000000 18.748806000 153.98152161 0.6457728148 12.776681900 0.5916671753
 1444.5999756 18.711074829 152.97293091 0.6437371969 12.710063934 0.5862250328
 1444.6999512 18.685779572 151.75321960 0.6427128315 12.712858200 0.5841760635
 1444.7999268 18.673294067 150.68411255 0.6425668001 12.787176132 0.5872057676
 1444.9000244 18.670211792 149.77798462 0.6431928873 12.910091400 0.5947088003
 1445.0000000 18.672676086 149.29341125 0.6446542740 13.037006378 0.6039996147
 1445.0999756 18.682666779 149.09509277 0.6470265388 13.120489120 0.6117637157
 1445.2000732 18.700313568 149.24929810 0.6503508091 13.128322601 0.6156527996
 1445.3000488 18.720008850 149.83763123 0.6546576023 13.050930023 0.6152554750
 1445.4000244 18.733131409 150.56819153 0.6599802971 12.900707245 0.6123238802
 1445.5001221 18.732231140 151.45816040 0.6663986444 12.711759567 0.6100494862
 1445.5999756 18.715324402 152.11674500 0.6739177704 12.529863358 0.6111130714
 1445.6999512 18.686569214 152.49739075 0.6817317009 12.400409698 0.6159319878
 1445.7999268 18.653903961 152.39750671 0.6882278919 12.358339310 0.6223695278
 1445.9000244 18.625202179 152.16355896 0.6919616461 12.405399323 0.6269867420
 1446.0000000 18.604740143 152.16406250 0.6923978329 12.505485535 0.6270320415
 1446.0999756 18.592441559 152.82397461 0.6901496649 12.606670380 0.6221632957
 1446.2000732 18.585792542 154.30824280 0.6868282557 12.665920258 0.6150003672
 1446.3000488 18.585426331 156.01280212 0.6844289303 12.666664124 0.6096665859
 1446.4000244 18.594707489 157.61318970 0.6845122576 12.619493484 0.6091786623
 1446.5000000 18.618713379 157.92147827 0.6877557039 12.547115326 0.6137152910
 1446.6000977 18.661804199 157.33767700 0.6938391924 12.469736099 0.6207166910
 1446.7000732 18.718101501 155.17240906 0.7014827728 12.390037537 0.6269246340
 1446.7999268 18.773777008 152.61308289 0.7089899778 12.300701141 0.6304724216
 1446.8999023 18.814338684 149.94918823 0.7147302628 12.198381424 0.6312385798
 1447.0000000 18.832710266 147.86123657 0.7172020674 12.098379135 0.6299939156
 1447.0999756 18.830265045 146.49273682 0.7151587009 12.026418686 0.6271196604
 1447.1999512 18.816036224 145.64935303 0.7080277205 12.006162643 0.6217061281
 1447.3000488 18.800567627 145.60359192 0.6961301565 12.046646118 0.6119186878
 1447.4000244 18.793190002 145.93792725 0.6805922985 12.142412186 0.5963236094
 1447.5000000 18.804862976 146.55650330 0.6631332636 12.269830704 0.5750913620
 1447.6000977 18.849456787 147.16012573 0.6458582878 12.395151138 0.5500650406
 1447.7000732 18.931442261 147.25965881 0.6309893131 12.479656219 0.5245939493
 1447.8000488 19.038841248 146.90159607 0.6206202507 12.497274399 0.5034437180
 1447.9000244 19.145053864 145.77047729 0.6161289215 12.447298050 0.4922670126
 1448.0000000 19.218238831 144.60884094 0.6174756289 12.350358963 0.4959692955
 1448.0999756 19.234222412 143.41348267 0.6231430769 12.242378235 0.5163348913
 1448.1999512 19.191970825 142.75347900 0.6306548119 12.163913727 0.5503485203
 1448.2999268 19.113132477 142.59771729 0.6371884346 12.137313843 0.5903625488
 1448.4000244 19.028633118 143.08459473 0.6404167414 12.157848358 0.6263272762
 1448.5000000 18.963035583 144.44873047 0.6396282911 12.199150085 0.6494933367
 1448.5999756 18.923782349 146.15830994 0.6362395287 12.227138519 0.6560807228
 1448.7000732 18.902206421 148.28164673 0.6334285736 12.221281052 0.6486519575
 1448.8000488 18.889739990 150.12641907 0.6349095106 12.180395126 0.6344151497
 1448.9000244 18.892173767 151.52403259 0.6433354616 12.120023727 0.6214725971
 1449.0001221 18.919433594 152.11654663 0.6593761444 12.063972473 0.6152409315
 1449.0999756 18.967060089 152.10034180 0.6816010475 12.035312653 0.6171584129
 1449.1999512 19.020599365 151.95433044 0.7064820528 12.044134140 0.6253770590
 1449.2999268 19.060783386 151.84535217 0.7290248871 12.085006714 0.6363370419
 1449.4000244 19.071506500 151.93826294 0.7443709373 12.140363693 0.6463049650
 1449.5000000 19.048057556 152.08410645 0.7496520281 12.185361862 0.6522327662
 1449.5999756 19.000350952 152.19360352 0.7448941469 12.195257187 0.6522976160
 1449.6999512 18.946830750 152.07475281 0.7327599525 12.158689499 0.6463260651
 1449.8000488 18.905307770 151.80455017 0.7172461748 12.083932877 0.6359221935
 1449.9000244 18.884098053 151.28363037 0.7022577524 11.993816376 0.6240861416
 1450.0000000 18.881629944 150.54530334 0.6906266212 11.913665771 0.6141693592
 1450.1000977 18.891620636 149.65649414 0.6836442947 11.858394623 0.6087393761
 1450.2000732 18.909881592 148.53048706 0.6809839010 11.826438904 0.6089324951
 1450.2999268 18.933311462 147.29550171 0.6813609600 11.803709030 0.6142905951
 1450.3999023 18.957225800 145.98219299 0.6832015514 11.774192810 0.6229506731
 1450.5000000 18.976619720 144.59036255 0.6851077080 11.734649658 0.6325585842
 1450.5999756 18.991333008 143.35957336 0.6862182617 11.696763992 0.6412395239
 1450.6999512 19.007892609 142.28829956 0.6864407063 11.679645538 0.6478000879
 1450.8000488 19.028057098 142.07272339 0.6863757372 11.696605682 0.6516884565
 1450.9000244 19.044830322 142.67430115 0.6868698597 11.746946335 0.6531187296
 1451.0000000 19.046451569 144.02947998 0.6885520220 11.817420959 0.6530426741
 1451.1000977 19.024894714 146.11448669 0.6916029453 11.890628815 0.6526911259
 1451.2000732 18.981193542 147.87133789 0.6957869530 11.951124191 0.6533508301
 1451.3000488 18.926044464 149.26074219 0.7005468607 11.988800049 0.6557842493
 1451.4000244 18.872833252 149.62924194 0.7052572966 12.003234863 0.6596268415
 1451.5000000 18.828624725 149.70231628 0.7091885805 12.003417969 0.6636269093
 1451.5999756 18.793880463 149.45051575 0.7113511562 11.993204117 0.6658325195
 1451.6999512 18.764186859 149.54229736 0.7107983828 11.967386246 0.6640778780
 1451.7999268 18.733917236 149.92448425 0.7074015141 11.918888092 0.6575505733
 1451.9000244 18.704658508 150.72735596 0.7022223473 11.846118927 0.6477184296
 1452.0000000 18.683280945 151.40512085 0.6970199347 11.759771347 0.6377944946
 1452.0999756 18.672676086 151.70420837 0.6932238340 11.684440613 0.6312445402
 1452.2000732 18.670211792 151.26887512 0.6913174391 11.655231476 0.6300382614
 1452.3000488 18.670211792 150.01814270 0.6909289360 11.699167252 0.6335769892
 1452.4000244 18.670211792 148.49269104 0.6912723780 11.816019058 0.6392443180
 1452.5001221 18.670211792 146.77174377 0.6914330721 11.975769043 0.6441696882
 1452.6000977 18.670211792 145.59060669 0.6905918121 12.131702423 0.6466107368
 1452.6999512 18.670211792 144.86045837 0.6884530783 12.245195389 0.6463706493
 1452.7999268 18.670211792 145.04927063 0.6853433847 12.297601700 0.6441776752
 1452.9000244 18.670211792 145.93693542 0.6819489002 12.286546707 0.6404654980
 1453.0000000 18.670211792 147.20649719 0.6789815426 12.217975616 0.6350855827
 1453.0999756 18.670211792 148.89634705 0.6769994497 12.100723267 0.6280642748
 1453.1999512 18.670211792 150.36634827 0.6762268543 11.945924759 0.6201784611
 1453.3000488 18.670829773 151.55546570 0.6762816906 11.770141602 0.6130263805
 1453.4000244 18.673324585 151.66513062 0.6761819124 11.597433090 0.6082718372
 1453.5000000 18.679122925 150.77806091 0.6749161482 11.461488724 0.6064848900
 1453.6000977 18.689666748 149.19427490 0.6720582247 11.390792847 0.6065300703
 1453.7000732 18.703372955 146.96669006 0.6679297686 11.397821426 0.6062405109
 1453.7999268 18.718723297 145.18446350 0.6632847786 11.475910187 0.6036304235
 1453.8999023 18.736698151 143.79310608 0.6590549946 11.603057861 0.5980298519
 1454.0000000 18.756454468 143.66879272 0.6562480927 11.748497009 0.5905838013
 1454.0999756 18.774089813 144.01002502 0.6557428837 11.881465912 0.5840245485
 1454.1999512 18.784225464 144.78909302 0.6578695774 11.978490829 0.5816807747
 1454.3000488 18.782356262 145.56419373 0.6622164249 12.025173187 0.5864323378
