# LAS format log file from PETREL
# Project units are specified as depth units
#==================================================================
~Version information
VERS.   2.0:
WRAP.   NO:
#==================================================================
~Well
STRT .m      855.12506104 :
STOP .m      3436.8750000 :
STEP .m     0.00000000 :
NULL .        -999.250000 :
COMP.           : COMPANY
WELL.  7/7-2 Brynhild   : WELL
FLD.            : FIELD
LOC.            : LOCATION
SRVC.           : SERVICE COMPANY
DATE.  2018-09-11 21:49:22   : Log Export Date {yyyy-MM-dd HH:mm:ss}
PROV.           : PROVINCE
UWI.   7/7-2   : UNIQUE WELL ID
API.            : API NUMBER
#==================================================================
~Curve
DEPT .m                   : DEPTH
CALI .in                  : CALI
DRHO .g/cm3               : DRHO
NPHI .m3/m3               : NPHI
RHOB .g/cm3               : RHOB
GR .gAPI                  : GR
DTC .us/ft                : DTC
RDEP .ohm.m               : RDEP
SP .mV                    : SP
RSHA .ohm.m               : RSHA
RMED .ohm.m               : RMED
~Parameter
#==================================================================
~Ascii
# ...
 1198.1250000 5.5273995399  -999.250000  -999.250000  -999.250000 74.459297180 162.15774536 1.2434999943 56.899040222  -999.250000 0.8884999752
 1198.2500000 5.5273995399  -999.250000  -999.250000  -999.250000 74.025901794 162.17793274 1.2436000109 56.658378601  -999.250000 0.8780999780
 1198.3750000 5.5273995399  -999.250000  -999.250000  -999.250000 76.054801941 162.17843628 1.2469999790 56.882217407  -999.250000 0.8758000135
 1198.5000000 5.5273995399  -999.250000  -999.250000  -999.250000 80.660301208 162.18177795 1.2533999681 56.902011871  -999.250000 0.8889999986
 1198.6250000 5.5273995399  -999.250000  -999.250000  -999.250000 84.565498352 162.17459106 1.2596000433 57.152824402  -999.250000 0.8822000027
 1198.7500000 5.5273995399  -999.250000  -999.250000  -999.250000 78.478797913 162.18336487 1.2611999512 57.018993378  -999.250000 0.8762000203
 1198.8750000 5.5273995399  -999.250000  -999.250000  -999.250000 75.792297363 162.09155273 1.2621999979 57.276767731  -999.250000 0.8708999753
 1199.0000000 5.5273995399  -999.250000  -999.250000  -999.250000 69.682197571 162.12417603 1.2641999722 57.418655396  -999.250000 0.8647000194
 1199.1250000 5.5273995399  -999.250000  -999.250000  -999.250000 69.800796509 162.18069458 1.2682000399 57.358802795  -999.250000 0.8672999740
 1199.2500000 5.5273995399  -999.250000  -999.250000  -999.250000 79.006698608 162.17567444 1.2548999786 57.895847321  -999.250000 0.8690000176
 1199.3750000 5.5273995399  -999.250000  -999.250000  -999.250000 78.172599792 162.18444824 1.2447999716 57.692207336  -999.250000 0.8569999933
 1199.5000000 5.5273995399  -999.250000  -999.250000  -999.250000 70.133697510 162.18449402 1.2451000214 57.270809174  -999.250000 0.8546000123
 1199.6250000 5.5273995399  -999.250000  -999.250000  -999.250000 74.254898071 162.17768860 1.2455999851 57.216754913  -999.250000 0.8546000123
 1199.7500000 5.5273995399  -999.250000  -999.250000  -999.250000 72.744796753 162.12419128 1.2448999882 56.592910767  -999.250000 0.8488000035
 1199.8750000 5.5273995399  -999.250000  -999.250000  -999.250000 73.778999329 162.09529114 1.2451000214 55.976482391  -999.250000 0.8478999734
 1200.0000000 5.5273995399  -999.250000  -999.250000  -999.250000 77.507698059 162.17483521 1.2534999847 56.045059204  -999.250000 0.8661000133
 1200.1250000 5.5273995399  -999.250000  -999.250000  -999.250000 75.039100647 162.18360901 1.2673000097 56.409015656  -999.250000 0.8679000139
 1200.2500000 5.5273995399  -999.250000  -999.250000  -999.250000 69.821098328 162.17660522 1.2696000338 56.219226837  -999.250000 0.8690000176
 1200.3750000 5.5273995399  -999.250000  -999.250000  -999.250000 69.925102234 162.17976379 1.2783999443 56.575366974  -999.250000 0.8700000048
 1200.5000000 5.5273995399  -999.250000  -999.250000  -999.250000 63.988399506 162.13941956 1.3014999628 56.987316132  -999.250000 0.8780999780
 1200.6250000 5.5273995399  -999.250000  -999.250000  -999.250000 69.598396301 162.08880615 1.3147000074 56.223243713  -999.250000 0.8795999885
 1200.7500000 5.5273995399  -999.250000  -999.250000  -999.250000 81.006599426 162.18429565 1.3128999472 56.130939484  -999.250000 0.8772000074
 1200.8750000 5.5273995399  -999.250000  -999.250000  -999.250000 78.183296204 162.17552185 1.3170000315 56.074584961  -999.250000 0.8719999790
 1201.0000000 5.5273995399  -999.250000  -999.250000  -999.250000 73.827697754 162.18084717 1.3169000149 56.007289886  -999.250000 0.8752999902
 1201.1250000 5.5273995399  -999.250000  -999.250000  -999.250000 77.193901062 162.17936707 1.3200000525 56.036060333  -999.250000 0.8928999901
 1201.2500000 5.5273995399  -999.250000  -999.250000  -999.250000 77.388999939 162.17700195 1.3428000212 55.903541565  -999.250000 0.8960999846
 1201.3750000 5.5273995399  -999.250000  -999.250000  -999.250000 70.196403503 162.17025757 1.3615000248 56.509689331  -999.250000 0.8913000226
 1201.5000000 5.5273995399  -999.250000  -999.250000  -999.250000 81.173797607 162.07237244 1.3694000244 56.663280487  -999.250000 0.8992000222
 1201.6250000 5.5273995399  -999.250000  -999.250000  -999.250000 80.621002197 162.14772034 1.3568999767 56.697532654  -999.250000 0.8942000270
 1201.7500000 5.5273995399  -999.250000  -999.250000  -999.250000 76.681198120 162.18000793 1.3445999622 57.068935394  -999.250000 0.9021999836
 1201.8750000 5.5273995399  -999.250000  -999.250000  -999.250000 75.849899292 162.18020630 1.3377000093 56.772865295  -999.250000 0.8841999769
 1202.0000000 5.5273995399  -999.250000  -999.250000  -999.250000 69.550399780 162.17614746 1.3288999796 56.243080139  -999.250000 0.8860999942
 1202.1250000 5.5273995399  -999.250000  -999.250000  -999.250000 69.514503479 162.18405151 1.3079999685 55.743286133  -999.250000 0.8955000043
 1202.2500000 5.5273995399  -999.250000  -999.250000  -999.250000 71.230102539 162.17529297 1.2743999958 56.080619812  -999.250000 0.8967999816
 1202.3750000 5.5273995399  -999.250000  -999.250000  -999.250000 74.137702942 162.09983826 1.2532000542 55.647560120  -999.250000 0.8934000134
 1202.5000000 5.5273995399  -999.250000  -999.250000  -999.250000 80.354698181 162.12498474 1.2538000345 55.473365784  -999.250000 0.8805999756
 1202.6250000 5.5273995399  -999.250000  -999.250000  -999.250000 71.772903442 162.18449402 1.2590999603 56.182529449  -999.250000 0.8654000163
 1202.7500000 5.5273995399  -999.250000  -999.250000  -999.250000 69.232902527 162.18298340 1.2616000175 55.537292480  -999.250000 0.8515999913
 1202.8750000 5.5273995399  -999.250000  -999.250000  -999.250000 73.066001892 162.17419434 1.2491999865 55.692008972  -999.250000 0.8521999717
 1203.0000000 5.5273995399  -999.250000  -999.250000  -999.250000 69.244697571 162.18215942 1.2374999523 56.149662018  -999.250000 0.8633000255
 1203.1250000 5.5273995399  -999.250000  -999.250000  -999.250000 69.053100586 162.17805481 1.2297999859 56.064769745  -999.250000 0.8712000251
 1203.2500000 5.5273995399  -999.250000  -999.250000  -999.250000 73.582702637 162.12788391 1.2151000500 55.808292389  -999.250000 0.8652999997
 1203.3750000 5.5273995399  -999.250000  -999.250000  -999.250000 80.792396545 162.09416199 1.1948000193 55.753776550  -999.250000 0.8592000008
 1203.5000000 5.5273995399  -999.250000  -999.250000  -999.250000 75.286102295 162.18382263 1.1941000223 55.748775482  -999.250000 0.8555999994
 1203.6250000 5.5273995399  -999.250000  -999.250000  -999.250000 77.443801880 162.17504883 1.2127000093 55.221607208  -999.250000 0.8568000197
 1203.7500000 5.5273995399  -999.250000  -999.250000  -999.250000 73.894996643 162.18132019 1.2108999491 55.068229675  -999.250000 0.8673999906
 1203.8750000 5.5273995399  -999.250000  -999.250000  -999.250000 70.431297302 162.17889404 1.1757999659 55.008190155  -999.250000 0.8647000194
 1204.0000000 5.5273995399  -999.250000  -999.250000  -999.250000 79.903198242 162.17747498 1.1586999893 54.625606537  -999.250000 0.8428999782
 1204.1250000 5.5273995399  -999.250000  -999.250000  -999.250000 76.906898499 162.16317749 1.1532000303 54.846633911  -999.250000 0.8379999995
 1204.2500000 5.5273995399  -999.250000  -999.250000  -999.250000 71.536598206 162.05667114 1.1426999569 54.812255859  -999.250000 0.8457000256
 1204.3750000 5.5273995399  -999.250000  -999.250000  -999.250000 71.607498169 162.15910339 1.1511000395 55.389369965  -999.250000 0.8636999726
 1204.5000000 5.5273995399  -999.250000  -999.250000  -999.250000 73.390197754 162.18449402 1.1787999868 56.117118835  -999.250000 0.8704000115
 1204.6250000 5.5273995399  -999.250000  -999.250000  -999.250000 72.098297119 162.18449402 1.2182999849 55.932331085  -999.250000 0.8640000224
 1204.7500000 5.5273995399  -999.250000  -999.250000  -999.250000 62.751399994 162.18165588 1.2165000439 56.564582825  -999.250000 0.8533999920
 1204.8750000 5.5273995399  -999.250000  -999.250000  -999.250000 68.560997009 162.17471313 1.2098000050 56.215831757  -999.250000 0.8457000256
 1205.0000000 5.5273995399  -999.250000  -999.250000  -999.250000 68.821197510 162.18348694 1.2037999630 56.071418762  -999.250000 0.8661000133
