# LAS format log file from PETREL
# Project units are specified as depth units
#==================================================================
~Version information
VERS.   2.0:
WRAP.   NO:
#==================================================================
~Well
STRT .m      855.12506104 :
STOP .m      3436.8750000 :
STEP .m     0.00000000 :
NULL .        -999.250000 :
COMP.           : COMPANY
WELL.  7/7-2 Brynhild   : WELL
FLD.            : FIELD
LOC.            : LOCATION
SRVC.           : SERVICE COMPANY
DATE.  2018-09-11 21:49:22   : Log Export Date {yyyy-MM-dd HH:mm:ss}
PROV.           : PROVINCE
UWI.   7/7-2   : UNIQUE WELL ID
API.            : API NUMBER
#==================================================================
~Curve
DEPT .m                   : DEPTH
CALI .in                  : CALI
DRHO .g/cm3               : DRHO
NPHI .m3/m3               : NPHI
RHOB .g/cm3               : RHOB
GR .gAPI                  : GR
DTC .us/ft                : DTC
RDEP .ohm.m               : RDEP
SP .mV                    : SP
RSHA .ohm.m               : RSHA
RMED .ohm.m               : RMED
~Parameter
#==================================================================
~Ascii
# ...
 3256.1250000 12.755000114 -0.042800002 0.3337000012 2.3475356102 123.82669830 125.30603027 3.3884000778  -999.250000 942.70288086 3.8743999004
 3256.2500000 12.887498856 0.0168999992 0.4467000067 2.3883919716 123.04090118 126.21739960 3.3647999763  -999.250000 942.70288086 4.1932997704
 3256.3750000 12.788100243 0.0676999986 0.4532999992 2.4171056747 138.03640747 126.83642578 3.3426001072  -999.250000 942.70288086 4.6929001808
 3256.5002441 12.562500000 0.0392000005 0.4131000042 2.3647761345 136.28610229 127.33548737 3.3327000141  -999.250000 942.70288086 4.9299001694
 3256.6252441 12.562500000 0.0445999987 0.4205000103 2.3676800728 139.49639893 128.08105469 3.3074998856  -999.250000 942.70288086 4.5671000481
 3256.7497559 12.562500000 0.0599000007 0.5753999949 2.3879709244 139.18020630 128.27566528 3.3106999397  -999.250000 942.70288086 4.4534001350
 3256.8750000 12.562500000 0.0485000014 0.5254999995 2.3697404861 149.58680725 128.62686157 3.3945000172  -999.250000 942.70288086 4.5295000076
 3257.0000000 12.562500000 0.0653000027 0.4677999914 2.3930225372 149.32890320 129.01829529 3.4788000584  -999.250000 942.70288086 4.8180999756
 3257.1250000 12.562500000 0.0472000018 0.3885999918 2.3749089241 143.37269592 129.48806763 3.5587999821  -999.250000 942.70288086 4.6753001213
 3257.2500000 12.562500000 0.0432000011 0.4611999989 2.3788666725 143.03460693 130.01283264 3.6094000340  -999.250000 942.70288086 5.7617998123
 3257.3750000 12.562500000 0.0364999995 0.4672000110 2.3608055115 144.78990173 129.98812866 3.6236999035  -999.250000 942.70288086 5.7119002342
 3257.5000000 12.562500000 0.0379000008 0.4830999970 2.3709969521 144.81340027 129.98609924 3.6064999104  -999.250000 942.70288086 5.7143001556
 3257.6250000 12.562500000 0.0562000014 0.6291000247 2.4107379913 149.47689819 129.71319580 3.5724000931  -999.250000 942.70288086 5.7143001556
 3257.7500000 12.562500000 0.0419000015 0.5048000216 2.4002103806 140.17579651 129.33425903 3.5641000271  -999.250000 942.70288086 5.7143001556
 3257.8750000 12.562500000 0.0593999997 0.3910999894 2.4213929176 138.51820374 129.05703735 3.5483000278  -999.250000 942.70288086 5.7143001556
 3258.0000000 12.562500000 0.0562000014 0.4598000050 2.3979341984 140.33219910 129.03210449 3.5915999413  -999.250000 942.70288086 5.7185001373
 3258.1250000 12.564999580 0.0430999994 0.3564000130 2.3559665680 137.33999634 129.03210449 3.7383999825  -999.250000 942.70288086 5.7199001312
 3258.2500000 12.630200386 0.0542999990 0.4505999982 2.3655862808 144.74150085 129.83474731 3.9339001179  -999.250000 942.70288086 5.7248997688
 3258.3750000 12.562500000 0.0549000017 0.4512000084 2.3683218956 144.78570557 130.59191895 4.1020998955  -999.250000 942.70288086 5.7248997688
 3258.5000000 12.562500000 0.0516999997 0.5893999934 2.3745417595 133.61900330 130.80995178 4.2227997780  -999.250000 942.70288086 5.7890000343
 3258.6250000 12.562500000 0.0551000014 0.4131999910 2.3804602623 130.94900513 130.30282593 4.2532000542  -999.250000 942.70288086 5.7768001556
 3258.7500000 12.562500000 0.0337999985 0.5098999739 2.3382749557 129.79530334 129.32592773 4.2722997665  -999.250000 942.70288086 6.0810999870
 3258.8752441 12.562500000 0.0395000018 0.4287000000 2.3307442665 122.13890076 128.90054321 4.3111000061  -999.250000 942.70288086 5.9862999916
 3258.9997559 12.562500000 0.0164000001 0.4199999869 2.2945442200 106.64610291 128.65214539 4.3425002098  -999.250000 942.70288086 5.9190001488
 3259.1247559 12.562500000 0.0438000001 0.5074999928 2.3382802010 107.69599915 128.76542664 4.3881998062  -999.250000 942.70288086 5.8977999687
 3259.2500000 12.562500000 0.0670000017 0.3903000057 2.3501672745 96.824203491 128.94395447 4.4194998741  -999.250000 942.70288086 5.8551001549
 3259.3750000 12.562500000 0.0837000012 0.4325000048 2.3827447891 92.294296265 128.46160889 4.4161000252  -999.250000 942.70288086 5.8074998856
 3259.5000000 12.562500000 0.0261000004 0.3869000077 2.3375725746 86.963798523 127.09386444 4.3847999573  -999.250000 942.70288086 5.4053001404
 3259.6250000 12.562500000 0.0483000018 0.3880000114 2.3805255890 86.213500977 126.55374146 4.2978000641  -999.250000 942.70288086 4.8846998215
 3259.7500000 12.562500000 0.0535000004 0.3553000093 2.3657355309 82.670196533 126.05837250 4.2206001282  -999.250000 942.70288086 4.8931999207
 3259.8750000 12.562500000 0.0469000004 0.3510999978 2.3576159477 83.221702576 125.79781342 4.1525998116  -999.250000 942.70288086 4.8626999855
 3260.0000000 12.562500000 0.0659999996 0.4799999893 2.3790655136 90.859100342 126.00629425 4.1255002022  -999.250000 942.70288086 4.9643001556
 3260.1250000 12.562500000 0.0513000004 0.4896999896 2.3479580879 92.252502441 126.39704895 4.1003999710  -999.250000 942.70288086 5.1886000633
 3260.2500000 12.562500000 0.0390999988 0.4070999920 2.3267397881 94.028701782 127.35829163 4.0795998573  -999.250000 942.70288086 5.2462000847
 3260.3750000 12.562500000 0.0549999997 0.4176000059 2.3361582756 102.32589722 128.06274414 4.0408000946  -999.250000 942.70288086 5.4303998947
 3260.5000000 12.562500000 0.0694999993 0.4036999941 2.3614087105 108.99469757 128.54368591 3.9934999943  -999.250000 942.70288086 5.2883000374
 3260.6250000 12.562500000 0.0538999997 0.4291999936 2.3793692589 111.27179718 128.67062378 3.9558000565  -999.250000 942.70288086 5.0006999969
 3260.7500000 12.562500000 0.0219999999 0.4354000092 2.3216667175 109.74210358 128.24311829 3.8773000240  -999.250000 942.70288086 5.0752000809
 3260.8750000 12.562500000 0.0383000001 0.4309999943 2.3337826729 106.75240326 127.46035004 3.7434000969  -999.250000 942.70288086 5.2178997993
 3261.0000000 12.562500000 0.0505000018 0.4381999969 2.3587980270 102.69940186 126.50634766 3.6071999073  -999.250000 942.70288086 5.0987000465
 3261.1252441 12.562500000 0.0469999984 0.4702000022 2.3734807968 102.63960266 125.54655457 3.5912001133  -999.250000 942.70288086 4.3323001862
 3261.2502441 12.562500000 0.0680999979 0.4004000127 2.4598326683 101.42359924 124.91586304 3.6064000130  -999.250000 942.70288086 4.1616997719
 3261.3747559 12.564999580 -0.005700000 0.4022000134 2.3559703827 99.667098999 124.78135681 3.6040000916  -999.250000 942.70288086 5.2611999512
 3261.4997559 12.630499840 0.0626000017 0.4368999898 2.3969273567 96.227699280 124.97673798 3.5875999928  -999.250000 942.70288086 5.3565998077
 3261.6250000 12.565799713 0.0531999990 0.4266999960 2.3352389336 103.65969849 124.97750092 3.5817999840  -999.250000 820.42712402 5.4082999229
 3261.7500000 12.656300545 0.0454000011 0.3632999957 2.3572187424 103.75440216 124.84960938 3.5696001053  -999.250000 942.70288086 5.3801999092
 3261.8750000 12.656300545 0.0524999984 0.3794000149 2.3941683769 97.158096313 124.21126556 3.6038000584  -999.250000 942.70288086 5.3172001839
 3262.0000000 12.656300545 0.0362999998 0.4061999917 2.3825750351 108.81819916 123.14572144 3.7453000546  -999.250000 942.70288086 5.3260998726
 3262.1250000 12.656300545 0.0625000000 0.3610000014 2.4229979515 112.89260101 122.16279602 3.8951001167  -999.250000 820.42712402 5.1319999695
 3262.2500000 12.656300545 0.0483000018 0.4074000120 2.3909335136 118.66729736 122.55417633 3.9923999310  -999.250000 942.70288086 5.2189002037
 3262.3750000 12.656300545 0.0410000011 0.3515000045 2.4001808167 126.56310272 122.97606659 4.0611000061  -999.250000 942.70288086 5.0908999443
 3262.5000000 12.656300545 0.0195000004 0.4544000030 2.3702979088 121.52870178 123.62258911 4.1085000038  -999.250000 841.06701660 4.9661002159
 3262.6250000 12.656300545 0.0500000007 0.5284000039 2.3944492340 128.85719299 124.38671875 4.1125998497  -999.250000 814.79809570 5.1339998245
 3262.7500000 12.656300545 0.0626000017 0.4293000102 2.4086022377 142.87719727 124.97750092 4.0770001411  -999.250000 814.79809570 5.3678998947
 3262.8750000 12.656300545 0.0573999994 0.4129999876 2.3941001892 147.44700623 124.97750092 4.0795001984  -999.250000 814.79809570 5.3056001663
 3263.0000000 12.656300545 0.0527999997 0.4612999856 2.3785438538 136.84629822 124.97750092 4.1181001663  -999.250000 814.79809570 5.2674999237
