# LAS format log file from PETREL
# Project units are specified as depth units
#==================================================================
~Version information
VERS.   2.0:
WRAP.   NO:
#==================================================================
~Well
STRT .m      855.12506104 :
STOP .m      3436.8750000 :
STEP .m     0.00000000 :
NULL .        -999.250000 :
COMP.           : COMPANY
WELL.  7/7-2 Brynhild   : WELL
FLD.            : FIELD
LOC.            : LOCATION
SRVC.           : SERVICE COMPANY
DATE.  2018-09-11 21:49:22   : Log Export Date {yyyy-MM-dd HH:mm:ss}
PROV.           : PROVINCE
UWI.   7/7-2   : UNIQUE WELL ID
API.            : API NUMBER
#==================================================================
~Curve
DEPT .m                   : DEPTH
CALI .in                  : CALI
DRHO .g/cm3               : DRHO
NPHI .m3/m3               : NPHI
RHOB .g/cm3               : RHOB
GR .gAPI                  : GR
DTC .us/ft                : DTC
RDEP .ohm.m               : RDEP
SP .mV                    : SP
RSHA .ohm.m               : RSHA
RMED .ohm.m               : RMED
~Parameter
#==================================================================
~Ascii
# ...
 1373.1250000 5.5273995399  -999.250000  -999.250000  -999.250000 76.838600159 162.18354797 0.9530000091 53.311904907  -999.250000 0.7644000053
 1373.2500000 5.5273995399  -999.250000  -999.250000  -999.250000 71.533096313 162.17477417 0.9643999934 53.345333099  -999.250000 0.7447999716
 1373.3750000 5.5273995399  -999.250000  -999.250000  -999.250000 76.191497803 162.18159485 0.9833999872 53.399887085  -999.250000 0.7285000086
 1373.5000000 5.5273995399  -999.250000  -999.250000  -999.250000 76.251098633 162.18449402 0.9990000129 53.572547913  -999.250000 0.7192999721
 1373.6250000 5.5273995399  -999.250000  -999.250000  -999.250000 74.851699829 162.18449402 0.9756000042 53.519626617  -999.250000 0.7136999965
 1373.7500000 5.5273995399  -999.250000  -999.250000  -999.250000 68.893203735 162.15992737 0.9404000044 53.944576263  -999.250000 0.7340999842
 1373.8750000 5.5273995399  -999.250000  -999.250000  -999.250000 74.989402771 162.05584717 0.9257000089 54.175819397  -999.250000 0.7498999834
 1374.0001221 5.5273995399  -999.250000  -999.250000  -999.250000 75.549797058 162.16244507 0.9272000194 54.282035828  -999.250000 0.7513999939
 1374.1248779 5.5273995399  -999.250000  -999.250000  -999.250000 79.265296936 162.17755127 0.9121999741 54.387359619  -999.250000 0.7391999960
 1374.2500000 5.5273995399  -999.250000  -999.250000  -999.250000 77.470199585 162.17881775 0.8986999989 54.185527802  -999.250000 0.7616999745
 1374.3750000 5.5273995399  -999.250000  -999.250000  -999.250000 68.772102356 162.18139648 0.9165999889 53.716049194  -999.250000 0.7788000107
 1374.5000000 5.5273995399  -999.250000  -999.250000  -999.250000 76.778503418 162.17497253 0.9476000071 53.650455475  -999.250000 0.7680000067
 1374.6250000 5.5273995399  -999.250000  -999.250000  -999.250000 78.318496704 162.18374634 0.9564999938 53.926837921  -999.250000 0.7379999757
 1374.7500000 5.5273995399  -999.250000  -999.250000  -999.250000 74.465202332 162.09492493 0.9494000077 54.029937744  -999.250000 0.7235999703
 1374.8750000 5.5273995399  -999.250000  -999.250000  -999.250000 73.924102783 162.12719727 0.9509000182 54.214492798  -999.250000 0.7552999854
 1375.0000000 5.5273995399  -999.250000  -999.250000  -999.250000 74.091400146 162.17797852 0.9478999972 54.565437317  -999.250000 0.7882999778
 1375.1251221 5.5273995399  -999.250000  -999.250000  -999.250000 73.741401672 162.18222046 0.9241999984 54.002506256  -999.250000 0.7910000086
 1375.2498779 5.5273995399  -999.250000  -999.250000  -999.250000 75.806999207 162.17413330 0.9096000195 53.812946320  -999.250000 0.7754999995
 1375.3750000 5.5273995399  -999.250000  -999.250000  -999.250000 82.043502808 162.18290710 0.9190999866 53.724910736  -999.250000 0.7655000091
 1375.5000000 5.5273995399  -999.250000  -999.250000  -999.250000 82.410400391 162.10429382 0.9325000048 53.523990631  -999.250000 0.7635999918
 1375.6250000 5.5273995399  -999.250000  -999.250000  -999.250000 73.587898254 162.12394714 0.9215999842 53.650047302  -999.250000 0.7605000138
 1375.7500000 5.5273995399  -999.250000  -999.250000  -999.250000 67.316902161 162.18115234 0.9082999825 53.237133026  -999.250000 0.7455000281
 1375.8750000 5.5273995399  -999.250000  -999.250000  -999.250000 68.861999512 162.17521667 0.9065999985 53.768203735  -999.250000 0.7225999832
 1376.0000000 5.5273995399  -999.250000  -999.250000  -999.250000 74.792701721 162.18399048 0.9011999965 54.002655029  -999.250000 0.7052999735
 1376.1250000 5.5273995399  -999.250000  -999.250000  -999.250000 74.066802979 162.17622375 0.8881000280 53.966415405  -999.250000 0.6998000145
 1376.2500000 5.5273995399  -999.250000  -999.250000  -999.250000 74.311500549 162.18014526 0.8866999745 54.647998810  -999.250000 0.7100999951
 1376.3748779 5.5273995399  -999.250000  -999.250000  -999.250000 69.848297119 162.13088989 0.9016000032 54.663677216  -999.250000 0.7063999772
 1376.5000000 5.5273995399  -999.250000  -999.250000  -999.250000 64.821502686 162.08496094 0.9131000042 54.786384583  -999.250000 0.6970000267
 1376.6250000 5.5273995399  -999.250000  -999.250000  -999.250000 74.132499695 162.18449402 0.9236999750 54.910564423  -999.250000 0.6958000064
 1376.7500000 5.5273995399  -999.250000  -999.250000  -999.250000 78.383201599 162.18449402 0.9296000004 54.342693329  -999.250000 0.7256000042
 1376.8750000 5.5273995399  -999.250000  -999.250000  -999.250000 79.901901245 162.17706299 0.9366999865 53.659656525  -999.250000 0.7591999769
 1377.0000000 5.5273995399  -999.250000  -999.250000  -999.250000 74.001502991 162.17930603 0.9484999776 53.387294769  -999.250000 0.7876999974
 1377.1250000 5.5273995399  -999.250000  -999.250000  -999.250000 80.039703369 162.18090820 0.9623000026 53.153511047  -999.250000 0.7961000204
 1377.2500000 5.5273995399  -999.250000  -999.250000  -999.250000 81.181701660 162.15693665 0.9695000052 53.044422150  -999.250000 0.7973999977
 1377.3750000 5.5273995399  -999.250000  -999.250000  -999.250000 73.499000549 162.06790161 1.0037000179 53.198703766  -999.250000 0.7954000235
 1377.5001221 5.5273995399  -999.250000  -999.250000  -999.250000 70.675102234 162.16021729 1.0159000158 53.449546814  -999.250000 0.7756000161
 1377.6248779 5.5273995399  -999.250000  -999.250000  -999.250000 78.289199829 162.18449402 1.0074000359 53.173259735  -999.250000 0.7735000253
 1377.7500000 5.5273995399  -999.250000  -999.250000  -999.250000 77.679801941 162.17982483 1.0113999844 53.080936432  -999.250000 0.7782999873
 1377.8750000 5.5273995399  -999.250000  -999.250000  -999.250000 79.374702454 162.17654419 1.0207999945 53.008747101  -999.250000 0.7892000079
 1378.0000000 5.5273995399  -999.250000  -999.250000  -999.250000 76.980300903 162.18368530 1.0127999783 52.995403290  -999.250000 0.7846000195
 1378.1250000 5.5273995399  -999.250000  -999.250000  -999.250000 73.781799316 162.17489624 1.0058000088 53.718063354  -999.250000 0.7799999714
 1378.2500000 5.5273995399  -999.250000  -999.250000  -999.250000 75.022796631 162.09597778 1.0247999430 53.520324707  -999.250000 0.7827000022
 1378.3750000 5.5273995399  -999.250000  -999.250000  -999.250000 73.170402527 162.12924194 1.0404000282 53.769298553  -999.250000 0.7857999802
 1378.5000000 5.5273995399  -999.250000  -999.250000  -999.250000 75.230201721 162.18067932 1.0325000286 53.780426025  -999.250000 0.7882999778
 1378.6251221 5.5273995399  -999.250000  -999.250000  -999.250000 73.781799316 162.17570496 1.0096999407 53.718418121  -999.250000 0.7886999846
 1378.7498779 5.5273995399  -999.250000  -999.250000  -999.250000 76.448402405 162.18446350 1.0145000219 54.318542480  -999.250000 0.7914000154
 1378.8750000 5.5273995399  -999.250000  -999.250000  -999.250000 75.711097717 162.17575073 1.0045000315 54.218704224  -999.250000 0.7917000055
 1379.0000000 5.5273995399  -999.250000  -999.250000  -999.250000 71.112701416 162.18061829 0.9684000015 54.544204712  -999.250000 0.7807000279
 1379.1250000 5.5273995399  -999.250000  -999.250000  -999.250000 71.304298401 162.12495422 0.9557999969 55.259052277  -999.250000 0.7820000052
 1379.2500000 5.5273995399  -999.250000  -999.250000  -999.250000 69.451698303 162.09078979 0.9609000087 55.135749817  -999.250000 0.7821000218
 1379.3750000 5.5273995399  -999.250000  -999.250000  -999.250000 73.492996216 162.18449402 0.9656999707 54.620979309  -999.250000 0.7797999978
 1379.5000000 5.5273995399  -999.250000  -999.250000  -999.250000 79.639396667 162.18449402 0.9636999965 54.640670776  -999.250000 0.7664999962
 1379.6250000 5.5273995399  -999.250000  -999.250000  -999.250000 73.551399231 162.18449402 0.9739000201 54.732444763  -999.250000 0.7595999837
 1379.7500000 5.5273995399  -999.250000  -999.250000  -999.250000 76.658897400 162.17851257 0.9979000092 54.037925720  -999.250000 0.7635999918
 1379.8751221 5.5273995399  -999.250000  -999.250000  -999.250000 70.407699585 162.17787170 0.9894999862 53.859844208  -999.250000 0.7680000067
 1380.0000000 5.5273995399  -999.250000  -999.250000  -999.250000 63.099399567 162.15856934 0.9685999751 54.163913727  -999.250000 0.7692000270
