# LAS format log file from PETREL
# Project units are specified as depth units
#==================================================================
~Version information
VERS.   2.0:
WRAP.   NO:
#==================================================================
~Well
STRT .m      513.13079834 :
STOP .m      3511.9055176 :
STEP .m     0.00000000 :
NULL .        -999.250000 :
COMP.           : COMPANY
WELL.  7/7-1   : WELL
FLD.            : FIELD
LOC.            : LOCATION
SRVC.           : SERVICE COMPANY
DATE.  2018-09-11 21:49:22   : Log Export Date {yyyy-MM-dd HH:mm:ss}
PROV.           : PROVINCE
UWI.   7/7-1   : UNIQUE WELL ID
API.            : API NUMBER
#==================================================================
~Curve
DEPT .m                   : DEPTH
CALI .in                  : CALI
DRHO .g/cm3               : DRHO
NPHI .m3/m3               : NPHI
RHOB .g/cm3               : RHOB
GR .gAPI                  : GR
DTC .us/ft                : DTC
RDEP .ohm.m               : RDEP
SP .mV                    : SP
RSHA .ohm.m               : RSHA
RMIC .ohm.m               : RMIC
RMED .ohm.m               : RMED
~Parameter
#==================================================================
~Ascii
# ...
 2712.7199707 13.558799744 0.0003350000 0.3727000058 2.4416460991 93.143302917 111.08360291 0.6879000068 68.064598083 1.1667000055  -999.250000 0.7312999964
 2712.8725586 13.572199821 0.0098639997 0.3765000105 2.4097490311 92.809097290 111.20285034 0.6930000186 67.854301453 1.1030999422  -999.250000 0.7296000123
 2713.0249023 13.583499908 0.0158840008 0.3788000047 2.3811464310 92.276000977 112.71214294 0.6969000101 67.622001648 1.0520999432  -999.250000 0.7283999920
 2713.1772461 13.584199905 0.0038530000 0.3738000095 2.3725166321 90.719703674 115.11646271 0.6941000223 67.277198792 1.0661000013  -999.250000 0.7289999723
 2713.3295898 13.584898949 -0.008179000 0.3688000143 2.3844783306 89.163299561 117.49151611 0.6912999749 66.932403564 1.0800000429  -999.250000 0.7296000123
 2713.4821777 13.585599899 -0.020210000 0.3637999892 2.3991229534 87.607002258 117.51999664 0.6884999871 66.587600708 1.0939999819  -999.250000 0.7301999927
 2713.6345215 13.625800133 -0.009379000 0.3598000109 2.4028639793 80.838996887 116.77786255 0.7225000262 66.623100281 1.1057000160  -999.250000 0.7448999882
 2713.7868652 13.671299934 0.0045130001 0.3560000062 2.3964912891 73.372901917 116.33920288 0.7615000010 66.709503174 1.1171000004  -999.250000 0.7615000010
 2713.9392090 13.716799736 0.0184060000 0.3522000015 2.3819634914 65.906898499 116.31967926 0.8004000187 66.795997620 1.1284999847  -999.250000 0.7781000137
 2714.0915527 13.738700867 0.0228589997 0.3519999981 2.3698804379 61.465698242 116.10030365 0.8479999900 67.121803284 1.1531000137  -999.250000 0.8263000250
 2714.2441406 13.744900703 0.0210459996 0.3540999889 2.3689093590 59.032199860 116.08078003 0.9014000297 67.606697083 1.1864999533  -999.250000 0.8952999711
 2714.3964844 13.751100540 0.0192329995 0.3562999964 2.3723809719 56.598800659 115.87662506 0.9546999931 68.091499329 1.2197999954  -999.250000 0.9643999934
 2714.5488281 13.788499832 0.0166950002 0.3580000103 2.3756902218 55.876598358 116.01294708 1.0005999804 68.350303650 1.2292000055  -999.250000 1.0140999556
 2714.7011719 13.892000198 0.0126200002 0.3585999906 2.3786942959 58.787399292 115.58344269 1.0304000378 68.129402161 1.1875000000  -999.250000 1.0228999853
 2714.8537598 13.995498657 0.0085450001 0.3592999876 2.3807859421 61.698200226 115.04532623 1.0601999760 67.908401489 1.1457999945  -999.250000 1.0317000151
 2715.0061035 14.096200943 0.0048070000 0.3596000075 2.3810312748 64.521301270 113.83315277 1.0893000364 67.694999695 1.1071000099  -999.250000 1.0393999815
 2715.1584473 14.127199173 0.0093149999 0.3522000015 2.3854460716 65.203697205 112.47785187 1.0989999771 67.665000916 1.1407999992  -999.250000 1.0221999884
 2715.3107910 14.158300400 0.0138229998 0.3447000086 2.3883311749 65.886100769 112.05862427 1.1088000536 67.635002136 1.1744999886  -999.250000 1.0051000118
 2715.4633789 14.189299583 0.0183310006 0.3373000026 2.3893332481 66.568496704 112.47675323 1.1184999943 67.604896545 1.2081999779  -999.250000 0.9879000187
 2715.6157227 14.232999802 0.0189089999 0.3357000053 2.3890001774 68.347801208 114.88167572 1.1226999760 67.459503174 1.2488000393  -999.250000 0.9926000237
 2715.7680664 14.280799866 0.0182349999 0.3359000087 2.3888986111 70.476097107 117.43137360 1.1251000166 67.277297974 1.2914999723  -999.250000 1.0042999983
 2715.9204102 14.328499794 0.0175620001 0.3361000121 2.3873617649 72.604499817 118.96690369 1.1275000572 67.095100403 1.3343000412  -999.250000 1.0160000324
 2716.0727539 14.371600151 0.0188800003 0.3343999982 2.3843877316 78.815299988 118.94741058 1.1215000153 67.197898865 1.3295999765  -999.250000 1.0349999666
 2716.2253418 14.409399033 0.0223769993 0.3305000067 2.3807268143 89.489898682 118.63037872 1.1061999798 67.612197876 1.2733000517  -999.250000 1.0621000528
 2716.3776855 14.447299957 0.0258740000 0.3267000020 2.3829298019 100.16449738 117.45126343 1.0908999443 68.026397705 1.2168999910  -999.250000 1.0891000032
 2716.5300293 14.482099533 0.0280290004 0.3213000000 2.3967392445 108.55169678 116.45233917 1.0736999512 68.338302612 1.1743999720  -999.250000 1.0975999832
 2716.6823730 14.504401207 0.0247089993 0.3100000024 2.4100599289 107.60620117 115.64633179 1.0485999584 68.232200623 1.1886999607  -999.250000 1.0306999683
 2716.8349609 14.526800156 0.0213890001 0.2987000048 2.4110901356 106.66079712 115.90539551 1.0234999657 68.125999451 1.2029999495  -999.250000 0.9636999965
 2716.9873047 14.549099922 0.0180690009 0.2874000072 2.4023168087 105.71530151 115.85178375 0.9983999729 68.019897461 1.2173999548  -999.250000 0.8967999816
 2717.1396484 14.549099922 0.0201260000 0.2973000109 2.3948624134 106.28040314 116.41729736 0.9595000148 68.051803589 1.1978000402  -999.250000 0.8823999763
 2717.2919922 14.547100067 0.0226750001 0.3091999888 2.3935914040 106.98400116 117.35731506 0.9193999767 68.096199036 1.1750999689  -999.250000 0.8727999926
 2717.4445801 14.545000076 0.0252250005 0.3210999966 2.3970565796 107.68759918 118.03266144 0.8792999983 68.140701294 1.1525000334  -999.250000 0.8632000089
 2717.5969238 14.543399811 0.0250550006 0.3298000097 2.4011967182 108.57089996 117.70715332 0.8737000227 68.109397888 1.1654000282  -999.250000 0.8810999990
 2717.7492676 14.541999817 0.0233229995 0.3364999890 2.4058046341 109.55740356 117.49455261 0.8880000114 68.034500122 1.1987999678  -999.250000 0.9149000049
 2717.9016113 14.540599823 0.0215910003 0.3431999981 2.4148721695 110.54380035 117.04046631 0.9023000002 67.959503174 1.2321000099  -999.250000 0.9487000108
 2718.0541992 14.541000366 0.0221779998 0.3472999930 2.4271056652 111.09210205 116.85965729 0.9253000021 67.977897644 1.2527999878  -999.250000 0.9775999784
 2718.2065430 14.544899940 0.0269910004 0.3465999961 2.4319937229 110.84210205 116.75017548 0.9642000198 68.166297913 1.2503999472  -999.250000 0.9976000190
 2718.3588867 14.548700333 0.0318039991 0.3459999859 2.4229083061 110.59200287 116.57800293 1.0031000376 68.354598999 1.2479000092  -999.250000 1.0176999569
 2718.5112305 14.551899910 0.0359070003 0.3449000120 2.4151513577 110.14969635 116.55421448 1.0374000072 68.536201477 1.2453000546  -999.250000 1.0336999893
 2718.6635742 14.546099663 0.0310500003 0.3386999965 2.4201164246 107.28459930 116.19795990 1.0137000084 68.633201599 1.2403000593  -999.250000 0.9995999932
 2718.8161621 14.540300369 0.0261930004 0.3325999975 2.4264774323 104.41950226 115.14988708 0.9900000095 68.730102539 1.2352999449  -999.250000 0.9653999805
 2718.9685059 14.534500122 0.0213360004 0.3264999986 2.4262957573 101.55439758 114.59696198 0.9663000107 68.827003479 1.2302999496  -999.250000 0.9312999845
 2719.1208496 14.529600143 0.0206719991 0.3199999928 2.4213900566 102.84780121 114.46704865 0.9329000115 68.842102051 1.2216000557  -999.250000 0.9043999910
 2719.2731934 14.524999619 0.0211050007 0.3136000037 2.4085955620 105.22899628 114.91024780 0.8970999718 68.835800171 1.2118999958  -999.250000 0.8794000149
 2719.4257813 14.520400047 0.0215370003 0.3070999980 2.3981995583 107.61009979 114.97104645 0.8611999750 68.829498291 1.2022000551  -999.250000 0.8543999791
 2719.5781250 14.519499779 0.0214840006 0.3014000058 2.3944220543 108.74140167 115.07549286 0.8526999950 69.042602539 1.1984000206  -999.250000 0.8478999734
 2719.7304688 14.522000313 0.0209680013 0.2962999940 2.3940005302 108.68049622 114.88627625 0.8704000115 69.464996338 1.2001999617  -999.250000 0.8590999842
 2719.8828125 14.524499893 0.0204520002 0.2912999988 2.3991403580 108.61959839 114.65188599 0.8880000114 69.887397766 1.2019000053  -999.250000 0.8702999949
 2720.0354004 14.524000168 0.0197740011 0.2876000106 2.4069564342 108.06970215 114.45410156 0.9072999954 70.100700378 1.2092000246  -999.250000 0.8884999752
 2720.1877441 14.513899803 0.0185550004 0.2883999944 2.4109141827 105.89170074 114.13803864 0.9319999814 69.617599487 1.2348999977  -999.250000 0.9297999740
 2720.3400879 14.503700256 0.0173349995 0.2892999947 2.4079401493 103.71379852 114.13053894 0.9566000104 69.134498596 1.2606999874  -999.250000 0.9710999727
