# LAS format log file from PETREL
# Project units are specified as depth units
#==================================================================
~Version information
VERS.   2.0:
WRAP.   NO:
#==================================================================
~Well
STRT .m      513.13079834 :
STOP .m      3511.9055176 :
STEP .m     0.00000000 :
NULL .        -999.250000 :
COMP.           : COMPANY
WELL.  7/7-1   : WELL
FLD.            : FIELD
LOC.            : LOCATION
SRVC.           : SERVICE COMPANY
DATE.  2018-09-11 21:49:22   : Log Export Date {yyyy-MM-dd HH:mm:ss}
PROV.           : PROVINCE
UWI.   7/7-1   : UNIQUE WELL ID
API.            : API NUMBER
#==================================================================
~Curve
DEPT .m                   : DEPTH
CALI .in                  : CALI
DRHO .g/cm3               : DRHO
NPHI .m3/m3               : NPHI
RHOB .g/cm3               : RHOB
GR .gAPI                  : GR
DTC .us/ft                : DTC
RDEP .ohm.m               : RDEP
SP .mV                    : SP
RSHA .ohm.m               : RSHA
RMIC .ohm.m               : RMIC
RMED .ohm.m               : RMED
~Parameter
#==================================================================
~Ascii
# ...
 3101.3398438 12.201000214 0.0247679371 0.0368092805 2.6710093021 17.663156509 55.253059387 9.4399547577 53.866401672 9.2678003311  -999.250000 6.1266999245
 3101.4924316 12.201000214 0.0313604549 0.0340044908 2.6765542030 17.707927704 55.032901764 9.2038774490 53.755599976 9.3957004547  -999.250000 5.9187002182
 3101.6447754 12.176500320 0.0288151037 0.0347987190 2.6801040173 18.326007843 55.006683350 9.0196943283 52.977600098 9.3647003174  -999.250000 5.9221000671
 3101.7971191 12.150700569 0.0257758722 0.0356985591 2.6809988022 18.975160599 54.731918335 8.8381910324 52.164501190 9.3253002167  -999.250000 5.9366998672
 3101.9494629 12.124899864 0.0227407292 0.0366967991 2.6799082756 19.623222351 55.032901764 8.6569805145 51.351501465 9.2859001160  -999.250000 5.9512000084
 3102.1020508 12.188300133 0.0190129671 0.0381975956 2.6790008545 19.609325409 55.071250916 8.6633882523 51.239299774 9.2432003021  -999.250000 5.9183001518
 3102.2543945 12.295901299 0.0149515104 0.0400969572 2.6740779877 19.265153885 55.511501312 8.7634401321 51.473300934 9.1988000870  -999.250000 5.8618001938
 3102.4067383 12.403400421 0.0108885104 0.0419969559 2.6641952991 18.920352936 55.511501312 8.8635396957 51.707401276 9.1543998718  -999.250000 5.8053998947
 3102.5590820 12.469099998 0.0091485642 0.0431961603 2.6626966000 18.755725861 55.549781799 8.9965734482 51.802700043 9.1295995712  -999.250000 5.8899998665
 3102.7116699 12.468999863 0.0110569280 0.0435993597 2.6669268608 18.874010086 55.989997864 9.1822023392 51.679599762 9.1357002258  -999.250000 6.1965999603
 3102.8640137 12.468999863 0.0129749263 0.0439993590 2.6671376228 18.993009567 55.982795715 9.3678026199 51.556400299 9.1417999268  -999.250000 6.5032000542
 3103.0163574 12.471099854 0.0148210423 0.0441996790 2.6660819054 19.053903580 55.926479340 9.5511064529 51.412300110 9.1728000641  -999.250000 6.7804999352
 3103.1687012 12.491199493 0.0160739943 0.0420035236 2.6669986248 18.633575439 56.190952301 9.7160358429 51.094799042 9.4102001190  -999.250000 6.8145999908
 3103.3210449 12.511400223 0.0173229966 0.0399067216 2.6685583591 18.213048935 55.712417603 9.8807716370 50.777301788 9.6476001740  -999.250000 6.8488001823
 3103.4736328 12.531499863 0.0185769945 0.0378033631 2.6744313240 17.791275024 55.260124207 10.045935631 50.459701538 9.8851003647  -999.250000 6.8829002380
 3103.6259766 12.532200813 0.0161548909 0.0363024026 2.6807851791 17.648826599 55.069038391 10.103807449 50.699298859 9.8636999130  -999.250000 6.9520001411
 3103.7783203 12.528800011 0.0129571268 0.0349022411 2.6772291660 17.565233231 54.454647064 10.139143944 51.055599213 9.7882003784  -999.250000 7.0282998085
 3103.9306641 12.525500298 0.0097642336 0.0336041600 2.6654503345 17.481866837 54.334247589 10.174287796 51.411899567 9.7125997543  -999.250000 7.1047000885
 3104.0832520 12.526599884 0.0087496117 0.0328012817 2.6624708176 17.332439423 54.554397583 9.8984422684 51.246200562 9.5216999054  -999.250000 6.8948998451
 3104.2355957 12.531399727 0.0095656877 0.0324006416 2.6681702137 17.128227234 54.585662842 9.3632583618 50.646301270 9.2348003387  -999.250000 6.4471001625
 3104.3879395 12.536198616 0.0103856856 0.0320006423 2.6719396114 16.924028397 54.932502747 8.8277578354 50.046501160 8.9478998184  -999.250000 5.9993000031
 3104.5402832 12.541100502 0.0112532191 0.0329967998 2.6701827049 16.642501831 54.793598175 8.2837429047 49.981700897 8.5927000046  -999.250000 5.5921998024
 3104.6928711 12.546499252 0.0122643812 0.0376924686 2.6645507813 16.144199371 54.870288849 7.7125139236 51.400398254 8.0483999252  -999.250000 5.2979998589
 3104.8452148 12.551799774 0.0132743809 0.0423924662 2.6588695049 15.645998001 55.781810760 7.1420140266 52.819099426 7.5040001869  -999.250000 5.0039000511
 3104.9975586 12.557100296 0.0142833833 0.0470924675 2.6570706367 15.147798538 56.127059937 6.5716142654 54.237800598 6.9597001076  -999.250000 4.7097001076
 3105.1499023 12.566499710 0.0201435946 0.0494961552 2.6546506882 16.521493912 56.028339386 6.1887130737 53.734199524 6.3260002136  -999.250000 4.5093002319
 3105.3022461 12.575899124 0.0260799732 0.0517926402 2.6462757587 17.925798416 56.487644196 5.8096151352 53.199798584 5.6908998489  -999.250000 4.3104000092
 3105.4548340 12.585300446 0.0320344754 0.0541961566 2.6491248608 19.334646225 56.765316010 5.4294085503 52.665401459 5.0557999611  -999.250000 4.1114997864
 3105.6071777 12.601200104 0.0271458626 0.0533014424 2.6576602459 19.655889511 57.475639343 5.2571754456 52.655700684 5.0780000687  -999.250000 4.1013998985
 3105.7595215 12.619700432 0.0176711958 0.0509038456 2.6620759964 19.517822266 57.988269806 5.1727347374 52.867099762 5.3772997856  -999.250000 4.1708998680
 3105.9118652 12.638299942 0.0082043428 0.0486073606 2.6649954319 19.379144669 57.232845306 5.0885701180 53.078498840 5.6767001152  -999.250000 4.2403998375
 3106.0644531 12.655300140 0.0041464646 0.0475017615 2.6617386341 19.331874847 56.650283813 4.9790754318 53.538101196 5.8106999397  -999.250000 4.2188000679
 3106.2167969 12.670000076 0.0075465324 0.0480990373 2.6559517384 19.410274506 56.021080017 4.8355302811 54.336799622 5.7188000679  -999.250000 4.0725002289
 3106.3691406 12.684800148 0.0109575344 0.0486990400 2.6604158878 19.488874435 56.500198364 4.6919302940 55.135398865 5.6269001961  -999.250000 3.9261999130
 3106.5214844 12.699299812 0.0142723760 0.0500955172 2.6656231880 19.556781769 57.942481995 4.5236392021 55.909599304 5.4784002304  -999.250000 3.7678000927
 3106.6740723 12.712200165 0.0170465633 0.0561902262 2.6609454155 19.560693741 58.421051025 4.2034130096 56.535301208 4.9879999161  -999.250000 3.5364000797
 3106.8264160 12.725099564 0.0198145639 0.0622902252 2.6547596455 19.564495087 58.918815613 3.8832130432 57.161098480 4.4974999428  -999.250000 3.3048999310
 3106.9787598 12.737899780 0.0225825626 0.0683902279 2.6459844112 19.568193436 59.655792236 3.5630130768 57.786899567 4.0069999695  -999.250000 3.0734999180
 3107.1311035 12.810400009 0.0211742669 0.0719942302 2.6320233345 20.347349167 60.593715668 3.3995616436 58.465400696 3.9165000916  -999.250000 2.9556999207
 3107.2834473 12.892399788 0.0190866943 0.0752894431 2.6191449165 21.251600266 61.311424255 3.2619409561 59.152500153 3.8907001019  -999.250000 2.8561999798
 3107.4360352 12.974499702 0.0169913508 0.0784948766 2.6124956608 22.158948898 62.002113342 3.1238210201 59.839500427 3.8649001122  -999.250000 2.7567000389
 3107.5883789 13.001199722 0.0179444645 0.0803969502 2.6066939831 22.826929092 62.311824799 3.0387361050 60.335300446 3.8053998947  -999.250000 2.6921999454
 3107.7407227 12.987799644 0.0211049300 0.0812985525 2.6042537689 23.322206497 61.861194611 2.9918751717 60.692501068 3.7216000557  -999.250000 2.6528000832
 3107.8930664 12.974399567 0.0242648721 0.0821971148 2.6098682880 23.816316605 61.751735687 2.9451496601 61.049701691 3.6377000809  -999.250000 2.6135001183
 3108.0456543 12.965499878 0.0272172764 0.0840969533 2.6186223030 25.148263931 62.018203735 2.9043653011 61.433700562 3.5810999870  -999.250000 2.5755000114
 3108.1979980 12.967300415 0.0296570919 0.0882932693 2.6210663319 28.438922882 62.611381531 2.8776426315 61.880401611 3.5882999897  -999.250000 2.5408000946
 3108.3503418 12.969099998 0.0320950933 0.0924932733 2.6257612705 31.732723236 63.352195740 2.8509426117 62.327098846 3.5954999924  -999.250000 2.5060999393
 3108.5026855 12.971199989 0.0343378149 0.0965868831 2.6289412975 34.946300507 63.962570190 2.8236873150 62.777698517 3.6029999256  -999.250000 2.4718000889
 3108.6552734 12.992899895 0.0262989998 0.0993955135 2.6305775642 34.156784058 64.977310181 2.7584047318 63.438995361 3.6273999214  -999.250000 2.4577999115
 3108.8076172 13.014599800 0.0182530005 0.1020956710 2.6354641914 33.355686188 66.566871643 2.6932044029 64.100303650 3.6517999172  -999.250000 2.4437000751
 3108.9599609 13.036299706 0.0102070002 0.1048955172 2.6377363205 32.554584503 67.098205566 2.6280043125 64.761703491 3.6761999130  -999.250000 2.4296000004
