# LAS format log file from PETREL
# Project units are specified as depth units
#==================================================================
~Version information
VERS.   2.0:
WRAP.   NO:
#==================================================================
~Well
STRT .m      855.12506104 :
STOP .m      3436.8750000 :
STEP .m     0.00000000 :
NULL .        -999.250000 :
COMP.           : COMPANY
WELL.  7/7-2 Brynhild   : WELL
FLD.            : FIELD
LOC.            : LOCATION
SRVC.           : SERVICE COMPANY
DATE.  2018-09-11 21:49:22   : Log Export Date {yyyy-MM-dd HH:mm:ss}
PROV.           : PROVINCE
UWI.   7/7-2   : UNIQUE WELL ID
API.            : API NUMBER
#==================================================================
~Curve
DEPT .m                   : DEPTH
CALI .in                  : CALI
DRHO .g/cm3               : DRHO
NPHI .m3/m3               : NPHI
RHOB .g/cm3               : RHOB
GR .gAPI                  : GR
DTC .us/ft                : DTC
RDEP .ohm.m               : RDEP
SP .mV                    : SP
RSHA .ohm.m               : RSHA
RMED .ohm.m               : RMED
~Parameter
#==================================================================
~Ascii
# ...
 3431.1250000 7.1076006889 -0.439099997 -0.009900000 2.2760243416 0.0000000000  -999.250000 0.2000000030 -90.55879211 0.2000000030 93.028701782
 3431.2500000 7.1076006889 -0.432500005 0.0059000002 2.2836270332 0.0000000000  -999.250000 0.2000000030 -90.04267120 0.2000000030 93.028701782
 3431.3750000 7.1076006889 -0.416799992 0.9696999788 2.3150668144 0.0000000000  -999.250000 0.2000000030 -92.92214966 0.2000000030 92.276100159
 3431.5000000 7.1076006889 -0.416899979 0.3630999923 2.3151192665 0.0000000000  -999.250000 0.2000000030 -110.5184097 0.2000000030 92.744499207
 3431.6250000 7.1076006889 -0.434599996 -0.150000006 2.2959074974 0.0000000000  -999.250000 0.2000000030 -114.8000031 0.2000000030 92.967796326
 3431.7500000 7.1076006889 -0.419699967 -0.150000006 2.3047738075 0.0000000000  -999.250000 0.2000000030 -114.8000031 0.2000000030 92.053298950
 3431.8750000 7.1076006889 -0.431300014 -0.150000006 2.2844915390 0.0000000000  -999.250000 0.2000000030 -114.8000031 0.2000000030 93.028701782
 3432.0000000 7.1076006889 -0.427500010 -0.150000006 2.2752723694 0.0000000000  -999.250000 0.2000000030 -114.8000031 0.2000000030 93.028701782
 3432.1250000 7.1076006889 -0.421200007 -0.150000006 2.3096990585 0.0000000000  -999.250000 0.2000000030 -114.8000031 0.2000000030 93.028701782
 3432.2502441 7.1076006889 -0.456099987 -0.150000006 2.2589492798 0.0000000000  -999.250000 0.2000000030 -114.8000031 0.2000000030 93.028701782
 3432.3752441 7.1076006889 -0.432500005 -0.150000006 2.2851057053 0.0000000000  -999.250000 0.2000000030 -114.8000031 0.2000000030 93.028701782
 3432.4997559 7.1076006889 -0.430099994 -0.150000006 2.2781386375 0.0000000000  -999.250000 0.2000000030 -114.8000031 0.2000000030 93.028701782
 3432.6247559 7.1076006889 -0.413300008 -0.150000006 2.3215532303 0.0000000000  -999.250000 0.2000000030 -114.8000031 0.2000000030 93.028701782
 3432.7500000 7.1076006889 -0.436300009 -0.150000006 2.2865800858 0.0000000000  -999.250000 0.2000000030 -114.8000031 0.2000000030 93.028701782
 3432.8750000 7.1076006889 -0.417400002 -0.150000006 2.3070788383 0.0000000000  -999.250000 0.2000000030 -114.8000031 0.2000000030 93.028701782
 3433.0000000 7.1076006889 -0.410499990 -0.150000006 2.3278446198 0.0000000000  -999.250000 0.2000000030 -114.8000031 0.2000000030 93.028701782
 3433.1250000 7.1076006889 -0.429699987 -0.150000006 2.2868123055 0.0000000000  -999.250000 0.2000000030 -114.8000031 0.2000000030 93.028701782
 3433.2500000 7.1076006889 -0.413599998 -0.150000006 2.3000440598 0.0000000000  -999.250000 0.2000000030 -114.8000031 0.2000000030 93.028701782
 3433.3750000 7.1076006889 -0.416399986 -0.150000006 2.2980313301 0.0000000000  -999.250000 0.2000000030 -114.8000031 0.2000000030 93.028701782
 3433.5000000 7.1076006889 -0.417699993 -0.150000006 2.3035879135 0.0000000000  -999.250000 0.2000000030 -114.8000031 0.2000000030 93.028701782
 3433.6250000 7.1076006889 -0.437299997 -0.150000006 2.2739677429 0.0000000000  -999.250000 0.2000000030 -114.8000031 0.2000000030 93.028701782
 3433.7500000 7.1076006889 -0.443800002 -0.150000006 2.2632756233 0.0000000000  -999.250000 0.2000000030 -114.8000031 0.2000000030 93.028701782
 3433.8750000 7.1076006889 -0.434899986 -0.150000006 2.2693796158 0.0000000000  -999.250000 0.2000000030 -114.8000031 0.2000000030 93.028701782
 3434.0000000 7.1076006889 -0.439099997 -0.150000006 2.2752337456 0.0000000000  -999.250000 0.2000000030 -114.8000031 0.2000000030 93.028701782
 3434.1250000 7.1076006889 -0.417400002 -0.150000006 2.3205900192 0.0000000000  -999.250000 0.2000000030 -114.8000031 0.2000000030 90.306800842
 3434.2500000 7.1076006889 -0.438200027 -0.150000006 2.2762956619 0.0000000000  -999.250000 0.2000000030 -114.8000031 0.2000000030 0.2000000030
 3434.3750000 7.1076006889 -0.424800009 -0.150000006 2.2876305580 0.0000000000  -999.250000 0.2000000030 -114.8000031 0.2000000030 0.2000000030
 3434.5000000 7.1076006889 -0.421900004 -0.150000006 2.2938804626 0.0000000000  -999.250000 0.2000000030 -114.8000031 0.2000000030 0.2000000030
 3434.6252441 7.1076006889 -0.436799973 -0.150000006 2.2918949127 0.0000000000  -999.250000 0.2000000030 -114.8000031 0.2000000030 0.2000000030
 3434.7502441 7.1076006889 -0.436399996 -0.150000006 2.2801890373 0.0000000000  -999.250000 0.2000000030 -114.8000031 0.2000000030 0.2000000030
 3434.8747559 7.1076006889 -0.439599961 -0.150000006 2.2851514816 0.0000000000  -999.250000 0.2000000030 -114.8000031 0.2000000030 0.2000000030
 3435.0000000 7.1076006889 -0.425000012 -0.150000006 2.3098168373 0.0000000000  -999.250000 0.2000000030 -114.8000031 0.2000000030 0.2000000030
 3435.1250000 7.1076006889 -0.428499997 -0.150000006 2.2814474106 0.0000000000  -999.250000 0.2000000030 -114.8000031 0.2000000030 0.2000000030
 3435.2500000 7.1076006889 -0.434799999 -0.150000006 2.2771277428 0.0000000000  -999.250000 0.2000000030 -114.8000031 0.2000000030 0.2000000030
 3435.3750000 7.1076006889 -0.437799990 -0.150000006 2.2732496262 0.0000000000  -999.250000 0.2000000030 -114.8000031 0.2000000030 0.2000000030
 3435.5000000 7.1076006889 -0.435699999 -0.150000006 2.2697267532 0.0000000000  -999.250000 0.2000000030 -114.8000031 0.2000000030 0.2000000030
 3435.6250000 7.1076006889 -0.409299999 -0.150000006 2.2977738380 0.0000000000  -999.250000 0.2000000030 -114.8000031 0.2000000030 0.2000000030
 3435.7500000 7.1076006889 -0.427300006 -0.150000006 2.2839159966 0.0000000000  -999.250000 0.2000000030  -999.250000 0.2000000030 0.2000000030
 3435.8750000 7.1076006889 -0.424199998 -0.150000006 2.2983770370 0.0000000000  -999.250000  -999.250000  -999.250000 0.2000000030  -999.250000
 3436.0000000 7.1076006889 -0.418599993 -0.150000006 2.3032131195 0.0000000000  -999.250000  -999.250000  -999.250000 0.2000000030  -999.250000
 3436.1250000 7.1076006889 -0.437200010 -0.150000006 2.2663521767 0.0000000000  -999.250000  -999.250000  -999.250000  -999.250000  -999.250000
 3436.2500000 7.1076006889 -0.421099961 -0.150000006 2.3091864586 0.0000000000  -999.250000  -999.250000  -999.250000  -999.250000  -999.250000
 3436.3750000 7.1076006889 -0.352600008 -0.150000006 2.3772158623 0.0000000000  -999.250000  -999.250000  -999.250000  -999.250000  -999.250000
 3436.5000000 7.1076006889 1.6305999756 -0.150000006 4.3483066559 0.0000000000  -999.250000  -999.250000  -999.250000  -999.250000  -999.250000
 3436.6250000 7.0977997780 -0.925100029 -0.150000006 1.7870643139 0.0000000000  -999.250000  -999.250000  -999.250000  -999.250000  -999.250000
 3436.7500000 6.8001999855 -13.31299973 -0.150000006 -10.69811440 0.0000000000  -999.250000  -999.250000  -999.250000  -999.250000  -999.250000
 3436.8750000 6.0000000000 -0.500000000 -0.150000006 1.9499998093 0.0000000000  -999.250000  -999.250000  -999.250000  -999.250000  -999.250000
