# LAS format log file from PETREL
# Project units are specified as depth units
#==================================================================
~Version information
VERS.   2.0:
WRAP.   NO:
#==================================================================
~Well
STRT .m      513.13079834 :
STOP .m      3511.9055176 :
STEP .m     0.00000000 :
NULL .        -999.250000 :
COMP.           : COMPANY
WELL.  7/7-1   : WELL
FLD.            : FIELD
LOC.            : LOCATION
SRVC.           : SERVICE COMPANY
DATE.  2018-09-11 21:49:22   : Log Export Date {yyyy-MM-dd HH:mm:ss}
PROV.           : PROVINCE
UWI.   7/7-1   : UNIQUE WELL ID
API.            : API NUMBER
#==================================================================
~Curve
DEPT .m                   : DEPTH
CALI .in                  : CALI
DRHO .g/cm3               : DRHO
NPHI .m3/m3               : NPHI
RHOB .g/cm3               : RHOB
GR .gAPI                  : GR
DTC .us/ft                : DTC
RDEP .ohm.m               : RDEP
SP .mV                    : SP
RSHA .ohm.m               : RSHA
RMIC .ohm.m               : RMIC
RMED .ohm.m               : RMED
~Parameter
#==================================================================
~Ascii
# ...
 3303.4223633 8.1911001205 -0.043021001 0.2187999934 2.3200156689 44.738300323 87.414825439 0.5428000093 69.225196838 1.3463000059 1.6570999622 0.6013000011
 3303.5749512 8.1971998215 -0.041885000 0.2073999941 2.3207440376 43.871398926 87.660713196 0.5424000025 68.813201904 1.3437999487 1.7359999418 0.6010000110
 3303.7272949 8.1836004257 -0.035042997 0.1935999990 2.3298947811 43.349601746 87.492912292 0.5479999781 68.780601501 1.3178999424 1.7992999554 0.6069999933
 3303.8796387 8.1698999405 -0.028201001 0.1798000038 2.3201868534 42.827899933 86.937942505 0.5534999967 68.748001099 1.2920999527 1.8624999523 0.6129999757
 3304.0319824 8.1710996628 -0.022353999 0.1714999974 2.3240628242 43.008800507 85.573776245 0.5608999729 68.658798218 1.2747000456 1.9673000574 0.6223000288
 3304.1845703 8.2278995514 -0.020256000 0.1835000068 2.3397901058 45.833698273 84.922714233 0.5752999783 68.356697083 1.2890000343 2.2283000946 0.6435999870
 3304.3369141 8.2846002579 -0.018157000 0.1955000013 2.3456349373 48.658500671 83.895828247 0.5896999836 68.054702759 1.3034000397 2.4892001152 0.6650000215
 3304.4892578 8.3414001465 -0.016058000 0.2075999975 2.3485784531 51.483398438 83.269241333 0.6040999889 67.752700806 1.3177000284 2.7500998974 0.6863999963
 3304.6416016 8.3521003723 -0.014686000 0.2193000019 2.3627369404 52.517799377 83.686744690 0.6171000004 69.412200928 1.3748999834 2.9035000801 0.6927000284
 3304.7939453 8.3592996597 -0.013369000 0.2310999930 2.3758120537 53.415699005 84.564971924 0.6298999786 71.221298218 1.4354000092 3.0485000610 0.6980000138
 3304.9465332 8.3664999008 -0.012051000 0.2427999973 2.3388004303 54.313598633 84.908401489 0.6427999735 73.030403137 1.4958000183 3.1935999393 0.7031999826
 3305.0988770 8.3628997803 -0.010398000 0.2374999970 2.3281252384 55.220401764 84.888900757 0.6467000246 74.531402588 1.4555000067 3.0915000439 0.7009999752
 3305.2512207 8.3535995483 -0.008562000 0.2229000032 2.3539228439 56.132099152 84.630813599 0.6457999945 75.865196228 1.3603999615 2.8550999165 0.6948000193
 3305.4035645 8.3443002701 -0.006726000 0.2082999945 2.3583874702 57.043701172 84.251289368 0.6449000239 77.199096680 1.2653000355 2.6187999249 0.6886000037
 3305.5561523 8.3191003799 -0.007385000 0.2043000013 2.3738162518 56.999599457 84.908401489 0.6414999962 78.178100586 1.2239999771 2.3884999752 0.6855999827
 3305.7084961 8.2667999268 -0.012336000 0.2182999998 2.3610818386 55.310298920 84.841438293 0.6335999966 78.546302795 1.2753000259 2.1686000824 0.6880999804
 3305.8608398 8.2145004272 -0.017287999 0.2324000001 2.3821973801 53.620899200 84.097579956 0.6256999969 78.914596558 1.3266999722 1.9486999512 0.6905999780
 3306.0131836 8.1704998016 -0.021434000 0.2440000027 2.3650562763 52.005798340 84.201255798 0.6173999906 79.116401672 1.3746999502 1.7553999424 0.6912000179
 3306.1657715 8.2147998810 -0.017085999 0.2298000008 2.3359317780 51.173599243 84.327285767 0.6050000191 77.562698364 1.3878999949 1.8422000408 0.6721000075
 3306.3181152 8.2590999603 -0.012739000 0.2157000005 2.3144001961 50.341400146 84.689300537 0.5925999880 76.009002686 1.4011000395 1.9290000200 0.6529999971
 3306.4704590 8.3032999039 -0.008392000 0.2014999986 2.3505523205 49.509101868 84.939056396 0.5802000165 74.455398560 1.4142999649 2.0157999992 0.6338999867
 3306.6228027 8.2351999283 -0.008368000 0.2037000060 2.3405818939 49.505699158 85.300125122 0.5651999712 74.373100281 1.3547999859 1.8187999725 0.6223999858
 3306.7751465 8.1399002075 -0.009386000 0.2098000050 2.3576719761 49.701999664 85.498077393 0.5494999886 74.645401001 1.2778999805 1.5535000563 0.6129000187
 3306.9277344 8.0445995331 -0.010403000 0.2159000039 2.3523180485 49.898300171 85.662887573 0.5338000059 74.917800903 1.2009999752 1.2882000208 0.6032999754
 3307.0800781 7.9994001389 -0.011240000 0.2188999951 2.3424875736 49.388599396 86.120391846 0.5284000039 74.661903381 1.1850999594 1.1512999535 0.5996000171
 3307.2324219 7.9995999336 -0.011914000 0.2190999985 2.3311464787 48.240001678 86.367034912 0.5322999954 73.928001404 1.2244999409 1.1305999756 0.6011000276
 3307.3847656 7.9998002052 -0.012587000 0.2193000019 2.2964839935 47.091400146 86.758811951 0.5363000035 73.194198608 1.2638000250 1.1098999977 0.6025999784
 3307.5373535 8.0222997665 -0.013206000 0.2180999964 2.3499350548 46.253101349 87.660713196 0.5419999957 72.413299561 1.2999999523 1.1750999689 0.6086000204
 3307.6896973 8.1138000488 -0.013660000 0.2125000060 2.3391172886 46.375598907 87.414939880 0.5530999899 71.486701965 1.3264000416 1.5062999725 0.6284999847
 3307.8420410 8.2053003311 -0.014113000 0.2069000006 2.3327395916 46.498100281 86.061912537 0.5643000007 70.560203552 1.3528000116 1.8374999762 0.6482999921
 3307.9943848 8.2967996597 -0.014566000 0.2012999952 2.3330967426 46.620700836 85.690551758 0.5753999949 69.633697510 1.3790999651 2.1686999798 0.6682000160
 3308.1469727 8.3640003204 -0.011497000 0.1995999962 2.3212695122 46.444198608 86.422737122 0.5886999965 70.049499512 1.4492000341 2.1491000652 0.6704000235
 3308.2993164 8.4302997589 -0.008294000 0.1979999989 2.3268995285 46.256301880 86.130340576 0.6019999981 70.516502380 1.5209000111 2.1161000729 0.6719999909
 3308.4516602 8.4966001511 -0.005092000 0.1965000033 2.3299901485 46.068401337 84.908401489 0.6154000163 70.983596802 1.5925999880 2.0831000805 0.6735000014
 3308.6040039 8.5297002792 -0.003879000 0.1958999932 2.3486890793 46.542900085 84.897293091 0.6197000146 71.967597961 1.5584000349 2.0875999928 0.6700999737
 3308.7563477 8.5474004745 -0.003593000 0.1958000064 2.3529980183 47.325698853 84.794700623 0.6197000146 73.192298889 1.4750000238 2.1094999313 0.6643999815
 3308.9089355 8.5650997162 -0.003307000 0.1957000047 2.3257589340 48.108501434 85.169921875 0.6197000146 74.416999817 1.3916000128 2.1314001083 0.6585999727
 3309.0612793 8.5763998032 -0.003105000 0.1956000030 2.3298118114 50.066699982 86.655876160 0.6172000170 75.656097412 1.2896000147 2.0859999657 0.6510999799
 3309.2136230 8.5781002045 -0.003030000 0.1953999996 2.3127744198 53.776401520 87.559379578 0.6108999848 76.916496277 1.1598999500 1.9401999712 0.6410999894
 3309.3659668 8.5798997879 -0.002955000 0.1951999962 2.3318343163 57.486099243 87.891159058 0.6046000123 78.176803589 1.0300999880 1.7944999933 0.6310999990
 3309.5185547 8.5811996460 -0.002824000 0.1958999932 2.3679320812 60.787101746 88.178131104 0.5978999734 79.240997314 0.9255999923 1.6894999743 0.6213999987
 3309.6708984 8.5794000626 -0.002282000 0.2025000006 2.3484003544 61.111400604 88.466400146 0.5878000259 78.875801086 1.0048999786 1.8812999725 0.6134999990
 3309.8232422 8.5776996613 -0.001739000 0.2091999948 2.3512589931 61.435699463 88.227905273 0.5777000189 78.510597229 1.0842000246 2.0731000900 0.6055999994
 3309.9755859 8.5760002136 -0.001197000 0.2158000022 2.3474912643 61.760101318 88.075241089 0.5676000118 78.145401001 1.1634999514 2.2648000717 0.5976999998
 3310.1281738 8.5785999298 -0.002144000 0.2211000025 2.3352930546 63.993400574 88.872138977 0.5723999739 78.310997009 1.1035000086 2.2219998837 0.5993000269
 3310.2802734 8.5820999146 -0.003372029 0.2260919809 2.3501713276 66.586532593 89.401779175 0.5798879862 78.577369690 1.0170387030 2.1345403194 0.6027944088
 3310.4326172 8.5855998993 -0.004602029 0.2310919762 2.4073472023 69.183837891 88.878723145 0.5874878168 78.844070435 0.9304387569 2.0470402241 0.6062943935
 3310.5849609 8.5843000412 -0.004944453 0.2326974422 2.3983869553 72.555892944 87.888755798 0.5996804237 79.163291931 0.9090341330 1.8433268070 0.6192791462
 3310.7373047 8.5790004730 -0.004585155 0.2316035181 2.3926246166 76.533943176 87.603065491 0.6156488061 79.523445129 0.9391033649 1.5483459234 0.6398000121
 3310.8898926 8.5738000870 -0.004224577 0.2305017561 2.4165663719 80.525711060 87.369842529 0.6316743493 79.884819031 0.9694514275 1.2522736788 0.6603000164
 3311.0422363 8.5727996826 -0.004870961 0.2311988771 2.4037821293 84.471374512 88.266510010 0.6476743817 80.676231384 0.9855741858 1.0468289852 0.6797000170
