# LAS format log file from PETREL
# Project units are specified as depth units
#==================================================================
~Version information
VERS.   2.0:
WRAP.   NO:
#==================================================================
~Well
STRT .m      873.00000000 :
STOP .m      3593.0000000 :
STEP .m     0.00000000 :
NULL .        -999.250000 :
COMP.           : COMPANY
WELL.  7/7-3 Brynhild Appr   : WELL
FLD.            : FIELD
LOC.            : LOCATION
SRVC.           : SERVICE COMPANY
DATE.  2018-09-11 21:49:23   : Log Export Date {yyyy-MM-dd HH:mm:ss}
PROV.           : PROVINCE
UWI.   7/7-3   : UNIQUE WELL ID
API.            : API NUMBER
#==================================================================
~Curve
DEPT .m                   : DEPTH
CALI .in                  : CALI
GR .gAPI                  : GR
RDEP .ohm.m               : RDEP
SP .mV                    : SP
RMED .ohm.m               : RMED
~Parameter
#==================================================================
~Ascii
# ...
 1801.1999512 19.181007385 178.66996765 0.5923680067 11.094474792 0.5595322847
 1801.3000488 19.242298126 178.31794739 0.5870245695 11.120378494 0.5650503635
 1801.4000244 19.290084839 177.50921631 0.5821328163 11.183591843 0.5672039986
 1801.5000000 19.325965881 176.41069031 0.5778378248 11.267904282 0.5657643080
 1801.6000977 19.352157593 175.68037415 0.5744500160 11.341112137 0.5621627569
 1801.7000732 19.365520477 175.07658386 0.5724016428 11.372896194 0.5579100847
 1801.8000488 19.358459473 174.55297852 0.5719065666 11.350860596 0.5538830757
 1801.8999023 19.323173523 173.60314941 0.5727834702 11.281751633 0.5505168438
 1802.0000000 19.259449005 172.41952515 0.5747170448 11.188289642 0.5480860472
 1802.0999756 19.183116913 170.93777466 0.5774080753 11.096952438 0.5469197035
 1802.1999512 19.116497040 169.78050232 0.5805472136 11.027296066 0.5473010540
 1802.3000488 19.073741913 168.88485718 0.5837199688 10.985652924 0.5491957664
 1802.4000244 19.057556152 168.57078552 0.5862764120 10.961469650 0.5520784855
 1802.5000000 19.059009552 168.38018799 0.5876116753 10.935651779 0.5551071167
 1802.5999756 19.059780121 168.22834778 0.5875381231 10.894510269 0.5574889183
 1802.7000732 19.047527313 167.88484192 0.5863683224 10.840044022 0.5588287115
 1802.8000488 19.021224976 167.46072388 0.5846871138 10.784271240 0.5592200756
 1802.9000244 18.986148834 166.98303223 0.5830534697 10.739334106 0.5589622259
 1803.0001221 18.949913025 166.50167847 0.5817297697 10.712442398 0.5581742525
 1803.0999756 18.918548584 165.98434448 0.5806577206 10.701730728 0.5568186045
 1803.1999512 18.893688202 165.43653870 0.5795865059 10.697105408 0.5548533201
 1803.2999268 18.876445770 164.88804626 0.5783665180 10.686418533 0.5523787737
 1803.4000244 18.866554260 164.54539490 0.5770791769 10.659305573 0.5497956276
 1803.5000000 18.860744476 164.40447998 0.5759730339 10.616748810 0.5476815701
 1803.5999756 18.857692719 164.76976013 0.5752390623 10.570419312 0.5465625525
 1803.7000732 18.859291077 165.34028625 0.5748696327 10.534145355 0.5466926098
 1803.8000488 18.864337921 166.14053345 0.5747481585 10.517040253 0.5479460955
 1803.9000244 18.868110657 166.99949646 0.5747190714 10.521249771 0.5498676300
 1804.0001221 18.863697052 167.67854309 0.5744314194 10.539503098 0.5519456863
 1804.1000977 18.847305298 168.09178162 0.5732777119 10.555767059 0.5537548065
 1804.2000732 18.821716309 167.74542236 0.5706074238 10.556901932 0.5549296141
 1804.2999268 18.795368195 166.96012878 0.5661371946 10.543176651 0.5550709963
 1804.4000244 18.777290344 165.56593323 0.5601907969 10.526058197 0.5538070202
 1804.5000000 18.772117615 164.30435181 0.5536259413 10.521823883 0.5509030819
 1804.5999756 18.778324127 163.53111267 0.5475159883 10.537427902 0.5463668108
 1804.6999512 18.789390564 163.77076721 0.5429120064 10.568029404 0.5404877663
 1804.8000488 18.796714783 165.21391296 0.5407006741 10.604351044 0.5341163874
 1804.9000244 18.796440125 167.15284729 0.5413248539 10.629732132 0.5290299654
 1805.0000000 18.790412903 169.58404541 0.5445340872 10.621873856 0.5277329683
 1805.1000977 18.782985687 171.47993469 0.5494228601 10.569005966 0.5325198174
 1805.2000732 18.777801514 172.85328674 0.5547357798 10.481620789 0.5438324213
 1805.3000488 18.775302887 173.03256226 0.5591790676 10.387731552 0.5593112707
 1805.3999023 18.778385162 171.92506409 0.5617372990 10.320442200 0.5745159388
 1805.5000000 18.796451569 169.95350647 0.5620034933 10.303737640 0.5848391056
 1805.5999756 18.839416504 166.54730225 0.5604119301 10.339952469 0.5875911713
 1805.6999512 18.909873962 162.65850830 0.5580661297 10.407203674 0.5831912756
 1805.8000488 18.995395660 158.63574219 0.5560734272 10.471042633 0.5746515989
 1805.9000244 19.070438385 155.59349060 0.5548996925 10.497945786 0.5656838417
 1806.0000000 19.108181000 154.64608765 0.5543122292 10.474140167 0.5586860180
 1806.0999756 19.094451904 155.32762146 0.5537885427 10.409023285 0.5540697575
 1806.2000732 19.034706116 158.77734375 0.5529234409 10.323125839 0.5508369207
 1806.3000488 18.951324463 162.65953064 0.5516010523 10.231409073 0.5479265451
 1806.4000244 18.872039795 166.86500549 0.5500532389 10.142560959 0.5450814962
 1806.5001221 18.816379547 169.87695313 0.5487707853 10.070926666 0.5426830053
 1806.5999756 18.787113190 171.78872681 0.5482453108 10.047622681 0.5412921906
 1806.6999512 18.776538849 172.61935425 0.5485955477 10.109348297 0.5413333178
 1806.7999268 18.774688721 172.28770447 0.5494728088 10.277517319 0.5429134369
 1806.9000244 18.774688721 171.65873718 0.5503257513 10.537269592 0.5457296371
 1807.0000000 18.774688721 170.70489502 0.5507543087 10.841506958 0.5490736961
 1807.0999756 18.774688721 169.28837585 0.5506417751 11.131824493 0.5520097017
 1807.2000732 18.775920868 167.63879395 0.5500812531 11.356229782 0.5536292791
 1807.3000488 18.784614563 165.70390320 0.5492486954 11.480937958 0.5533468723
 1807.4000244 18.808731079 163.69136047 0.5483311415 11.503839493 0.5510355234
 1807.5000000 18.847839355 161.82707214 0.5474981070 11.453969955 0.5469737053
 1807.6000977 18.893394470 160.24548340 0.5468958616 11.375677109 0.5417697430
 1807.7000732 18.932723999 159.24830627 0.5466369390 11.317684174 0.5363397598
 1807.7999268 18.956214905 158.60166931 0.5467439890 11.318868637 0.5318604708
 1807.8999023 18.964290619 158.47856140 0.5470913649 11.392101288 0.5294749737
 1808.0000000 18.967929840 158.75460815 0.5473985672 11.516222000 0.5298224688
 1808.0999756 18.976879120 159.18264771 0.5472770929 11.641675949 0.5326941013
 1808.1999512 18.994937897 159.73318481 0.5463194847 11.709941864 0.5369122028
 1808.3000488 19.018814087 160.12115479 0.5442520380 11.683685303 0.5406674147
 1808.4000244 19.044597626 160.46585083 0.5411244631 11.565856934 0.5422674417
 1808.5000000 19.069530487 160.86584473 0.5373799801 11.387231827 0.5408179760
 1808.6000977 19.092483521 161.69123840 0.5337702036 11.186008453 0.5365068913
 1808.7000732 19.109893799 162.77033997 0.5312292576 11.003856659 0.5304239988
 1808.8000488 19.115924835 164.16946411 0.5306303501 10.874645233 0.5242521763
 1808.8999023 19.107677460 165.43983459 0.5324798822 10.821229935 0.5198410749
 1809.0000000 19.088859558 166.59243774 0.5367211103 10.855087280 0.5186716318
 1809.0999756 19.071441650 167.37295532 0.5426472425 10.966594696 0.5212899446
 1809.1999512 19.075317383 167.86543274 0.5490633249 11.126394272 0.5269740820
 1809.3000488 19.112266541 168.13165283 0.5546587706 11.294210434 0.5339576006
 1809.4000244 19.182296753 168.01390076 0.5583926439 11.431375504 0.5400477648
 1809.5000000 19.269187927 167.67358398 0.5597760677 11.511648178 0.5434088707
 1809.5999756 19.341064453 167.15028381 0.5589972734 11.532060623 0.5431313515
 1809.7000732 19.372692108 166.72576904 0.5568244457 11.509340286 0.5394099951
 1809.8000488 19.356994629 166.69000244 0.5542845726 11.461977005 0.5333824158
 1809.9000244 19.303497314 167.04531860 0.5522577763 11.403091431 0.5266479254
 1810.0001221 19.238140106 167.70381165 0.5511748791 11.344198227 0.5208778381
 1810.0999756 19.192073822 168.31399536 0.5509208441 11.292207718 0.5175324678
 1810.1999512 19.190170288 168.85916138 0.5510185957 11.256105423 0.5174157619
 1810.2999268 19.233493805 169.57203674 0.5509830713 11.248136520 0.5202529430
 1810.4000244 19.306777954 170.44038391 0.5505293608 11.275882721 0.5246683359
 1810.5000000 19.385437012 171.51615906 0.5496758223 11.341648102 0.5288125277
 1810.5999756 19.443073273 172.35806274 0.5487225056 11.438013077 0.5312311649
 1810.7000732 19.462570190 172.86268616 0.5479941368 11.546005249 0.5315023661
 1810.8000488 19.436115265 172.81382751 0.5477075577 11.643285751 0.5303107500
 1810.9000244 19.362857819 172.40983582 0.5480220318 11.716506958 0.5288447142
 1811.0000000 19.257701874 172.02301025 0.5490912199 11.758953094 0.5280905962
 1811.1000977 19.144939423 171.83654785 0.5510344505 11.766420364 0.5284326077
 1811.2000732 19.050033569 171.95843506 0.5539264679 11.738357544 0.5296155214
 1811.2999268 18.987998962 172.20977783 0.5579248667 11.678022385 0.5311068296
