# LAS format log file from PETREL
# Project units are specified as depth units
#==================================================================
~Version information
VERS.   2.0:
WRAP.   NO:
#==================================================================
~Well
STRT .m      873.00000000 :
STOP .m      3593.0000000 :
STEP .m     0.00000000 :
NULL .        -999.250000 :
COMP.           : COMPANY
WELL.  7/7-3 Brynhild Appr   : WELL
FLD.            : FIELD
LOC.            : LOCATION
SRVC.           : SERVICE COMPANY
DATE.  2018-09-11 21:49:23   : Log Export Date {yyyy-MM-dd HH:mm:ss}
PROV.           : PROVINCE
UWI.   7/7-3   : UNIQUE WELL ID
API.            : API NUMBER
#==================================================================
~Curve
DEPT .m                   : DEPTH
CALI .in                  : CALI
GR .gAPI                  : GR
RDEP .ohm.m               : RDEP
SP .mV                    : SP
RMED .ohm.m               : RMED
~Parameter
#==================================================================
~Ascii
# ...
 3586.1999512 6.0000000000  -999.250000 438.41638184 171.07369995 103.09542847
 3586.3000488 6.0000000000  -999.250000 437.74829102 171.06420898 102.83093262
 3586.4001465 6.0000000000  -999.250000 436.86993408 171.11242676 102.63874817
 3586.5000000 6.0000000000  -999.250000 436.67791748 171.20144653 102.54254150
 3586.6000977 6.0000000000  -999.250000 437.86450195 171.31710815 102.53907776
 3586.7001953 6.0000000000  -999.250000 440.73059082 171.44934082 102.59030151
 3586.8000488 6.0000000000  -999.250000 444.81524658 171.59231567 102.61735535
 3586.9001465 6.0000000000  -999.250000 449.17120361 171.73687744 102.59190369
 3587.0002441 6.0000000000  -999.250000 453.11157227 171.86825562 102.51602173
 3587.1000977 6.0000000000  -999.250000 455.90393066 171.96844482 102.40705872
 3587.2001953 6.0000000000  -999.250000 453.95849609 172.02114868 102.29826355
 3587.3002930 6.0000000000  -999.250000 438.85699463 172.02005005 102.21965027
 3587.4001465 6.0000000000  -999.250000 402.37823486 171.97906494 102.18229675
 3587.5000000 6.0000000000  -999.250000 341.77606201 171.92547607 102.17443848
 3587.5998535 6.0000000000  -999.250000 262.56835938 171.88226318 102.16397095
 3587.6999512 6.0000000000  -999.250000 177.40930176 171.87011719 102.13818359
 3587.8000488 6.0000000000  -999.250000 101.43341064 171.90646362 102.09782410
 3587.8999023 6.0000000000  -999.250000 46.062683105 171.99426270 102.03836060
 3588.0000000 6.0000000000  -999.250000 14.800756454 172.12207031 101.95129395
 3588.1000977 6.0000000000  -999.250000 2.5568070412 172.26486206 101.83448792
 3588.1999512 6.0000000000  -999.250000 0.1999999881 172.39437866 101.70463562
 3588.3000488 6.0000000000  -999.250000 0.1999999881 172.49206543 101.57615662
 3588.3999023 6.0000000000  -999.250000 0.1999999881 172.55255127 101.47346497
 3588.5000000 6.0000000000  -999.250000 0.1999999881 172.58010864 101.42021179
 3588.6000977 6.0000000000  -999.250000 0.1999999881 172.57778931 101.42916870
 3588.6999512 6.0000000000  -999.250000 0.1999999881 172.54083252 101.50102234
 3588.8000488 6.0000000000  -999.250000 0.1999999881 172.45553589 101.58091736
 3588.9001465 6.0000000000  -999.250000 0.1999999881 172.31338501 101.58784485
 3589.0000000 6.0000000000  -999.250000 0.1999999881 172.12127686 101.49473572
 3589.1000977 6.0000000000  -999.250000 0.1999999881 170.89321899 101.34776306
 3589.2001953 6.0000000000  -999.250000 0.1999999881 165.57977295 101.21786499
 3589.3000488 6.0000000000  -999.250000 0.1999999881 152.82077026 101.15699768
 3589.4001465 6.0000000000  -999.250000 0.1999999881 131.02166748 101.15893555
 3589.5002441 6.0000000000  -999.250000 0.1999999881 101.77116394 101.17689514
 3589.6000977 6.0000000000  -999.250000 0.1999999881 69.623580933 101.14308167
 3589.7001953 6.0000000000  -999.250000 0.1999999881 40.419326782 101.02954102
 3589.7998047 6.0000000000  -999.250000 0.1999999881 18.721546173 100.88525391
 3589.8999023 6.0000000000  -999.250000 0.1999999881 6.1221466064 100.80717468
 3590.0000000 6.0000000000  -999.250000 0.1999999881 1.0121402740 100.85371399
 3590.0998535 6.0000000000  -999.250000 0.1999999881 0.0000000000 111.16462708
 3590.1999512 6.0000000000  -999.250000 0.1999999881 0.0000000000 151.91275024
 3590.3000488 6.0000000000  -999.250000 0.1999999881 0.0000000000 224.31127930
 3590.3999023 6.0000000000  -999.250000 0.1999999881 0.0000000000 308.41314697
 3590.5000000 6.0000000000  -999.250000 0.1999999881 0.0000000000 371.06591797
 3590.6000977 6.0000000000  -999.250000 0.1999999881 0.0000000000 383.26525879
 3590.6999512 6.0000000000  -999.250000 0.1999999881 0.0000000000 334.82098389
 3590.8000488 6.0000000000  -999.250000 0.1999999881 0.0000000000 242.13296509
 3590.9001465 6.0000000000  -999.250000 0.1999999881 0.0000000000 137.86431885
 3591.0000000 6.0000000000  -999.250000 0.1999999881 0.0000000000 55.151473999
 3591.1000977 6.0000000000  -999.250000 0.1999999881 0.0000000000 10.962024689
 3591.1999512 6.0000000000  -999.250000 0.1999999881 0.0000000000 0.1999999881
 3591.3000488 6.0000000000  -999.250000 0.1999999881 0.0000000000 0.1999999881
 3591.4001465 6.0000000000  -999.250000 0.1999999881 0.0000000000 0.1999999881
 3591.5000000 6.0000000000  -999.250000 0.1999999881 0.0000000000 0.1999999881
 3591.6000977 6.0000000000  -999.250000 0.1999999881 0.0000000000 0.1999999881
 3591.7001953 6.0000000000  -999.250000 0.1999999881 0.0000000000 0.1999999881
 3591.8000488 6.0000000000  -999.250000 0.1999999881 0.0000000000 0.1999999881
 3591.9001465 6.0000000000  -999.250000 0.1999999881 0.0000000000 0.1999999881
 3592.0002441 6.0000000000  -999.250000 0.1999999881 0.0000000000 0.1999999881
 3592.1000977 6.0000000000  -999.250000 0.1999999881 0.0000000000 0.1999999881
 3592.1999512 6.0000000000  -999.250000 0.1999999881 0.0000000000 0.1999999881
 3592.2998047 6.0000000000  -999.250000 0.1999999881 0.0000000000 0.1999999881
 3592.3999023 6.0000000000  -999.250000 0.1999999881 0.0000000000 0.1999999881
 3592.5000000 6.0000000000  -999.250000 0.1999999881 0.0000000000 0.1999999881
 3592.5998535 6.0000000000  -999.250000 0.1999999881 0.0000000000 0.1999999881
 3592.6999512 6.0000000000  -999.250000 0.1999999881 0.0000000000 0.1999999881
 3592.8000488 6.0000000000  -999.250000 0.1999999881 0.0000000000 0.1999999881
 3592.8999023 6.0000000000  -999.250000 0.1999999881 0.0000000000 0.1999999881
 3593.0000000 6.0000000000  -999.250000 0.1999999881 0.0000000000 0.1999999881
