# LAS format log file from PETREL
# Project units are specified as depth units
#==================================================================
~Version information
VERS.   2.0:
WRAP.   NO:
#==================================================================
~Well
STRT .m      513.13079834 :
STOP .m      3511.9055176 :
STEP .m     0.00000000 :
NULL .        -999.250000 :
COMP.           : COMPANY
WELL.  7/7-1   : WELL
FLD.            : FIELD
LOC.            : LOCATION
SRVC.           : SERVICE COMPANY
DATE.  2018-09-11 21:49:22   : Log Export Date {yyyy-MM-dd HH:mm:ss}
PROV.           : PROVINCE
UWI.   7/7-1   : UNIQUE WELL ID
API.            : API NUMBER
#==================================================================
~Curve
DEPT .m                   : DEPTH
CALI .in                  : CALI
DRHO .g/cm3               : DRHO
NPHI .m3/m3               : NPHI
RHOB .g/cm3               : RHOB
GR .gAPI                  : GR
DTC .us/ft                : DTC
RDEP .ohm.m               : RDEP
SP .mV                    : SP
RSHA .ohm.m               : RSHA
RMIC .ohm.m               : RMIC
RMED .ohm.m               : RMED
~Parameter
#==================================================================
~Ascii
# ...
 2907.0297852 12.620400429 0.0115573304 0.1287952065 2.5195825100 21.037778854 67.576110840 2.3820996284 62.578346252 2.4381999969  -999.250000 2.3924999237
 2907.1823730 12.623100281 0.0174166076 0.1237081736 2.5281660557 22.170269012 67.361244202 2.3850953579 62.153083801 2.8317000866  -999.250000 2.3498001099
 2907.3347168 12.625799179 0.0232776068 0.1185083315 2.5546188354 23.312868118 68.885757446 2.3879954815 61.726882935 3.2253000736  -999.250000 2.3071999550
 2907.4870605 12.628499031 0.0291396063 0.1133083329 2.5827987194 24.455469131 69.887062073 2.3907954693 61.300582886 3.6187999249  -999.250000 2.2644999027
 2907.6394043 12.627200127 0.0267169047 0.1139988750 2.5915114880 25.020595551 70.117225647 2.4158596992 61.653331757 3.4049000740  -999.250000 2.2581000328
 2907.7917480 12.625599861 0.0235272273 0.1150964797 2.5818514824 25.530965805 70.233497620 2.4430129528 62.078037262 3.1354000568  -999.250000 2.2550001144
 2907.9443359 12.623999596 0.0203251243 0.1162980795 2.5684139729 26.042881012 70.280891418 2.4701566696 62.504219055 2.8657999039  -999.250000 2.2518999577
 2908.0966797 12.624300003 0.0164202601 0.1188958362 2.5586431026 27.282510757 70.882514954 2.4244735241 62.645076752 2.7697999477  -999.250000 2.2151999474
 2908.2490234 12.625599861 0.0121069131 0.1223943904 2.5617277622 28.941740036 71.533592224 2.3367407322 62.622138977 2.7734000683  -999.250000 2.1591999531
 2908.4013672 12.626999855 0.0077988077 0.1257891208 2.5709896088 30.598888397 71.466125488 2.2490808964 62.598876953 2.7769999504  -999.250000 2.1031000614
 2908.5539551 12.627200127 0.0059918785 0.1302927881 2.5636913776 31.268733978 71.972480774 2.1708252430 62.655410767 2.7485001087  -999.250000 2.0506999493
 2908.7062988 12.625399590 0.0087745283 0.1365898997 2.5569832325 30.125337601 72.748886108 2.1102969646 62.857677460 2.6614999771  -999.250000 2.0048999786
 2908.8586426 12.623700142 0.0115645286 0.1429897547 2.5517113209 28.978937149 72.870681763 2.0498967171 63.060272217 2.5745000839  -999.250000 1.9592000246
 2909.0109863 12.622099876 0.0146132279 0.1486817598 2.5418021679 27.836362839 72.920974731 1.9915869236 63.205135345 2.4918999672  -999.250000 1.9149999619
 2909.1635742 12.623800278 0.0210047569 0.1472024024 2.5356938839 26.714094162 72.242042542 1.9604496956 62.627326965 2.4635000229  -999.250000 1.8903000355
 2909.3159180 12.625499725 0.0273957569 0.1456025690 2.5320050716 25.593694687 71.970863342 1.9293497801 62.048126221 2.4351999760  -999.250000 1.8655999899
 2909.4682617 12.627300262 0.0337867588 0.1440025568 2.5320000648 24.473194122 71.303497314 1.8982498646 61.468925476 2.4068999290  -999.250000 1.8408999443
 2909.6206055 12.626299858 0.0299451817 0.1441996694 2.5365808010 24.534399033 71.332611084 1.8748375177 62.054157257 2.3926999569  -999.250000 1.8375999928
 2909.7729492 12.624501228 0.0234219208 0.1447980851 2.5353193283 24.906007767 71.705024719 1.8533687592 62.944343567 2.3822000027  -999.250000 1.8400000334
 2909.9255371 12.622799873 0.0168724786 0.1454988867 2.5317196846 25.279302597 72.173072815 1.8318344355 63.837871552 2.3717000484  -999.250000 1.8423999548
 2910.0778809 12.621998787 0.0102036875 0.1442020833 2.5387487411 26.453117371 72.509719849 1.8154262304 63.865360260 2.3743999004  -999.250000 1.8278000355
 2910.2302246 12.621998787 0.0034128830 0.1411049664 2.5588943958 28.392290115 72.650924683 1.8037186861 63.066780090 2.3898000717  -999.250000 1.7970000505
 2910.3825684 12.621998787 -0.003367269 0.1380099207 2.5708286762 30.329591751 73.007255554 1.7920374870 62.268058777 2.4052000046  -999.250000 1.7661999464
 2910.5351563 12.622299194 -0.006976242 0.1363027245 2.5572412014 31.519998550 73.281677246 1.7814168930 61.785572052 2.4103000164  -999.250000 1.7424999475
 2910.6875000 12.623700142 0.0000636907 0.1391953528 2.5391125679 30.198724747 72.535888672 1.7744112015 62.366466522 2.3808999062  -999.250000 1.7419999838
 2910.8398438 12.625100136 0.0071206903 0.1420953572 2.5246105194 28.873424530 71.504447937 1.7675111294 62.949066162 2.3515000343  -999.250000 1.7416000366
 2910.9921875 12.626500130 0.0141664175 0.1449907124 2.5192205906 27.550239563 71.055084229 1.7606220245 63.530731201 2.3222000599  -999.250000 1.7410999537
 2911.1447754 12.626900673 0.0117688850 0.1408067346 2.5328822136 28.609792709 70.950202942 1.7963426113 62.782711029 2.3731000423  -999.250000 1.7740999460
 2911.2971191 12.627200127 0.0088466844 0.1362073720 2.5396580696 29.800590515 70.997688293 1.8345386982 61.961715698 2.4282999039  -999.250000 1.8087999821
 2911.4494629 12.627499580 0.0059246826 0.1316073835 2.5390009880 30.991590500 71.571876526 1.8726389408 61.140617371 2.4834001064  -999.250000 1.8436000347
 2911.6018066 12.628399849 0.0080775367 0.1314003319 2.5443658829 30.978424072 71.895805359 1.9329032898 61.050640106 2.5213000774  -999.250000 1.8993999958
 2911.7541504 12.629599571 0.0127380490 0.1333936006 2.5538747311 30.369455338 71.772949219 2.0040719509 61.322525024 2.5506999493  -999.250000 1.9656000137
 2911.9067383 12.630701065 0.0174175128 0.1353967935 2.5605759621 29.757478714 71.637687683 2.0754857063 61.595859528 2.5801000595  -999.250000 2.0318999290
 2912.0590820 12.630299568 0.0208814517 0.1382953525 2.5615520477 29.964466095 71.380187988 2.1371014118 61.726188660 2.6138999462  -999.250000 2.0871999264
 2912.2114258 12.627499580 0.0224415045 0.1422935873 2.5637092590 31.460498810 72.337287903 2.1835255623 61.631851196 2.6545999050  -999.250000 2.1250998974
 2912.3637695 12.624600410 0.0239960179 0.1463868916 2.5621387959 32.956203461 73.284736633 2.2298514843 61.537204742 2.6951999664  -999.250000 2.1630001068
 2912.5163574 12.623000145 0.0256074220 0.1499942392 2.5712358952 34.208396912 74.180274963 2.2728314400 61.515933990 2.7328999043  -999.250000 2.1956000328
 2912.6687012 12.631799698 0.0276547186 0.1500998288 2.5742998123 33.399501801 75.648750305 2.2869772911 62.104755402 2.7453999519  -999.250000 2.1846001148
 2912.8210449 12.640700340 0.0297027174 0.1501998305 2.5749990940 32.587299347 76.060073853 2.3011772633 62.694652557 2.7578999996  -999.250000 2.1735999584
 2912.9733887 12.649600029 0.0317464508 0.1501999944 2.5779628754 31.776300430 75.670814514 2.3152549267 63.283611298 2.7704999447  -999.250000 2.1626000404
 2913.1259766 12.645299911 0.0341641307 0.1470051259 2.5799605846 30.966394424 74.917335510 2.3064143658 63.448635101 2.7334001064  -999.250000 2.1422998905
 2913.2783203 12.638198853 0.0366560072 0.1431062371 2.5718340874 30.158596039 73.711280823 2.2926220894 63.522979736 2.6860001087  -999.250000 2.1199998856
 2913.4306641 12.631099701 0.0391480066 0.1391064078 2.5596163273 29.350694656 72.470848083 2.2789218426 63.597076416 2.6386001110  -999.250000 2.0978000164
 2913.5830078 12.628700256 0.0367668308 0.1341080219 2.5584762096 29.226099014 72.089736938 2.2454535961 63.420082092 2.5864000320  -999.250000 2.0492000580
 2913.7355957 12.630200386 0.0303263161 0.1280097663 2.5675425529 29.670886993 71.591018677 2.1955797672 63.033817291 2.5302999020  -999.250000 1.9788000584
 2913.8879395 12.631799698 0.0238793325 0.1220096201 2.5810947418 30.116586685 72.192237854 2.1456799507 62.647216797 2.4742000103  -999.250000 1.9083000422
 2914.0402832 12.632900238 0.0176719464 0.1186054498 2.5780498981 30.127882004 72.710083008 2.1065626144 62.302352905 2.4295001030  -999.250000 1.8618999720
 2914.1926270 12.632900238 0.0121318763 0.1225935891 2.5541677475 28.933916092 72.348495483 2.0977141857 62.072967529 2.4165999889  -999.250000 1.8818000555
 2914.3449707 12.632900238 0.0066017248 0.1264875084 2.5280709267 27.740026474 71.954727173 2.0889282227 61.844230652 2.4037001133  -999.250000 1.9018000364
 2914.4975586 12.632900238 0.0010538766 0.1303937584 2.5154802799 26.542217255 71.159927368 2.0800142288 61.614665985 2.3907999992  -999.250000 1.9217000008
 2914.6499023 12.635499001 0.0037117195 0.1213145778 2.5338423252 25.722211838 70.863334656 2.0719127655 62.013759613 2.5794999599  -999.250000 1.8899999857
