# LAS format log file from PETREL
# Project units are specified as depth units
#==================================================================
~Version information
VERS.   2.0:
WRAP.   NO:
#==================================================================
~Well
STRT .m      873.00000000 :
STOP .m      3593.0000000 :
STEP .m     0.00000000 :
NULL .        -999.250000 :
COMP.           : COMPANY
WELL.  7/7-3 Brynhild Appr   : WELL
FLD.            : FIELD
LOC.            : LOCATION
SRVC.           : SERVICE COMPANY
DATE.  2018-09-11 21:49:23   : Log Export Date {yyyy-MM-dd HH:mm:ss}
PROV.           : PROVINCE
UWI.   7/7-3   : UNIQUE WELL ID
API.            : API NUMBER
#==================================================================
~Curve
DEPT .m                   : DEPTH
CALI .in                  : CALI
GR .gAPI                  : GR
RDEP .ohm.m               : RDEP
SP .mV                    : SP
RMED .ohm.m               : RMED
~Parameter
#==================================================================
~Ascii
# ...
 3229.1999512 11.600000381 47.523090363 7.8949050903 38.481262207 6.9962863922
 3229.3000488 11.600000381 45.789054871 7.7161569595 38.643379211 7.2818498611
 3229.3999023 11.600000381 44.044692993 7.6207952499 38.571388245 7.5936965942
 3229.5000000 11.600000381 42.327030182 7.6768054962 38.264190674 7.9427366257
 3229.6000977 11.600000381 41.047885895 7.9440193176 37.767608643 8.3335838318
 3229.6999512 11.600000381 39.987060547 8.4556770325 37.136581421 8.7691574097
 3229.8000488 11.600000381 39.195663452 9.2053432465 36.395835876 9.2586536407
 3229.9001465 11.600000381 38.759532928 10.148881912 35.536926270 9.8040313721
 3230.0000000 11.600000381 38.492221832 11.219034195 34.541259766 10.382127762
 3230.1000977 11.600000381 38.441631317 12.338294983 33.400222778 10.941371918
 3230.1999512 11.600000381 38.619167328 13.432971954 32.148269653 11.419403076
 3230.3000488 11.600000381 38.897678375 14.439249039 30.885177612 11.770345688
 3230.4001465 11.600000381 39.295738220 15.308761597 29.757198334 11.984952927
 3230.5000000 11.600000381 39.681957245 16.019172668 28.904930115 12.091390610
 3230.6000977 11.600000381 40.038082123 16.585327148 28.413734436 12.138843536
 3230.7001953 11.600000381 40.309181213 17.051654816 28.293319702 12.175172806
 3230.8000488 11.600000381 40.597503662 17.471900940 28.488758087 12.229696274
 3230.9001465 11.600000381 40.929321289 17.890869141 28.896121979 12.307838440
 3231.0002441 11.600000381 41.404922485 18.336601257 29.381950378 12.399950027
 3231.1000977 11.600000381 41.855899811 18.817970276 29.831382751 12.492082596
 3231.1999512 11.600000381 42.205200195 19.326236725 30.172538757 12.570970535
 3231.2998047 11.600000381 42.038909912 19.831485748 30.375362396 12.627471924
 3231.3999023 11.600000381 41.573387146 20.288703918 30.451435089 12.661241531
 3231.5000000 11.600000381 40.947216034 20.656627655 30.465587616 12.683046341
 3231.5998535 11.600000381 40.489654541 20.919597626 30.505851746 12.714469910
 3231.6999512 11.600000381 40.380474091 21.100658417 30.645168304 12.781366348
 3231.8000488 11.600000381 40.547840118 21.260253906 30.919902802 12.900455475
 3231.8999023 11.600000381 41.046833038 21.474761963 31.333915710 13.067066193
 3232.0000000 11.600000381 41.268806458 21.794593811 31.847536087 13.253013611
 3232.1000977 11.600000381 41.235305786 22.211063385 32.379562378 13.416172028
 3232.1999512 11.600000381 40.118225098 22.659706116 32.831581116 13.518550873
 3232.3000488 11.600000381 38.861183167 23.059810638 33.135818481 13.543079376
 3232.4001465 11.600000381 37.457210541 23.362392426 33.249313354 13.499143600
 3232.5000000 11.600000381 36.809555054 23.570728302 33.145805359 13.415700912
 3232.6000977 11.600000381 36.717601776 23.733787537 32.817268372 13.328212738
 3232.7001953 11.600000381 37.309345245 23.918460846 32.292549133 13.268335342
 3232.8000488 11.600000381 38.900047302 24.180938721 31.617458344 13.262577057
 3232.9001465 11.600000381 40.570838928 24.547691345 30.829967499 13.333297729
 3233.0002441 11.600000381 42.209133148 25.013237000 29.945110321 13.494981766
 3233.1000977 11.600000381 42.990345001 25.553478241 28.976894379 13.744260788
 3233.2001953 11.600000381 43.277965546 26.143699646 27.951210022 14.051832199
 3233.3000488 11.600000381 42.865032196 26.769134521 26.940200806 14.367004395
 3233.4001465 11.600000381 42.105098724 27.427898407 26.050891876 14.637390137
 3233.5000000 11.600000381 41.292160034 28.125637054 25.378787994 14.834592819
 3233.5998535 11.600000381 40.536914825 28.872009277 24.963424683 14.968528748
 3233.6999512 11.600000381 39.825397491 29.678298950 24.766654968 15.084171295
 3233.8000488 11.600000381 39.151641846 30.554046631 24.709747314 15.240898132
 3233.8999023 11.600000381 38.553611755 31.499679565 24.727333069 15.480924606
 3234.0000000 11.600000381 38.134666443 32.497268677 24.791740417 15.804515839
 3234.0998535 11.600000381 37.848003387 33.508865356 24.913131714 16.163719177
 3234.1999512 11.600000381 37.812721252 34.476577759 25.122806549 16.478569031
 3234.3000488 11.600000381 37.823276520 35.332389832 25.438076019 16.670906067
 3234.3999023 11.600000381 37.853031158 36.013656616 25.821876526 16.699573517
 3234.5000000 11.600000381 37.863674164 36.488456726 26.203567505 16.582397461
 3234.6000977 11.600000381 37.909832001 36.774841309 26.566917419 16.390033722
 3234.6999512 11.600000381 37.967395782 36.937873840 26.956405640 16.214324951
 3234.8000488 11.600000381 37.932506561 37.071205139 27.405254364 16.126220703
 3234.9001465 11.600000381 37.728637695 37.264472961 27.924919128 16.145656586
 3235.0000000 11.600000381 37.389316559 37.569717407 28.520645142 16.240959167
 3235.1000977 11.600000381 36.821823120 37.980010986 29.204376221 16.352565765
 3235.2001953 11.600591660 36.359695435 38.423255920 29.963546753 16.422412872
 3235.3000488 11.602981567 35.994075775 38.785408020 30.730789185 16.413696289
 3235.4001465 11.607942581 36.025287628 38.946365356 31.400148392 16.314868927
 3235.5002441 11.616231918 36.065074921 38.823715210 31.865936279 16.136177063
 3235.6000977 11.627964020 36.114025116 38.410491943 32.049575806 15.905311584
 3235.7001953 11.642335892 36.008460999 37.783828735 31.935483932 15.665910721
 3235.8002930 11.657668114 36.003086090 37.087738037 31.590793610 15.472763062
 3235.8999023 11.671448708 36.138824463 36.482330322 31.136486053 15.378952026
 3236.0000000 11.680198669 36.889518738 36.089851379 30.666080475 15.415555954
 3236.0998535 11.681138992 37.807826996 35.968589783 30.180297852 15.573425293
 3236.1999512 11.673439026 38.899124146 36.100059509 29.625377655 15.801458359
 3236.3000488 11.658786774 39.609886169 36.402389526 28.972087860 16.023578644
 3236.3999023 11.640625000 39.974338531 36.760253906 28.249736786 16.165927887
 3236.5000000 11.623582840 39.772163391 37.058486938 27.525154114 16.181812286
 3236.6000977 11.610921860 39.012290955 37.219787598 26.885299683 16.066253662
 3236.6999512 11.603570938 38.080200195 37.241378784 26.386795044 15.858737946
 3236.8000488 11.600591660 37.037326813 37.210388184 26.049488068 15.632961273
 3236.8999023 11.600000381 36.303829193 37.279167175 25.871242523 15.469655991
 3237.0000000 11.600000381 35.826599121 37.599349976 25.861640930 15.423059464
 3237.1000977 11.600000381 35.873512268 38.245712280 26.025333405 15.500516891
 3237.1999512 11.600000381 36.119426727 39.183792114 26.334194183 15.670480728
 3237.3000488 11.600000381 36.375762939 40.279884338 26.724822998 15.892210007
 3237.4001465 11.600000381 36.333515167 41.356536865 27.120452881 16.147716522
 3237.5000000 11.600000381 36.020465851 42.256156921 27.446945190 16.455024719
 3237.6000977 11.600000381 35.581359863 42.912719727 27.656913757 16.853321075
 3237.7001953 11.600000381 35.202899933 43.391937256 27.732341766 17.365657806
 3237.8000488 11.600000381 35.059101105 43.864532471 27.706523895 17.963035583
 3237.9001465 11.600000381 35.081310272 44.505279541 27.649559021 18.557708740
 3238.0002441 11.600000381 35.311676025 45.378425598 27.644470215 19.035423279
 3238.1000977 11.600000381 35.427436829 46.390838623 27.773830414 19.303588867
 3238.1999512 11.600000381 35.439250946 47.337074280 28.088985443 19.324398041
 3238.2998047 11.600000381 35.067943573 47.985282898 28.571582794 19.116954803
 3238.3999023 11.600000381 34.710540771 48.174865723 29.137084961 18.735858917
 3238.5000000 11.600000381 34.366840363 47.873352051 29.676254272 18.246391296
 3238.5998535 11.600000381 34.552738190 47.162391663 30.116424561 17.708213806
 3238.6999512 11.600000381 34.947044373 46.169464111 30.437843323 17.170749664
 3238.8000488 11.600000381 35.571441650 44.984245300 30.633674622 16.678295135
 3238.8999023 11.600000381 36.328178406 43.654533386 30.698364258 16.272212982
 3239.0000000 11.600000381 36.988056183 42.226478577 30.636592865 15.980876923
 3239.1000977 11.599411011 37.504695892 40.764190674 30.489955902 15.805095673
 3239.1999512 11.597021103 37.731674194 39.323379517 30.333366394 15.716087341
 3239.3000488 11.592649460 37.852581024 37.928665161 30.196372986 15.669483185
