# LAS format log file from PETREL
# Project units are specified as depth units
#==================================================================
~Version information
VERS.   2.0:
WRAP.   NO:
#==================================================================
~Well
STRT .m      513.13079834 :
STOP .m      3511.9055176 :
STEP .m     0.00000000 :
NULL .        -999.250000 :
COMP.           : COMPANY
WELL.  7/7-1   : WELL
FLD.            : FIELD
LOC.            : LOCATION
SRVC.           : SERVICE COMPANY
DATE.  2018-09-11 21:49:22   : Log Export Date {yyyy-MM-dd HH:mm:ss}
PROV.           : PROVINCE
UWI.   7/7-1   : UNIQUE WELL ID
API.            : API NUMBER
#==================================================================
~Curve
DEPT .m                   : DEPTH
CALI .in                  : CALI
DRHO .g/cm3               : DRHO
NPHI .m3/m3               : NPHI
RHOB .g/cm3               : RHOB
GR .gAPI                  : GR
DTC .us/ft                : DTC
RDEP .ohm.m               : RDEP
SP .mV                    : SP
RSHA .ohm.m               : RSHA
RMIC .ohm.m               : RMIC
RMED .ohm.m               : RMED
~Parameter
#==================================================================
~Ascii
# ...
 948.38513184 18.103000641 0.0031433739  -999.250000 1.9998627901 49.992763519 161.39024353 0.7859132886 -26.42992783 0.9028000236  -999.250000 0.7186999917
 948.53753662 18.103300095 0.0028692179  -999.250000 1.9974306822 49.493999481 161.20599365 0.7718112469 -26.42160606 0.8992999792  -999.250000 0.7085000277
 948.68994141 18.111400604 0.0108126327  -999.250000 1.9960019588 51.158863068 160.91786194 0.7654051185 -26.49424171 0.8950999975  -999.250000 0.7041000128
 948.84234619 18.119600296 0.0187648144  -999.250000 1.9960000515 52.826232910 160.80830383 0.7590025663 -26.56687164 0.8909999728  -999.250000 0.6996999979
 948.99475098 18.127700806 0.0267138164  -999.250000 1.9941159487 54.492832184 160.80830383 0.7526025772 -26.63957214 0.8867999911  -999.250000 0.6952999830
 949.14715576 18.149099350 0.0258383527  -999.250000 1.9983199835 53.896942139 160.80386353 0.7599970102 -26.37200737 0.8855999708  -999.250000 0.7012000084
 949.29956055 18.170900345 0.0246464759  -999.250000 2.0003795624 53.220169067 160.77713013 0.7678968310 -26.09231186 0.8845000267  -999.250000 0.7074000239
 949.45196533 18.192699432 0.0234554764  -999.250000 2.0022003651 52.543472290 161.06599426 0.7757968307 -25.81261253 0.8834000230  -999.250000 0.7136999965
 949.60437012 18.204500198 0.0186639205  -999.250000 2.0054569244 51.472927094 161.29997253 0.7834969163 -25.98802948 0.8880000114  -999.250000 0.7203000188
 949.75677490 18.211500168 0.0122145833  -999.250000 2.0089943409 50.221099854 161.45928955 0.7909970284 -26.37294579 0.8949999809  -999.250000 0.7269999981
 949.90917969 18.218599319 0.0057655824  -999.250000 2.0084815025 48.969299316 161.33476257 0.7985969782 -26.75784492 0.9021000266  -999.250000 0.7336999774
 950.06158447 18.224300385 0.0027482079  -999.250000 2.0084354877 48.091751099 161.15620422 0.8049974442 -26.90334129 0.9071999788  -999.250000 0.7379999757
 950.21398926 18.227800369 0.0047921804  -999.250000 2.0141766071 47.766330719 161.03256226 0.8097981215 -26.69578362 0.9093999863  -999.250000 0.7386000156
 950.36639404 18.231399536 0.0068371808  -999.250000 2.0224087238 47.441131592 160.86746216 0.8145980835 -26.48808479 0.9115999937  -999.250000 0.7391999960
 950.51873779 18.235099792 0.0084017469  -999.250000 2.0282635689 47.123554230 160.81794739 0.8184968829 -26.39047813 0.9131000042  -999.250000 0.7391999960
 950.67114258 18.239999771 0.0065514841  -999.250000 2.0292890072 46.858612061 160.91342163 0.8171011209 -27.07464981 0.9097999930  -999.250000 0.7353000045
 950.82354736 18.244899750 0.0046984842  -999.250000 2.0268549919 46.593814850 160.74819946 0.8156011701 -27.75955009 0.9064999819  -999.250000 0.7314000130
 950.97595215 18.249799728 0.0028457420  -999.250000 2.0252084732 46.328807831 160.66981506 0.8141006231 -28.44472504 0.9031999707  -999.250000 0.7275000215
 951.12835693 18.248800278 0.0032048558  -999.250000 2.0239887238 47.016925812 160.43659973 0.8119009137 -27.91611099 0.9047999978  -999.250000 0.7285000086
 951.28076172 18.246799469 0.0039786897  -999.250000 2.0220756531 47.883552551 160.27120972 0.8095009327 -27.16020393 0.9072999954  -999.250000 0.7304000258
 951.43316650 18.244800568 0.0047526900  -999.250000 2.0185537338 48.750251770 160.25598145 0.8071009517 -26.40430260 0.9096999764  -999.250000 0.7322999835
 951.58557129 18.246799469 0.0051238514  -999.250000 2.0159919262 48.356555939 160.78678894 0.8092991114 -26.04794312 0.9117000103  -999.250000 0.7343000174
 951.73797607 18.251800537 0.0051799775  -999.250000 2.0096702576 46.978752136 161.20022583 0.8148977160 -26.00371742 0.9132999778  -999.250000 0.7365000248
 951.89038086 18.256900787 0.0052359779  -999.250000 2.0047898293 45.600452423 161.60231018 0.8204977512 -25.95951653 0.9149000049  -999.250000 0.7386999726
 952.04278564 18.258100510 0.0051750243  -999.250000 2.0033302307 45.313713074 161.76190186 0.8267974854 -26.08984756 0.9167000055  -999.250000 0.7419999838
 952.19519043 18.249599457 0.0048141442  -999.250000 2.0029056072 47.822395325 161.74778748 0.8346968293 -26.66706848 0.9189000130  -999.250000 0.7481999993
 952.34759521 18.240999222 0.0044531445  -999.250000 2.0020010471 50.332096100 161.56355286 0.8425968289 -27.24436951 0.9211999774  -999.250000 0.7544000149
 952.50000000 18.232500076 0.0040921443  -999.250000 2.0020000935 52.841896057 161.27540588 0.8505967855 -27.82166862 0.9233999848  -999.250000 0.7605999708
 952.65234375 18.207399368 0.0058356025  -999.250000 2.0088078976 51.852092743 161.16146851 0.8599925041 -27.99316216 0.9276000261  -999.250000 0.7674999833
 952.80474854 18.182300568 0.0075796032  -999.250000 2.0119955540 50.860393524 161.08668518 0.8694923520 -28.16446304 0.9319000244  -999.250000 0.7745000124
 952.95715332 18.157199860 0.0093236035  -999.250000 2.0068643093 49.868793488 160.77937317 0.8788924813 -28.33586311 0.9362000227  -999.250000 0.7814000249
 953.10955811 18.135799408 0.0043439963  -999.250000 2.0040020943 48.303924561 160.41212463 0.8842978477 -28.01902771 0.9398000240  -999.250000 0.7839000225
 953.26196289 18.115800858 -0.003264952  -999.250000 2.0035903454 46.515617371 159.94039917 0.8881984353 -27.51140404 0.9433000088  -999.250000 0.7846999764
 953.41436768 18.095800400 -0.010873953  -999.250000 1.9968992472 44.727218628 159.55125427 0.8920984268 -27.00360489 0.9466999769  -999.250000 0.7854999900
 953.56677246 18.082799911 -0.011700670  -999.250000 1.9894074202 44.385437012 159.43652344 0.8970979452 -26.98280716 0.9472000003  -999.250000 0.7889000177
 953.71917725 18.078599930 -0.003830153  -999.250000 1.9847873449 45.898193359 159.39263916 0.9035973549 -27.58635712 0.9441000223  -999.250000 0.7955999970
 953.87158203 18.074499130 0.0040438464  -999.250000 1.9820851088 47.411594391 159.58477783 0.9100973606 -28.19005775 0.9409000278  -999.250000 0.8022999763
 954.02398682 18.072099686 0.0100455964  -999.250000 1.9864200354 48.535549164 159.85459900 0.9170972109 -28.59203911 0.9394999743  -999.250000 0.8093000054
 954.17639160 18.079799652 0.0060316091  -999.250000 1.9973564148 47.575286865 159.82553101 0.9266961217 -27.91457176 0.9470000267  -999.250000 0.8177000284
 954.32879639 18.087400436 0.0020136090  -999.250000 2.0064549446 46.614185333 159.41946411 0.9363961220 -27.23667145 0.9545999765  -999.250000 0.8260999918
 954.48120117 18.094999313 -0.002005390  -999.250000 2.0063297749 45.652984619 158.48068237 0.9459961057 -26.55877113 0.9621000290  -999.250000 0.8345000148
 954.63354492 18.099500656 0.0027202107  -999.250000 2.0062730312 45.403198242 157.76696777 0.9543932676 -26.54710960 0.9685000181  -999.250000 0.8379999995
 954.78594971 18.103700638 0.0086802253  -999.250000 2.0131788254 45.253620148 157.71853638 0.9625934362 -26.62943268 0.9746000171  -999.250000 0.8406999707
 954.93835449 18.107799530 0.0146422246  -999.250000 2.0234217644 45.104118347 157.82809448 0.9707934260 -26.71173286 0.9807999730  -999.250000 0.8434000015
 955.09075928 18.103599548 0.0121739907  -999.250000 2.0308411121 45.628189087 157.83775330 0.9696004987 -26.40892220 0.9779000282  -999.250000 0.8404999971
 955.24316406 18.093700409 0.0039802822  -999.250000 2.0301389694 46.609405518 157.94287109 0.9620030522 -25.84462738 0.9688000083  -999.250000 0.8338000178
 955.39556885 18.083799362 -0.004215718  -999.250000 2.0208086967 47.590908051 157.88174438 0.9543030858 -25.28032494 0.9598000050  -999.250000 0.8270999789
 955.54797363 18.077400208 -0.008783172  -999.250000 2.0114235878 48.681961060 157.78627014 0.9456034303 -25.10916901 0.9513000250  -999.250000 0.8213000298
 955.70037842 18.078800201 -0.005455334  -999.250000 2.0064158440 50.011466980 157.95251465 0.9345044494 -25.79382515 0.9438999891  -999.250000 0.8176000118
 955.85278320 18.080200195 -0.002125334  -999.250000 2.0051929951 51.341064453 158.03442383 0.9233044982 -26.47872543 0.9363999963  -999.250000 0.8140000105
 956.00518799 18.081499100 0.0010917117  -999.250000 2.0090215206 52.596195221 158.34367371 0.9123044014 -27.11544418 0.9294000268  -999.250000 0.8101999760
