# LAS format log file from PETREL
# Project units are specified as depth units
#==================================================================
~Version information
VERS.   2.0:
WRAP.   NO:
#==================================================================
~Well
STRT .m      513.13079834 :
STOP .m      3511.9055176 :
STEP .m     0.00000000 :
NULL .        -999.250000 :
COMP.           : COMPANY
WELL.  7/7-1   : WELL
FLD.            : FIELD
LOC.            : LOCATION
SRVC.           : SERVICE COMPANY
DATE.  2018-09-11 21:49:22   : Log Export Date {yyyy-MM-dd HH:mm:ss}
PROV.           : PROVINCE
UWI.   7/7-1   : UNIQUE WELL ID
API.            : API NUMBER
#==================================================================
~Curve
DEPT .m                   : DEPTH
CALI .in                  : CALI
DRHO .g/cm3               : DRHO
NPHI .m3/m3               : NPHI
RHOB .g/cm3               : RHOB
GR .gAPI                  : GR
DTC .us/ft                : DTC
RDEP .ohm.m               : RDEP
SP .mV                    : SP
RSHA .ohm.m               : RSHA
RMIC .ohm.m               : RMIC
RMED .ohm.m               : RMED
~Parameter
#==================================================================
~Ascii
# ...
 1142.6951904 18.052600861 0.0040342147  -999.250000 2.0131735802 42.943515778 152.05523682 0.8491055369 -83.73503113 0.9082999825  -999.250000 0.7486000061
 1142.8475342 18.052700043 0.0050152140  -999.250000 2.0149981976 44.297218323 152.18626404 0.8422055244 -83.19313812 0.9043999910  -999.250000 0.7494999766
 1143.0000000 18.052799225 0.0059969998  -999.250000 2.0120587349 45.651901245 152.38381958 0.8353000283 -82.65070343 0.9006000161  -999.250000 0.7504000068
 1143.1523438 18.029800415 0.0209580120  -999.250000 2.0136077404 46.465446472 152.11898804 0.8412951827 -83.03009796 0.9072999954  -999.250000 0.7574999928
 1143.3048096 18.006799698 0.0359430015  -999.250000 2.0242013931 47.280200958 151.53222656 0.8472999930 -83.41010284 0.9140999913  -999.250000 0.7645000219
 1143.4571533 17.983800888 0.0509040132  -999.250000 2.0325503349 48.093746185 151.06329346 0.8531953096 -83.78939819 0.9208999872  -999.250000 0.7716000080
 1143.6096191 17.925300598 0.0459120013  -999.250000 2.0322833061 47.986801147 150.72634888 0.8641999960 -84.20020294 0.9247000217  -999.250000 0.7803000212
 1143.7619629 17.852899551 0.0331162512  -999.250000 2.0276951790 47.519573212 150.63490295 0.8771895766 -84.62246704 0.9272999763  -999.250000 0.7896000147
 1143.9144287 17.780399323 0.0203009993  -999.250000 2.0243036747 47.051700592 150.85527039 0.8902000189 -85.04540253 0.9298999906  -999.250000 0.7990000248
 1144.0667725 17.751800537 0.0126401382  -999.250000 2.0275819302 47.587368011 150.85392761 0.8999921083 -84.91130829 0.9322999716  -999.250000 0.8051000237
 1144.2192383 17.779199600 0.0115510002  -999.250000 2.0336732864 49.410198212 150.86499023 0.9057999849 -84.06359863 0.9344000220  -999.250000 0.8070999980
 1144.3715820 17.806699753 0.0104698660  -999.250000 2.0388123989 51.231143951 150.99244690 0.9115953445 -83.21678162 0.9365000129  -999.250000 0.8091999888
 1144.5239258 17.834400177 0.0089552132  -999.250000 2.0480337143 52.623584747 151.23231506 0.9163961411 -82.54673767 0.9375000000  -999.250000 0.8106999993
 1144.6763916 17.863899231 0.0051290649  -999.250000 2.0561430454 51.715827942 151.43046570 0.9163000584 -82.82667542 0.9326000214  -999.250000 0.8094999790
 1144.8287354 17.893400192 0.0013020665  -999.250000 2.0609939098 50.806327820 151.22267151 0.9162000418 -83.10747528 0.9276999831  -999.250000 0.8083000183
 1144.9812012 17.922899246 -0.002528000  -999.250000 2.0576751232 49.895999908 151.33056641 0.9161000252 -83.38839722 0.9228000045  -999.250000 0.8069999814
 1145.1335449 17.928600311 0.0006204772  -999.250000 2.0520610809 49.155891418 151.34204102 0.9062079191 -83.74171448 0.9286000133  -999.250000 0.7973999977
 1145.2860107 17.930900574 0.0047559999  -999.250000 2.0551640987 48.438301086 151.50939941 0.8949000239 -84.10590363 0.9358000159  -999.250000 0.7867000103
 1145.4383545 17.933200836 0.0088856909  -999.250000 2.0648984909 47.721973419 152.23222351 0.8837089539 -84.46941376 0.9430999756  -999.250000 0.7759000063
 1145.5908203 17.888099670 0.0056960001  -999.250000 2.0661623478 47.851200104 153.04029846 0.8759999871 -84.52369690 0.9406999946  -999.250000 0.7703999877
 1145.7431641 17.811000824 -0.002460464  -999.250000 2.0548045635 48.555034637 153.49490356 0.8707042336 -84.36772156 0.9319000244  -999.250000 0.7684999704
 1145.8956299 17.733900070 -0.010631000  -999.250000 2.0413901806 49.259899139 153.67825317 0.8654999733 -84.21150208 0.9230999947  -999.250000 0.7666000128
 1146.0479736 17.679599762 -0.013927359  -999.250000 2.0305516720 49.463634491 153.18904114 0.8631018996 -84.06451416 0.9180999994  -999.250000 0.7677999735
 1146.2004395 17.674999237 -0.006648000  -999.250000 2.0274178982 48.579299927 152.60504150 0.8669999838 -83.93689728 0.9218000174  -999.250000 0.7754999995
 1146.3527832 17.670400620 0.0006281697  -999.250000 2.0302166939 47.695510864 152.12611389 0.8708968759 -83.80950165 0.9254000187  -999.250000 0.7832999825
 1146.5051270 17.666099548 0.0077103255  -999.250000 2.0349195004 46.847980499 151.66127014 0.8747969270 -83.70718384 0.9290999770  -999.250000 0.7907999754
 1146.6575928 17.670000076 0.0091708340  -999.250000 2.0322473049 47.045341492 151.33239746 0.8796960711 -84.31700897 0.9337999821  -999.250000 0.7906000018
 1146.8099365 17.673799515 0.0106268330  -999.250000 2.0334603786 47.243537903 151.34187317 0.8846960068 -84.92741394 0.9386000037  -999.250000 0.7904999852
 1146.9624023 17.677600861 0.0120839998  -999.250000 2.0367245674 47.442001343 151.45942688 0.8895999789 -85.53839874 0.9434000254  -999.250000 0.7904000282
 1147.1147461 17.676200867 0.0106841223  -999.250000 2.0344042778 47.791820526 151.57098389 0.8862027526 -85.13243103 0.9386000037  -999.250000 0.7865999937
 1147.2672119 17.673200607 0.0083470000  -999.250000 2.0280487537 48.192001343 151.58044434 0.8801000118 -84.39289856 0.9308000207  -999.250000 0.7815999985
 1147.4195557 17.670099258 0.0060118712  -999.250000 2.0189752579 48.591678619 151.70736694 0.8741048574 -83.65429688 0.9229000211  -999.250000 0.7766000032
 1147.5720215 17.669799805 0.0056420001  -999.250000 2.0155637264 48.503200531 151.93814087 0.8713999987 -83.31079865 0.9197999835  -999.250000 0.7756999731
 1147.7243652 17.672700882 0.0074705351  -999.250000 2.0206558704 47.869106293 152.06489563 0.8724991083 -83.41032410 0.9219999909  -999.250000 0.7793999910
 1147.8768311 17.675600052 0.0093010003  -999.250000 2.0259804726 47.234100342 152.29600525 0.8736000061 -83.51000214 0.9241999984  -999.250000 0.7829999924
 1148.0291748 17.678400040 0.0108377691  -999.250000 2.0243525505 46.899566650 152.39347839 0.8751987219 -83.57564545 0.9269999862  -999.250000 0.7868999839
 1148.1816406 17.680799484 0.0111419996  -999.250000 2.0228748322 47.829200745 152.25708008 0.8794000149 -83.49849701 0.9323999882  -999.250000 0.7915999889
 1148.3339844 17.683300018 0.0114447577  -999.250000 2.0272655487 48.758358002 151.87814331 0.8834967017 -83.42136383 0.9377999902  -999.250000 0.7962999940
 1148.4864502 17.685800552 0.0117480000  -999.250000 2.0359771252 49.688999176 151.30305481 0.8876000047 -83.34410095 0.9431999922  -999.250000 0.8009999990
 1148.6387939 17.680799484 0.0098645091  -999.250000 2.0398073196 49.619258881 150.97314453 0.8888999820 -82.80153656 0.9420999885  -999.250000 0.7954999804
 1148.7911377 17.674999237 0.0077646831  -999.250000 2.0358214378 49.451534271 150.98417664 0.8899000287 -82.21287537 0.9402999878  -999.250000 0.7889999747
 1148.9436035 17.669200897 0.0056646816  -999.250000 2.0294158459 49.283832550 151.15014648 0.8909000158 -81.62380219 0.9384999871  -999.250000 0.7824000120
 1149.0959473 17.669900894 0.0057409378  -999.250000 2.0242550373 48.403903961 151.92512512 0.8923000097 -81.46589661 0.9370999932  -999.250000 0.7825000286
 1149.2484131 17.674299240 0.0070969998  -999.250000 2.0171818733 47.104000092 153.33665466 0.8939999938 -81.56120300 0.9356999993  -999.250000 0.7865999937
 1149.4007568 17.678800583 0.0084529128  -999.250000 2.0114367008 45.805839539 154.44815063 0.8957999945 -81.65640259 0.9344000220  -999.250000 0.7906000018
 1149.5532227 17.694999695 0.0102939997  -999.250000 2.0094094276 44.741699219 154.63253784 0.8975999951 -81.58750153 0.9363999963  -999.250000 0.7929000258
 1149.7055664 17.733100891 0.0130328061  -999.250000 2.0118806362 44.119300842 154.12298584 0.8996999860 -81.21260071 0.9447000027  -999.250000 0.7918000221
 1149.8580322 17.771299362 0.0157769993  -999.250000 2.0138463974 43.495800018 153.32048035 0.9017000198 -80.83769989 0.9528999925  -999.250000 0.7907999754
 1150.0103760 17.808099747 0.0178163666  -999.250000 2.0151979923 42.993206024 152.87011719 0.9035999775 -80.45770264 0.9600999951  -999.250000 0.7894999981
 1150.1628418 17.827699661 0.0103040002  -999.250000 2.0174281597 44.126998901 152.77297974 0.9020000100 -80.00710297 0.9537000060  -999.250000 0.7854999900
 1150.3151855 17.847299576 0.0027950169  -999.250000 2.0129776001 45.260292053 152.89906311 0.9003999829 -79.55660248 0.9473000169  -999.250000 0.7814000249
