# LAS format log file from PETREL
# Project units are specified as depth units
#==================================================================
~Version information
VERS.   2.0:
WRAP.   NO:
#==================================================================
~Well
STRT .m      855.12506104 :
STOP .m      3436.8750000 :
STEP .m     0.00000000 :
NULL .        -999.250000 :
COMP.           : COMPANY
WELL.  7/7-2 Brynhild   : WELL
FLD.            : FIELD
LOC.            : LOCATION
SRVC.           : SERVICE COMPANY
DATE.  2018-09-11 21:49:22   : Log Export Date {yyyy-MM-dd HH:mm:ss}
PROV.           : PROVINCE
UWI.   7/7-2   : UNIQUE WELL ID
API.            : API NUMBER
#==================================================================
~Curve
DEPT .m                   : DEPTH
CALI .in                  : CALI
DRHO .g/cm3               : DRHO
NPHI .m3/m3               : NPHI
RHOB .g/cm3               : RHOB
GR .gAPI                  : GR
DTC .us/ft                : DTC
RDEP .ohm.m               : RDEP
SP .mV                    : SP
RSHA .ohm.m               : RSHA
RMED .ohm.m               : RMED
~Parameter
#==================================================================
~Ascii
# ...
 1030.1250000 5.4348998070  -999.250000  -999.250000  -999.250000 85.881301880 162.17987061 1.2029000521 64.325538635  -999.250000 0.8880000114
 1030.2500000 5.4348998070  -999.250000  -999.250000  -999.250000 86.042396545 162.17648315 1.2144999504 64.463516235  -999.250000 0.8877999783
 1030.3750000 5.4348998070  -999.250000  -999.250000  -999.250000 84.806198120 162.18449402 1.2209999561 64.654258728  -999.250000 0.8820999861
 1030.5000000 5.4348998070  -999.250000  -999.250000  -999.250000 80.542396545 162.18449402 1.2410000563 64.721519470  -999.250000 0.8788999915
 1030.6250000 5.4348998070  -999.250000  -999.250000  -999.250000 87.232299805 162.09196472 1.2562999725 64.623611450  -999.250000 0.8690000176
 1030.7500000 5.4348998070  -999.250000  -999.250000  -999.250000 92.111701965 162.12380981 1.2467000484 64.481094360  -999.250000 0.8766000271
 1030.8750000 5.4348998070  -999.250000  -999.250000  -999.250000 89.900100708 162.18070984 1.2309999466 64.469985962  -999.250000 0.8848999739
 1031.0000000 5.4348998070  -999.250000  -999.250000  -999.250000 86.847503662 162.17564392 1.2273000479 64.026702881  -999.250000 0.8899999857
 1031.1250000 5.4348998070  -999.250000  -999.250000  -999.250000 83.438903809 162.18443298 1.2220000029 64.053764343  -999.250000 0.8999000192
 1031.2500000 5.4348998070  -999.250000  -999.250000  -999.250000 82.822601318 162.17579651 1.2122000456 63.593128204  -999.250000 0.9125000238
 1031.3750000 5.4348998070  -999.250000  -999.250000  -999.250000 78.061798096 162.18057251 1.2039999962 63.432224274  -999.250000 0.9117000103
 1031.5000000 5.4348998070  -999.250000  -999.250000  -999.250000 76.514801025 162.12551880 1.2113000154 63.323390961  -999.250000 0.9021999836
 1031.6250000 5.4348998070  -999.250000  -999.250000  -999.250000 82.555198669 162.09019470 1.2246999741 63.356605530  -999.250000 0.8949999809
 1031.7500000 5.4348998070  -999.250000  -999.250000  -999.250000 74.410202026 162.18348694 1.2208000422 63.927875519  -999.250000 0.8816000223
 1031.8750000 5.4348998070  -999.250000  -999.250000  -999.250000 81.703903198 162.17471313 1.2149000168 63.638809204  -999.250000 0.8689000010
 1032.0000000 5.4348998070  -999.250000  -999.250000  -999.250000 83.986701965 162.18165588 1.2065000534 63.489967346  -999.250000 0.8644999862
 1032.1250000 5.4348998070  -999.250000  -999.250000  -999.250000 89.951400757 162.17855835 1.1928000450 63.820140839  -999.250000 0.8719999790
 1032.2500000 5.4348998070  -999.250000  -999.250000  -999.250000 89.693603516 162.17781067 1.1782000065 64.871520996  -999.250000 0.9064999819
 1032.3750000 5.4348998070  -999.250000  -999.250000  -999.250000 85.344200134 162.16119385 1.1780999899 64.934524536  -999.250000 0.9157000184
 1032.5000000 5.4348998070  -999.250000  -999.250000  -999.250000 81.257598877 162.06684875 1.1936999559 64.821823120  -999.250000 0.9147999883
 1032.6250000 5.4348998070  -999.250000  -999.250000  -999.250000 90.621696472 162.15596008 1.2179000378 64.885322571  -999.250000 0.9115999937
 1032.7500000 5.4348998070  -999.250000  -999.250000  -999.250000 85.561203003 162.18081665 1.2458000183 64.777854919  -999.250000 0.9053999782
 1032.8750000 5.4348998070  -999.250000  -999.250000  -999.250000 89.942901611 162.17939758 1.2551000118 64.525657654  -999.250000 0.9035000205
 1033.0000000 5.4348998070  -999.250000  -999.250000  -999.250000 85.299201965 162.17697144 1.2461999655 64.193603516  -999.250000 0.9053999782
 1033.1250000 5.4348998070  -999.250000  -999.250000  -999.250000 84.000000000 162.18324280 1.2346999645 63.647609711  -999.250000 0.9071000218
 1033.2500000 5.4348998070  -999.250000  -999.250000  -999.250000 77.834800720 162.17446899 1.2207000256 63.559448242  -999.250000 0.9100999832
 1033.3750000 5.4348998070  -999.250000  -999.250000  -999.250000 76.780700684 162.09156799 1.2043999434 64.030815125  -999.250000 0.9133999944
 1033.5000000 5.4348998070  -999.250000  -999.250000  -999.250000 77.667503357 162.12788391 1.1869000196 64.447654724  -999.250000 0.9114999771
 1033.6250000 5.4348998070  -999.250000  -999.250000  -999.250000 78.279403687 162.17805481 1.1618000269 63.777847290  -999.250000 0.9025999904
 1033.7500000 5.4348998070  -999.250000  -999.250000  -999.250000 83.737297058 162.18215942 1.1358000040 64.653289795  -999.250000 0.8914999962
 1033.8750000 5.4348998070  -999.250000  -999.250000  -999.250000 87.165199280 162.17419434 1.1131999493 64.666488647  -999.250000 0.8888999820
 1034.0000000 5.4348998070  -999.250000  -999.250000  -999.250000 85.562896729 162.18298340 1.0961999893 63.990806580  -999.250000 0.8910999894
 1034.1250000 5.4348998070  -999.250000  -999.250000  -999.250000 85.678901672 162.17724609 1.0885000229 64.181785583  -999.250000 0.8924999833
 1034.2500000 5.4348998070  -999.250000  -999.250000  -999.250000 88.751296997 162.11967468 1.0859999657 64.310356140  -999.250000 0.8877000213
 1034.3750000 5.4348998070  -999.250000  -999.250000  -999.250000 95.978500366 162.10321045 1.0861999989 64.331352234  -999.250000 0.8722000122
 1034.5000000 5.4348998070  -999.250000  -999.250000  -999.250000 88.465698242 162.18301392 1.0879000425 63.873825073  -999.250000 0.8547999859
 1034.6250000 5.4348998070  -999.250000  -999.250000  -999.250000 90.137603760 162.17424011 1.0894000530 63.844612122  -999.250000 0.8482000232
 1034.7500000 5.4348998070  -999.250000  -999.250000  -999.250000 82.133499146 162.18212891 1.1030999422 64.405014038  -999.250000 0.8614000082
 1034.8750000 5.4348998070  -999.250000  -999.250000  -999.250000 84.024696350 162.17808533 1.1188999414 64.114532471  -999.250000 0.8856999874
 1035.0000000 5.4348998070  -999.250000  -999.250000  -999.250000 85.257301331 162.12820435 1.1514999866 64.136695862  -999.250000 0.9036999941
 1035.1250000 5.4348998070  -999.250000  -999.250000  -999.250000 89.672798157 162.09127808 1.1814999580 63.759937286  -999.250000 0.9017000198
 1035.2500000 5.4348998070  -999.250000  -999.250000  -999.250000 87.912498474 162.17443848 1.2003999949 63.990295410  -999.250000 0.8909000158
 1035.3750000 5.4348998070  -999.250000  -999.250000  -999.250000 82.875801086 162.18321228 1.2098000050 63.999130249  -999.250000 0.8913999796
 1035.5000000 5.4348998070  -999.250000  -999.250000  -999.250000 84.833702087 162.17700195 1.2247999907 64.567787170  -999.250000 0.8996000290
 1035.6250000 5.4348998070  -999.250000  -999.250000  -999.250000 85.715400696 162.17936707 1.2402000427 65.236244202  -999.250000 0.9071000218
 1035.7500000 5.4348998070  -999.250000  -999.250000  -999.250000 74.562103271 162.18084717 1.2569999695 64.723876953  -999.250000 0.9117000103
 1035.8750000 5.4348998070  -999.250000  -999.250000  -999.250000 79.474800110 162.15631104 1.2673000097 65.030654907  -999.250000 0.9179999828
 1036.0000000 5.4348998070  -999.250000  -999.250000  -999.250000 85.125396729 162.06719971 1.2761000395 65.264472961  -999.250000 0.9197999835
 1036.1250000 5.4348998070  -999.250000  -999.250000  -999.250000 82.435997009 162.15223694 1.2838000059 65.696937561  -999.250000 0.9254000187
 1036.2500000 5.4348998070  -999.250000  -999.250000  -999.250000 82.463600159 162.18045044 1.3013000488 65.424491882  -999.250000 0.9373999834
 1036.3750000 5.4348998070  -999.250000  -999.250000  -999.250000 84.853103638 162.18449402 1.3130999804 65.456604004  -999.250000 0.9352999926
 1036.5000000 5.4348998070  -999.250000  -999.250000  -999.250000 92.659301758 162.18168640 1.3222999573 65.945739746  -999.250000 0.9289000034
 1036.6250000 5.4348998070  -999.250000  -999.250000  -999.250000 81.720802307 162.17468262 1.3206000328 65.363647461  -999.250000 0.9258000255
 1036.7500000 5.4348998070  -999.250000  -999.250000  -999.250000 84.738601685 162.18345642 1.3141000271 65.694252014  -999.250000 0.9247999787
 1036.8750000 5.4348998070  -999.250000  -999.250000  -999.250000 90.910003662 162.09060669 1.3127000332 65.629028320  -999.250000 0.9225999713
 1037.0000000 5.4348998070  -999.250000  -999.250000  -999.250000 92.277603149 162.12516785 1.3083000183 65.449111938  -999.250000 0.9192000031
