# LAS format log file from PETREL
# Project units are specified as depth units
#==================================================================
~Version information
VERS.   2.0:
WRAP.   NO:
#==================================================================
~Well
STRT .m      855.12506104 :
STOP .m      3436.8750000 :
STEP .m     0.00000000 :
NULL .        -999.250000 :
COMP.           : COMPANY
WELL.  7/7-2 Brynhild   : WELL
FLD.            : FIELD
LOC.            : LOCATION
SRVC.           : SERVICE COMPANY
DATE.  2018-09-11 21:49:22   : Log Export Date {yyyy-MM-dd HH:mm:ss}
PROV.           : PROVINCE
UWI.   7/7-2   : UNIQUE WELL ID
API.            : API NUMBER
#==================================================================
~Curve
DEPT .m                   : DEPTH
CALI .in                  : CALI
DRHO .g/cm3               : DRHO
NPHI .m3/m3               : NPHI
RHOB .g/cm3               : RHOB
GR .gAPI                  : GR
DTC .us/ft                : DTC
RDEP .ohm.m               : RDEP
SP .mV                    : SP
RSHA .ohm.m               : RSHA
RMED .ohm.m               : RMED
~Parameter
#==================================================================
~Ascii
# ...
 1541.1250000 21.520500183 0.0258000009  -999.250000 2.0621886253 87.620201111 155.06243896 0.9786000252 60.748191833  -999.250000 0.7304000258
 1541.2500000 21.433200836 0.0041000000  -999.250000 2.0130400658 92.320899963 156.33337402 1.0011999607 60.724830627  -999.250000 0.7203000188
 1541.3750000 21.476900101 -0.010000000  -999.250000 2.0062236786 90.412597656 157.38079834 1.0204000473 60.985897064  -999.250000 0.7085000277
 1541.5001221 21.457197189 -0.001100000  -999.250000 2.0090131760 89.402801514 158.15815735 1.0239000320 61.345478058  -999.250000 0.7027000189
 1541.6248779 21.524000168 -0.002600000  -999.250000 2.0204548836 85.589103699 158.24707031 1.0019999743 61.295692444  -999.250000 0.7127000093
 1541.7500000 21.524000168 0.0060999999  -999.250000 2.0356092453 87.748802185 157.46022034 0.9839000106 61.082771301  -999.250000 0.7258999944
 1541.8750000 21.524000168 0.0035000001  -999.250000 2.0333657265 81.823600769 152.78742981 0.9664999843 61.274967194  -999.250000 0.7293999791
 1542.0000000 21.524000168 0.0141000003  -999.250000 2.0282864571 84.500198364 141.65153503 0.9588000178 60.721317291  -999.250000 0.7103000283
 1542.1250000 21.524799347 0.0077999998  -999.250000 2.0236382484 90.748001099 123.28433990 0.9646000266 60.415596008  -999.250000 0.6919999719
 1542.2500000 21.548002243 0.0004000000  -999.250000 2.0357804298 88.195503235 113.53174591 0.9756000042 60.752311707  -999.250000 0.6855000257
 1542.3750000 21.568502426 0.0087000001  -999.250000 2.0612878799 85.634597778 114.54572296 0.9897000194 61.518966675  -999.250000 0.6905999780
 1542.5000000 21.524000168 0.0105999997  -999.250000 2.0732111931 83.389297485 126.63452911 0.9897000194 61.031463623  -999.250000 0.6995999813
 1542.6250000 21.524000168 -0.003000000  -999.250000 2.0567364693 84.001800537 144.89675903 0.9824000001 61.091686249  -999.250000 0.7070000172
 1542.7501221 21.518798828 0.0082000000  -999.250000 2.0628829002 86.248001099 160.98262024 0.9699000120 61.323577881  -999.250000 0.7121999860
 1542.8748779 21.375000000 0.0057999999  -999.250000 2.0559773445 88.299102783 162.63240051 0.9674999714 60.799476624  -999.250000 0.7226999998
 1543.0000000 21.106199265 0.0201999992  -999.250000 2.0633120537 88.965301514 159.18510437 0.9681000113 60.260612488  -999.250000 0.7196000218
 1543.1250000 21.060800552 0.0000000000  -999.250000 2.0477576256 88.511901855 151.85867310 0.9725999832 61.220996857  -999.250000 0.7167000175
 1543.2500000 21.032499313 -0.006200000  -999.250000 2.0221781731 83.411201477 144.32278442 0.9787999988 60.063041687  -999.250000 0.7099000216
 1543.3750000 20.870700836 0.0066999998  -999.250000 2.0543985367 83.730003357 139.28207397 0.9663000107 59.718826294  -999.250000 0.7195000052
 1543.5000000 20.714099884 0.0046999999  -999.250000 2.0461630821 80.424499512 137.53652954 0.9477999806 60.190311432  -999.250000 0.7271000147
 1543.6250000 20.691799164 0.0060999999  -999.250000 2.0569953918 77.890197754 138.21348572 0.9304999709 59.950397491  -999.250000 0.7236999869
 1543.7500000 20.691799164 -0.0000000000  -999.250000 2.0500817299 79.170898438 141.71307373 0.9132999778 60.107978821  -999.250000 0.7199000120
 1543.8751221 20.689199448 0.0077000000  -999.250000 2.0563116074 80.243698120 145.70684814 0.9009000063 60.140590668  -999.250000 0.7152000070
 1543.9998779 20.621599197 0.0087000001  -999.250000 2.0544657707 81.958900452 149.01200867 0.8877999783 59.880828857  -999.250000 0.7168999910
 1544.1250000 20.604499817 -0.008300000  -999.250000 2.0080142021 78.721900940 151.23242188 0.8921999931 59.860435486  -999.250000 0.7163000107
 1544.2500000 20.736200333 -0.005200000  -999.250000 2.0120220184 82.166297913 152.79409790 0.8895999789 59.259487152  -999.250000 0.7128999829
 1544.3750000 20.692600250 -0.001400000  -999.250000 2.0295214653 81.477798462 153.71447754 0.8802000284 59.438488007  -999.250000 0.7117000222
 1544.5000000 20.700302124 0.0071999999  -999.250000 2.0456385612 81.667198181 154.59533691 0.8798000216 59.503589630  -999.250000 0.7139999866
 1544.6250000 20.323600769 0.0167999994  -999.250000 2.0742902756 82.357299805 155.32684326 0.8834999800 58.771724701  -999.250000 0.7128000259
 1544.7500000 20.369899750 -0.001800000  -999.250000 2.0543394089 85.602203369 155.74349976 0.8823000193 59.152385712  -999.250000 0.7106999755
 1544.8750000 20.410900116 0.0078999996  -999.250000 2.0642070770 80.743301392 155.83323669 0.8762000203 59.264328003  -999.250000 0.7088000178
 1545.0000000 20.321899414 -0.002800000  -999.250000 2.0451464653 82.222602844 157.20761108 0.8779000044 59.229141235  -999.250000 0.7128000259
 1545.1248779 20.325302124 -0.045899998  -999.250000 1.9919824600 88.992202759 159.64802551 0.8750000000 59.808261871  -999.250000 0.7175999880
 1545.2500000 20.412702560 0.0245999992  -999.250000 2.0793910027 81.987701416 159.95169067 0.8553000093 59.330608368  -999.250000 0.7171999812
 1545.3750000 20.361299515 0.0157999992  -999.250000 2.0568284988 85.305702209 158.63621521 0.8371000290 58.939304352  -999.250000 0.7199000120
 1545.5000000 20.181600571 0.0080000004  -999.250000 2.0626540184 86.833602905 157.19532776 0.8327000141 59.114021301  -999.250000 0.7178000212
 1545.6250000 20.137899399 0.0006000000  -999.250000 2.0512557030 86.328498840 156.71202087 0.8442000151 58.607345581  -999.250000 0.7196000218
 1545.7500000 20.160999298 0.0089999996  -999.250000 2.0539355278 84.685699463 157.36503601 0.8607000113 58.779548645  -999.250000 0.7087000012
 1545.8750000 20.184099197 0.0024999999  -999.250000 2.0561752319 83.164497375 158.78135681 0.8938999772 58.773994446  -999.250000 0.7103000283
 1546.0000000 20.207199097 -0.021400001  -999.250000 2.0199627876 89.214996338 160.39239502 0.9527999759 58.504463196  -999.250000 0.7074000239
 1546.1250000 20.225200653 0.0263000000  -999.250000 2.0734028816 81.497596741 161.40473938 1.0153000355 58.348518372  -999.250000 0.7052999735
 1546.2501221 20.114700317 0.0105999997  -999.250000 2.0572195053 80.532402039 160.85235596 1.0480999947 58.682662964  -999.250000 0.6952000260
 1546.3748779 20.119800568 0.0320999995  -999.250000 2.1180429459 79.494201660 157.05189514 1.0399999619 59.491405487  -999.250000 0.7156000137
 1546.5000000 19.661199570 -0.015200000  -999.250000 2.2104864120 75.549797058 147.66531372 1.0204999447 59.340301514  -999.250000 0.8259999752
 1546.6250000 19.310800552 -0.038500000  -999.250000 2.3849983215 69.286102295 136.52621460 1.0163999796 58.680095673  -999.250000 1.0104999542
 1546.7500000 19.481399536 0.0623000003  -999.250000 2.4860396385 71.014801025 128.27810669 1.0255999565 58.603206635  -999.250000 1.0394999981
 1546.8750000 19.863901138 0.1070000008  -999.250000 2.3134050369 69.126701355 126.21610260 1.0714999437 58.400371552  -999.250000 0.8737999797
 1547.0000000 19.988000870 0.0237000007  -999.250000 2.0625972748 71.654098511 130.70159912 1.1555000544 58.798919678  -999.250000 0.7472000122
 1547.1250000 20.321100235 0.0232999995  -999.250000 2.0176157951 75.052696228 141.94813538 1.1988999844 59.814373016  -999.250000 0.7376000285
 1547.2500000 20.285902023 -0.002100000  -999.250000 1.9860692024 79.164398193 152.96807861 1.1158000231 59.389423370  -999.250000 0.7398999929
 1547.3751221 19.941799164 0.0081000002  -999.250000 2.0031294823 79.214599609 160.02180481 1.0338000059 59.205909729  -999.250000 0.7527999878
 1547.4998779 19.681499481 0.0136000002  -999.250000 2.0074009895 74.119400024 162.75357056 0.9478999972 59.513698578  -999.250000 0.7538999915
 1547.6250000 19.836399078 -0.006900000  -999.250000 1.9986362457 76.124603271 162.94705200 0.8704000115 60.246364594  -999.250000 0.7390999794
 1547.7500000 19.234600067 0.0170000009  -999.250000 2.0322446823 79.166999817 162.35987854 0.8521999717 60.228771210  -999.250000 0.7402999997
 1547.8750000 19.211500168 0.0120000001  -999.250000 2.0346908569 79.007598877 161.76567078 0.8560000062 60.595191956  -999.250000 0.7378000021
 1548.0000000 19.193500519 0.0237000007  -999.250000 2.0420026779 76.105201721 161.44976807 0.8636999726 60.902507782  -999.250000 0.7238000035
