# LAS format log file from PETREL
# Project units are specified as depth units
#==================================================================
~Version information
VERS.   2.0:
WRAP.   NO:
#==================================================================
~Well
STRT .m      513.13079834 :
STOP .m      3511.9055176 :
STEP .m     0.00000000 :
NULL .        -999.250000 :
COMP.           : COMPANY
WELL.  7/7-1   : WELL
FLD.            : FIELD
LOC.            : LOCATION
SRVC.           : SERVICE COMPANY
DATE.  2018-09-11 21:49:22   : Log Export Date {yyyy-MM-dd HH:mm:ss}
PROV.           : PROVINCE
UWI.   7/7-1   : UNIQUE WELL ID
API.            : API NUMBER
#==================================================================
~Curve
DEPT .m                   : DEPTH
CALI .in                  : CALI
DRHO .g/cm3               : DRHO
NPHI .m3/m3               : NPHI
RHOB .g/cm3               : RHOB
GR .gAPI                  : GR
DTC .us/ft                : DTC
RDEP .ohm.m               : RDEP
SP .mV                    : SP
RSHA .ohm.m               : RSHA
RMIC .ohm.m               : RMIC
RMED .ohm.m               : RMED
~Parameter
#==================================================================
~Ascii
# ...
 1927.7076416 17.709800720 0.0229940042  -999.250000 2.1422598362 46.376632690 147.15859985 0.5674974322 20.856800079 0.7124999762  -999.250000 0.5698000193
 1927.8599854 17.710399628 0.0242380034  -999.250000 2.1429994106 44.715332031 147.08139038 0.5706974268 21.716999054 0.7207000256  -999.250000 0.5737000108
 1928.0123291 17.711599350 0.0250077676  -999.250000 2.1422746181 43.262027740 146.15649414 0.5737950802 22.461900711 0.7281000018  -999.250000 0.5774999857
 1928.1647949 17.719800949 0.0204206780  -999.250000 2.1462817192 44.142391205 145.58163452 0.5769974589 21.905099869 0.7261000276  -999.250000 0.5791000128
 1928.3171387 17.727899551 0.0158323534  -999.250000 2.1469991207 45.025085449 145.24110413 0.5800950527 21.348300934 0.7239999771  -999.250000 0.5806999803
 1928.4696045 17.736099243 0.0112366797  -999.250000 2.1470000744 45.909290314 145.23031616 0.5832974315 20.791400909 0.7220000029  -999.250000 0.5821999907
 1928.6219482 17.770999908 0.0082148407  -999.250000 2.1460554600 46.376651764 146.40875244 0.5916865468 20.984399796 0.7221999764  -999.250000 0.5868999958
 1928.7744141 17.812599182 0.0055811079  -999.250000 2.1499891281 46.741008759 147.46469116 0.6012923121 21.364299774 0.7228999734  -999.250000 0.5924000144
 1928.9267578 17.854200363 0.0029501084  -999.250000 2.1576783657 47.104808807 148.28047180 0.6108922958 21.744199753 0.7236999869  -999.250000 0.5978999734
 1929.0792236 17.875600815 0.0051392438  -999.250000 2.1638014317 47.584014893 148.85702515 0.6157960892 21.920900345 0.7297999859  -999.250000 0.6028000116
 1929.2315674 17.878400803 0.0117876697  -999.250000 2.1707434654 48.169929504 149.08903503 0.6162995696 21.909900665 0.7408000231  -999.250000 0.6072999835
 1929.3840332 17.881099701 0.0184406731  -999.250000 2.1833989620 48.755931854 147.75926208 0.6169000268 21.898899078 0.7519000173  -999.250000 0.6118000150
 1929.5363770 17.884500504 0.0213446748  -999.250000 2.1924631596 49.056659698 144.93128967 0.6159999967 21.797500610 0.7570999861  -999.250000 0.6133000255
 1929.6888428 17.889699936 0.0123012485  -999.250000 2.1876385212 48.447986603 142.56855774 0.6110000014 21.408000946 0.7434999943  -999.250000 0.6050000191
 1929.8411865 17.894800186 0.0032482541  -999.250000 2.1805098057 47.838687897 142.00791931 0.6058999896 21.018400192 0.7299000025  -999.250000 0.5967000127
 1929.9935303 17.899999619 -0.005797504  -999.250000 2.1744151115 47.229778290 143.28735352 0.6008999944 20.628799438 0.7163000107  -999.250000 0.5884000063
 1930.1459961 17.913600922 -0.001614366  -999.250000 2.1742749214 49.313327789 145.45913696 0.5960000157 21.110099792 0.7168999910  -999.250000 0.5885000229
 1930.2983398 17.927600861 0.0031633426  -999.250000 2.1770648956 51.515872955 146.39508057 0.5910999775 21.629600525 0.7181000113  -999.250000 0.5889999866
 1930.4508057 17.941600800 0.0079501672  -999.250000 2.1824476719 53.721935272 145.84881592 0.5861999989 22.149099350 0.7192999721  -999.250000 0.5893999934
 1930.6031494 17.941099167 0.0095214862  -999.250000 2.1849975586 52.968513489 145.87351990 0.5838000178 22.513900757 0.7235000134  -999.250000 0.5906999707
 1930.7556152 17.933700562 0.0095629683  -999.250000 2.1869962215 50.801235199 146.21430969 0.5825999975 22.805099487 0.7290999889  -999.250000 0.5924000144
 1930.9079590 17.926200867 0.0096019683  -999.250000 2.1877017021 48.633335114 146.29670715 0.5814999938 23.096300125 0.7346000075  -999.250000 0.5942000151
 1931.0604248 17.922399521 0.0098138303  -999.250000 2.1918096542 47.715232849 145.91796875 0.5856999755 22.927700043 0.7369999886  -999.250000 0.5978999734
 1931.2127686 17.924100876 0.0102886194  -999.250000 2.1966834068 48.701705933 145.29478455 0.5982999802 22.058799744 0.7343999743  -999.250000 0.6047000289
 1931.3652344 17.925699234 0.0107640000  -999.250000 2.1988890171 49.689708710 144.35438538 0.6108999848 21.189899445 0.7317000031  -999.250000 0.6114000082
 1931.5175781 17.927299500 0.0165480003  -999.250000 2.1974508762 50.513839722 143.73292542 0.6226000190 20.523199081 0.7315999866  -999.250000 0.6187999845
 1931.6700439 17.928699493 0.0629929975  -999.250000 2.1949832439 50.082847595 144.03852844 0.6276999712 21.404399872 0.7498999834  -999.250000 0.6306999922
 1931.8223877 17.930099487 0.1094369963  -999.250000 2.2105088234 49.650848389 143.52996826 0.6327999830 22.285600662 0.7681999803  -999.250000 0.6425999999
 1931.9748535 17.931499481 0.1558820009  -999.250000 2.2545518875 49.218845367 139.82402039 0.6378999949 23.166799545 0.7864999771  -999.250000 0.6545000076
 1932.1271973 17.907699585 0.1238749996  -999.250000 2.3300981522 48.500175476 134.87208557 0.6445000172 22.872900009 0.7735000253  -999.250000 0.6518999934
 1932.2795410 17.878799438 0.0763259977  -999.250000 2.3302371502 47.725044250 131.94425964 0.6513000131 22.346200943 0.7542999983  -999.250000 0.6463000178
 1932.4320068 17.849899292 0.0287769996  -999.250000 2.2634737492 46.948520660 131.41693115 0.6581000090 21.819499969 0.7350999713  -999.250000 0.6406999826
 1932.5843506 17.826599121 0.0083940001  -999.250000 2.2122793198 47.205986023 132.86041260 0.6559000015 21.666599274 0.7283999920  -999.250000 0.6352000237
 1932.7368164 17.807699203 0.0098999999  -999.250000 2.1986861229 48.297325134 136.07695007 0.6463999748 21.814699173 0.7318000197  -999.250000 0.6298000216
 1932.8891602 17.788799286 0.0114050005  -999.250000 2.1970009804 49.388153076 140.45404053 0.6370000243 21.962799072 0.7351999879  -999.250000 0.6244000196
 1933.0416260 17.772899628 0.0127180004  -999.250000 2.1963944435 50.281787872 142.89472961 0.6283000112 22.149700165 0.7379999757  -999.250000 0.6191999912
 1933.1939697 17.764900208 0.0135180000  -999.250000 2.1934349537 50.644008636 143.25630188 0.6219000220 22.439899445 0.7394999862  -999.250000 0.6146000028
 1933.3464355 17.756900787 0.0143179996  -999.250000 2.1897761822 51.005809784 143.59106445 0.6154999733 22.730100632 0.7409999967  -999.250000 0.6100000143
 1933.4987793 17.748899460 0.0151190003  -999.250000 2.1832404137 51.367710114 143.74227905 0.6090999842 23.020299911 0.7423999906  -999.250000 0.6054999828
 1933.6512451 17.745199203 0.0146899996  -999.250000 2.1792843342 51.286266327 144.25195313 0.6018000245 22.316799164 0.7368000150  -999.250000 0.6011999846
 1933.8035889 17.741500854 0.0142519996  -999.250000 2.1736142635 51.200870514 145.16291809 0.5943999887 21.605400085 0.7311000228  -999.250000 0.5968999863
 1933.9560547 17.737899780 0.0138140004  -999.250000 2.1700024605 51.115570068 145.53787231 0.5871000290 20.893999100 0.7253999710  -999.250000 0.5927000046
 1934.1083984 17.719100952 0.0145140002  -999.250000 2.1691637039 52.376987457 146.09696960 0.5805000067 21.042800903 0.7228999734  -999.250000 0.5881000161
 1934.2607422 17.694099426 0.0156759992  -999.250000 2.1607244015 54.184700012 146.18521118 0.5742999911 21.540700912 0.7215999961  -999.250000 0.5835000277
 1934.4132080 17.669200897 0.0168389995  -999.250000 2.1560032368 55.995651245 145.98530579 0.5681999922 22.038700104 0.7203000188  -999.250000 0.5788999796
 1934.5655518 17.654499054 0.0152700003  -999.250000 2.1550107002 56.327369690 146.18521118 0.5656999946 22.236900330 0.7182000279  -999.250000 0.5781000257
 1934.7180176 17.653200150 0.0100889998  -999.250000 2.1540005207 54.703205109 145.88879395 0.5683000088 22.038400650 0.7148000002  -999.250000 0.5821999907
 1934.8703613 17.652000427 0.0049069999  -999.250000 2.1567955017 53.078506470 144.95413208 0.5709000230 21.839899063 0.7114999890  -999.250000 0.5863999724
 1935.0228271 17.653999329 0.0015870000  -999.250000 2.1642985344 51.480079651 144.28713989 0.5753999949 21.654699326 0.7105000019  -999.250000 0.5914000273
 1935.1751709 17.674299240 0.0088430000  -999.250000 2.1663694382 50.047149658 144.17105103 0.5907999873 21.544700623 0.7226999998  -999.250000 0.6007999778
 1935.3276367 17.694700241 0.0160990003  -999.250000 2.1734921932 48.614349365 144.02937317 0.6061999798 21.434700012 0.7350000143  -999.250000 0.6101999879
