# LAS format log file from PETREL
# Project units are specified as depth units
#==================================================================
~Version information
VERS.   2.0:
WRAP.   NO:
#==================================================================
~Well
STRT .m      513.13079834 :
STOP .m      3511.9055176 :
STEP .m     0.00000000 :
NULL .        -999.250000 :
COMP.           : COMPANY
WELL.  7/7-1   : WELL
FLD.            : FIELD
LOC.            : LOCATION
SRVC.           : SERVICE COMPANY
DATE.  2018-09-11 21:49:22   : Log Export Date {yyyy-MM-dd HH:mm:ss}
PROV.           : PROVINCE
UWI.   7/7-1   : UNIQUE WELL ID
API.            : API NUMBER
#==================================================================
~Curve
DEPT .m                   : DEPTH
CALI .in                  : CALI
DRHO .g/cm3               : DRHO
NPHI .m3/m3               : NPHI
RHOB .g/cm3               : RHOB
GR .gAPI                  : GR
DTC .us/ft                : DTC
RDEP .ohm.m               : RDEP
SP .mV                    : SP
RSHA .ohm.m               : RSHA
RMIC .ohm.m               : RMIC
RMED .ohm.m               : RMED
~Parameter
#==================================================================
~Ascii
# ...
 2518.4099121 18.347299576 0.0220330004 0.6435999870 2.3220088482 41.296398163 131.03335571 0.4833000004 39.031600952 0.6395000219  -999.250000 0.4772000015
 2518.5622559 18.356899261 0.0254950002 0.6398000121 2.3247485161 41.929798126 132.10589600 0.4815999866 38.755798340 0.6380000114  -999.250000 0.4767999947
 2518.7148438 18.357400894 0.0277839992 0.6797000170 2.3300313950 42.922901154 132.12715149 0.4812000096 38.571601868 0.6439999938  -999.250000 0.4774999917
 2518.8671875 18.357799530 0.0300730001 0.7196000218 2.3336894512 43.916099548 132.37120056 0.4808000028 38.387500763 0.6499999762  -999.250000 0.4781999886
 2519.0195313 18.358699799 0.0313489996 0.7567999959 2.3411047459 44.705299377 132.33079529 0.4806999862 38.255699158 0.6549000144  -999.250000 0.4787000120
 2519.1718750 18.362199783 0.0257610008 0.7760000229 2.3413319588 44.113098145 131.79284668 0.4826000035 38.478500366 0.6520000100  -999.250000 0.4785000086
 2519.3244629 18.365699768 0.0201720018 0.7950999737 2.3400015831 43.520999908 130.91865540 0.4844999909 38.701301575 0.6491000056  -999.250000 0.4783000052
 2519.4768066 18.369300842 0.0145840002 0.8141999841 2.3415439129 42.928798676 130.71531677 0.4864000082 38.924098969 0.6462000012  -999.250000 0.4779999852
 2519.6291504 18.402500153 0.0329920016 0.8064000010 2.3400154114 43.309799194 131.22149658 0.4844000041 38.722000122 0.6432999969  -999.250000 0.4754000008
 2519.7814941 18.441099167 0.0557099991 0.7936999798 2.3398513794 43.865600586 131.42742920 0.4814999998 38.443500519 0.6403999925  -999.250000 0.4722000062
 2519.9340820 18.479700089 0.0784270018 0.7810999751 2.3516507149 44.421398163 131.84785461 0.4787000120 38.165100098 0.6374999881  -999.250000 0.4690999985
 2520.0864258 18.508600235 0.0786119998 0.7652999759 2.3857738972 43.939800262 131.55152893 0.4747999907 37.944900513 0.6310999990  -999.250000 0.4656000137
 2520.2387695 18.530099869 0.0615839995 0.7469999790 2.4075543880 42.665699005 130.65571594 0.4700999856 37.769298553 0.6219999790  -999.250000 0.4618000090
 2520.3911133 18.551599503 0.0445570014 0.7287999988 2.3751080036 41.391601563 130.47985840 0.4654000103 37.593601227 0.6129999757  -999.250000 0.4580000043
 2520.5437012 18.569900513 0.0312669985 0.7281000018 2.3307201862 40.823799133 130.72993469 0.4602999985 37.486198425 0.6072999835  -999.250000 0.4541999996
 2520.6960449 18.580099106 0.0273049995 0.7712000012 2.3220694065 42.018199921 131.48490906 0.4544999897 37.548900604 0.6100000143  -999.250000 0.4505999982
 2520.8483887 18.590299606 0.0233430006 0.8141999841 2.3267319202 43.212600708 132.70036316 0.4485999942 37.611598969 0.6128000021  -999.250000 0.4469000101
 2521.0007324 18.600599289 0.0195289999 0.8571000099 2.3308944702 44.395198822 134.05793762 0.4427999854 37.674598694 0.6154999733  -999.250000 0.4433000088
 2521.1530762 18.634399414 0.0438559987 0.8726999760 2.3304846287 43.333599091 134.31323242 0.4480000138 37.799800873 0.6133000255  -999.250000 0.4465000033
 2521.3056641 18.668199539 0.0681819990 0.8883000016 2.3519926071 42.271900177 134.89593506 0.4532999992 37.925098419 0.6111000180  -999.250000 0.4496999979
 2521.4580078 18.702100754 0.0925090015 0.9039000273 2.4231553078 41.210300446 133.73223877 0.4584999979 38.050399780 0.6087999940  -999.250000 0.4528999925
 2521.6103516 18.715299606 0.1130480021 0.9046000242 2.5025446415 40.875701904 130.11619568 0.4603999853 38.182701111 0.6197000146  -999.250000 0.4564999938
 2521.7626953 18.720800400 0.1321460009 0.8996999860 2.5088868141 40.817699432 126.00252533 0.4609000087 38.317798615 0.6356999874  -999.250000 0.4602999985
 2521.9152832 18.726200104 0.1512439996 0.8948000073 2.4794242382 40.759700775 124.39778137 0.4614999890 38.452899933 0.6516000032  -999.250000 0.4641999900
 2522.0676270 18.660900116 0.1299459934 0.9024999738 2.5250604153 41.258201599 123.28651428 0.4614999890 38.484401703 0.6538000107  -999.250000 0.4639999866
 2522.2199707 18.506700516 0.0579739995 0.9259999990 2.5727488995 42.454601288 123.72354126 0.4609000087 38.386100769 0.6389999986  -999.250000 0.4589000046
 2522.3723145 18.352399826 -0.013998000 0.9495000243 2.5151154995 43.651100159 126.26465607 0.4602999985 38.287799835 0.6241000295  -999.250000 0.4537999928
 2522.5249023 18.220500946 -0.069913000 0.9684000015 2.4161086082 44.676601410 127.46723175 0.4593000114 38.167301178 0.6122999787  -999.250000 0.4494999945
 2522.6772461 18.203199387 -0.043205999 0.9628999829 2.3505203724 44.822700500 129.29316711 0.4564000070 37.932800293 0.6158000231  -999.250000 0.4490999877
 2522.8295898 18.185800552 -0.016499000 0.9574999809 2.3350331783 44.968898773 132.76116943 0.4535000026 37.698299408 0.6193000078  -999.250000 0.4487999976
 2522.9819336 18.168500900 0.0102080004 0.9520999789 2.3313722610 45.115001678 134.69578552 0.4505999982 37.463798523 0.6227999926  -999.250000 0.4485000074
 2523.1342773 18.148000717 0.0168479998 0.9506000280 2.3269021511 45.716598511 133.99746704 0.4514000118 37.522399902 0.6298000216  -999.250000 0.4512000084
 2523.2868652 18.127199173 0.0208000001 0.9495000243 2.3240044117 46.379199982 133.73835754 0.4526999891 37.620201111 0.6370999813  -999.250000 0.4544000030
 2523.4392090 18.106399536 0.0247520003 0.9484999776 2.3301577568 47.041801453 133.28489685 0.4539999962 37.717998505 0.6445000172  -999.250000 0.4575000107
 2523.5915527 18.121799469 0.0262870006 0.9387999773 2.3466804028 47.483100891 133.04919434 0.4575000107 37.821601868 0.6449000239  -999.250000 0.4575999975
 2523.7438965 18.161199570 0.0262189992 0.9235000014 2.3573698997 47.777400970 132.30564880 0.4623999894 37.929100037 0.6406999826  -999.250000 0.4555999935
 2523.8964844 18.200700760 0.0261499994 0.9081000090 2.3603882790 48.071701050 131.86700439 0.4674000144 38.036499023 0.6365000010  -999.250000 0.4535999894
 2524.0488281 18.244899750 0.0366169997 0.8899000287 2.3602046967 48.143699646 131.82795715 0.4693999887 38.126399994 0.6352000237  -999.250000 0.4533999860
 2524.2011719 18.299499512 0.0694490001 0.8658000231 2.3459308147 47.743900299 131.39147949 0.4652999938 38.178901672 0.6402000189  -999.250000 0.4571999907
 2524.3535156 18.354000092 0.1022820026 0.8416000009 2.3413679600 47.344001770 131.43434143 0.4611999989 38.231399536 0.6452000141  -999.250000 0.4609000087
 2524.5061035 18.409900665 0.1323760003 0.8184000254 2.3772540092 46.814201355 131.64797974 0.4571999907 38.275501251 0.6493999958  -999.250000 0.4643000066
 2524.6584473 18.499399185 0.0956550017 0.8181999922 2.4126873016 43.113098145 131.84747314 0.4551999867 38.112899780 0.6352000237  -999.250000 0.4580999911
 2524.8107910 18.589000702 0.0589339994 0.8180000186 2.4161839485 39.412101746 131.63034058 0.4532000124 37.950401306 0.6211000085  -999.250000 0.4519000053
 2524.9631348 18.678499222 0.0222139992 0.8177999854 2.3717844486 35.710998535 131.65335083 0.4512000084 37.787799835 0.6068999767  -999.250000 0.4456999898
 2525.1154785 18.586999893 0.0658129975 0.7961000204 2.3176910877 36.420501709 131.64762878 0.4474999905 37.911998749 0.6122999787  -999.250000 0.4426999986
 2525.2680664 18.437900543 0.1349820048 0.7675999999 2.3118016720 38.534099579 131.84941101 0.4431999922 38.127498627 0.6240000129  -999.250000 0.4406999946
 2525.4204102 18.288700104 0.2041500062 0.7390999794 2.4010519981 40.647701263 131.65559387 0.4390000105 38.343101501 0.6355999708  -999.250000 0.4386999905
 2525.5727539 18.311800003 0.1668089926 0.7202000022 2.5282418728 41.003200531 131.69239807 0.4347999990 38.370300293 0.6552000046  -999.250000 0.4359999895
 2525.7250977 18.523099899 0.0130089996 0.7117999792 2.5626821518 39.436401367 132.08636475 0.4307000041 38.191799164 0.6834999919  -999.250000 0.4323999882
 2525.8776855 18.734500885 -0.140790999 0.7034000158 2.5551366806 37.869701385 131.86700439 0.4264999926 38.013301849 0.7118999958  -999.250000 0.4287999868
 2526.0300293 18.947900772 -0.246822000 0.7001000047 2.5421121120 36.675201416 131.86700439 0.4253999889 37.958400726 0.7243999839  -999.250000 0.4280999899
