# LAS format log file from PETREL
# Project units are specified as depth units
#==================================================================
~Version information
VERS.   2.0:
WRAP.   NO:
#==================================================================
~Well
STRT .m      873.00000000 :
STOP .m      3593.0000000 :
STEP .m     0.00000000 :
NULL .        -999.250000 :
COMP.           : COMPANY
WELL.  7/7-3 Brynhild Appr   : WELL
FLD.            : FIELD
LOC.            : LOCATION
SRVC.           : SERVICE COMPANY
DATE.  2018-09-11 21:49:23   : Log Export Date {yyyy-MM-dd HH:mm:ss}
PROV.           : PROVINCE
UWI.   7/7-3   : UNIQUE WELL ID
API.            : API NUMBER
#==================================================================
~Curve
DEPT .m                   : DEPTH
CALI .in                  : CALI
GR .gAPI                  : GR
RDEP .ohm.m               : RDEP
SP .mV                    : SP
RMED .ohm.m               : RMED
~Parameter
#==================================================================
~Ascii
# ...
 1974.5999756 18.117992401 145.81573486 0.5661894083 9.8556003571 0.5593154430
 1974.6999512 18.109935760 145.07693481 0.5666708946 9.8757076263 0.5593479872
 1974.8000488 18.098388672 144.57122803 0.5673159361 9.9026718140 0.5600113869
 1974.9000244 18.086391449 144.39738464 0.5683594942 9.9297351837 0.5617163181
 1975.0000000 18.077449799 144.39932251 0.5699870586 9.9569187164 0.5646492243
 1975.1000977 18.073165894 144.58924866 0.5722694397 9.9973411560 0.5686720610
 1975.2000732 18.073520660 145.25164795 0.5750668049 10.065937042 0.5732604265
 1975.3000488 18.077114105 146.00733948 0.5780440569 10.163129807 0.5777859688
 1975.3999023 18.082382202 146.85702515 0.5809203386 10.273759842 0.5818034410
 1975.5000000 18.087238312 147.29644775 0.5836675167 10.376823425 0.5851284266
 1975.5999756 18.089996338 147.39285278 0.5865108967 10.457010269 0.5878602266
 1975.6999512 18.090354919 147.01164246 0.5897971392 10.510463715 0.5903096199
 1975.8000488 18.090679169 146.48005676 0.5938324928 10.543333054 0.5928183794
 1975.9000244 18.093456268 146.17181396 0.5987333059 10.571067810 0.5956466198
 1976.0000000 18.099002838 146.34303284 0.6043957472 10.599948883 0.5988765955
 1976.1000977 18.105369568 147.04156494 0.6104891300 10.620103836 0.6024509668
 1976.2000732 18.109943390 147.85931396 0.6165281534 10.616357803 0.6062215567
 1976.3000488 18.110916138 148.68008423 0.6219747066 10.589492798 0.6099882126
 1976.4000244 18.107528687 149.21400452 0.6263276339 10.562099457 0.6134204865
 1976.5000000 18.100173950 149.53535461 0.6291987896 10.559207916 0.6160776615
 1976.5999756 18.090969086 149.46443176 0.6304049492 10.593650818 0.6175999641
 1976.6999512 18.083614349 149.09596252 0.6300317049 10.661514282 0.6178424358
 1976.7999268 18.080230713 148.58880615 0.6284254789 10.739675522 0.6168938875
 1976.9000244 18.080581665 147.98747253 0.6261129379 10.792066574 0.6150498390
 1977.0000000 18.082664490 147.40173340 0.6236053705 10.790493011 0.6126924753
 1977.0999756 18.084461212 146.84277344 0.6212444305 10.730878830 0.6101915836
 1977.2000732 18.085079193 146.39703369 0.6192033291 10.639492035 0.6078088284
 1977.3000488 18.085159302 146.15031433 0.6175149679 10.554742813 0.6057225466
 1977.4000244 18.085147858 146.03196716 0.6161186695 10.502313614 0.6041071415
 1977.5001221 18.085159302 145.99313354 0.6149262190 10.490148544 0.6031385660
 1977.6000977 18.084461212 145.76942444 0.6138038635 10.512599945 0.6029419899
 1977.6999512 18.081348419 145.39277649 0.6126272678 10.554521561 0.6034753323
 1977.7999268 18.074367523 144.68507385 0.6113411188 10.596153259 0.6044189930
 1977.9000244 18.064857483 144.14379883 0.6099504232 10.618921280 0.6052128077
 1978.0000000 18.057857513 143.75646973 0.6084735394 10.609842300 0.6052778959
 1978.0999756 18.058475494 144.23966980 0.6069509983 10.567272186 0.6042730808
 1978.1999512 18.068588257 145.12646484 0.6054688692 10.504325867 0.6022316217
 1978.3000488 18.085777283 146.45449829 0.6041299105 10.446418762 0.5995469093
 1978.4000244 18.105369568 147.79544067 0.6030739546 10.413318634 0.5967727900
 1978.5000000 18.123172760 148.95632935 0.6024503708 10.413671494 0.5944082737
 1978.6000977 18.138866425 149.87974548 0.6023124456 10.439830780 0.5928347111
 1978.7000732 18.157150269 150.48446655 0.6026020050 10.475971222 0.5922366381
 1978.8000488 18.181644440 150.93360901 0.6031179428 10.512783051 0.5925698280
 1978.8999023 18.212131500 151.18373108 0.6035159826 10.551216125 0.5935854912
 1979.0000000 18.243663788 151.27697754 0.6034485102 10.596469879 0.5948607922
 1979.0999756 18.268615723 151.39712524 0.6027250290 10.651472092 0.5958138704
 1979.1999512 18.281063080 151.62254333 0.6012649536 10.703693390 0.5957076550
 1979.3000488 18.280559540 152.12095642 0.5990400314 10.732355118 0.5938230753
 1979.4000244 18.271595001 152.64718628 0.5961470604 10.721813202 0.5898722410
 1979.5000000 18.261009216 153.08628845 0.5928038359 10.675838470 0.5843517780
 1979.6000977 18.254135132 152.89489746 0.5893318653 10.614198685 0.5786125660
 1979.7000732 18.252285004 152.34106445 0.5861500502 10.556999207 0.5743932724
 1979.8000488 18.252902985 151.25529480 0.5836830139 10.523944855 0.5730545521
 1979.9000244 18.256633759 150.34683228 0.5822304487 10.527620316 0.5750029087
 1980.0001221 18.266193390 149.65921021 0.5817861557 10.568431854 0.5794993639
 1980.0999756 18.280876160 149.60597229 0.5820152760 10.637247086 0.5849124193
 1980.1999512 18.296546936 150.00093079 0.5824382305 10.717653275 0.5894629955
 1980.2999268 18.307487488 150.66343689 0.5826855898 10.791555405 0.5920369625
 1980.4000244 18.309272766 151.58743286 0.5825834274 10.842203140 0.5924671888
 1980.5000000 18.301124573 152.37551880 0.5820862055 10.853563309 0.5912517309
 1980.5999756 18.286422729 153.02468872 0.5812480450 10.815994263 0.5891053677
 1980.7000732 18.270759583 153.14219666 0.5801652670 10.736089706 0.5866132975
 1980.8000488 18.259128571 152.65084839 0.5789898634 10.647239685 0.5840883255
 1980.9000244 18.253517151 151.67126465 0.5779421329 10.587198257 0.5816987753
 1981.0001221 18.252285004 150.05603027 0.5772396326 10.582609177 0.5796073675
 1981.1000977 18.253520966 148.69352722 0.5770928860 10.638124466 0.5780422688
 1981.1999512 18.258514404 147.56039429 0.5776801109 10.725252151 0.5773695707
 1981.2999268 18.267646790 147.57780457 0.5790854692 10.788944244 0.5780568123
 1981.4000244 18.278743744 148.23313904 0.5813646317 10.786100388 0.5805573463
 1981.5000000 18.287895203 149.59202576 0.5845565796 10.706562042 0.5852445364
 1981.5999756 18.291469574 151.18135071 0.5885679722 10.577838898 0.5922088623
 1981.6999512 18.287895203 152.22299194 0.5930906534 10.446393967 0.6010383368
 1981.8000488 18.278743744 152.51150513 0.5977083445 10.353603363 0.6107053757
 1981.9000244 18.267646790 151.55482483 0.6020498276 10.315694809 0.6196565628
 1982.0000000 18.258514404 150.13330078 0.6059088707 10.330568314 0.6262805462
 1982.1000977 18.253517151 148.16712952 0.6093944311 10.384754181 0.6295949221
 1982.2000732 18.254135132 145.92414856 0.6128828526 10.457571030 0.6296842098
 1982.3000488 18.261627197 143.67713928 0.6168891191 10.529605865 0.6276267767
 1982.3999023 18.275325775 141.51916504 0.6218858957 10.587659836 0.6249468327
 1982.5000000 18.291969299 140.05909729 0.6279263496 10.616405487 0.6229684353
 1982.5999756 18.305698395 139.28475952 0.6344345808 10.604719162 0.6223837137
 1982.6999512 18.311061859 139.81347656 0.6404725313 10.554948807 0.6232862473
 1982.8000488 18.305702209 141.45942688 0.6451584101 10.485183716 0.6254618168
 1982.9000244 18.293205261 143.50012207 0.6480765343 10.427471161 0.6286683083
 1983.0000000 18.281551361 145.67626953 0.6493425369 10.417306900 0.6327042580
 1983.0999756 18.276988983 147.11184692 0.6495033503 10.471675873 0.6369816065
 1983.2000732 18.280590057 148.04621887 0.6492952108 10.577777863 0.6401829720
 1983.3000488 18.287895203 148.11120605 0.6493577957 10.698314667 0.6405488253
 1983.4000244 18.291469574 147.59754944 0.6499232054 10.790494919 0.6368411779
 1983.5001221 18.288513184 146.68330383 0.6507147551 10.824047089 0.6292994022
 1983.5999756 18.282474518 145.12628174 0.6512104273 10.795679092 0.6198137999
 1983.6999512 18.279060364 143.43850708 0.6509468555 10.724876404 0.6110845804
 1983.7999268 18.283157349 141.73835754 0.6496028900 10.644018173 0.6051794291
 1983.9000244 18.295963287 140.72717285 0.6469861269 10.588184357 0.6022884846
 1984.0000000 18.314323425 140.95889282 0.6429120302 10.582828522 0.6007435322
 1984.0999756 18.332130432 142.22566223 0.6372048855 10.639223099 0.5979570150
 1984.2000732 18.345973969 145.40151978 0.6299837828 10.756744385 0.5920019150
 1984.3000488 18.356765747 148.91403198 0.6218985319 10.916898727 0.5829290152
 1984.4000244 18.366943359 152.74070740 0.6140753031 11.084762573 0.5730825663
 1984.5001221 18.377674103 155.54623413 0.6078509092 11.221002579 0.5659927130
 1984.6000977 18.388416290 157.24757385 0.6043189764 11.293514252 0.5645538568
 1984.7000732 18.397277832 157.72579956 0.6036897898 11.288120270 0.5695885420
