# LAS format log file from PETREL
# Project units are specified as depth units
#==================================================================
~Version information
VERS.   2.0:
WRAP.   NO:
#==================================================================
~Well
STRT .m      513.13079834 :
STOP .m      3511.9055176 :
STEP .m     0.00000000 :
NULL .        -999.250000 :
COMP.           : COMPANY
WELL.  7/7-1   : WELL
FLD.            : FIELD
LOC.            : LOCATION
SRVC.           : SERVICE COMPANY
DATE.  2018-09-11 21:49:22   : Log Export Date {yyyy-MM-dd HH:mm:ss}
PROV.           : PROVINCE
UWI.   7/7-1   : UNIQUE WELL ID
API.            : API NUMBER
#==================================================================
~Curve
DEPT .m                   : DEPTH
CALI .in                  : CALI
DRHO .g/cm3               : DRHO
NPHI .m3/m3               : NPHI
RHOB .g/cm3               : RHOB
GR .gAPI                  : GR
DTC .us/ft                : DTC
RDEP .ohm.m               : RDEP
SP .mV                    : SP
RSHA .ohm.m               : RSHA
RMIC .ohm.m               : RMIC
RMED .ohm.m               : RMED
~Parameter
#==================================================================
~Ascii
 513.13079834 0.0000000000  -999.250000  -999.250000 1.9723920822 111.23490143 165.21890259 0.0000000000  -999.250000 0.0000000000  -999.250000 0.0000000000
 513.28320313 0.0000000000  -999.250000  -999.250000 1.9723840952 111.18509674 165.21890259 0.0000000000  -999.250000 0.0000000000  -999.250000 0.0000000000
 513.43560791 0.0000000000  -999.250000  -999.250000 1.9723762274 111.13529968 165.21943665 0.0000000000  -999.250000 0.0000000000  -999.250000 0.0000000000
 513.58801270 0.0000000000  -999.250000  -999.250000 1.9723684788 111.26490021 165.22486877 0.0000000000 -354.8779907 0.0000000000  -999.250000 0.0000000000
 513.74035645 0.0000000000  -999.250000  -999.250000 1.9723606110 111.52569580 165.21890259 0.0000000000 -354.8779907 0.0000000000  -999.250000 0.0000000000
 513.89276123 0.0000000000  -999.250000  -999.250000 1.9723526239 111.78659058 165.21943665 0.0000000000 -354.8779907 0.0000000000  -999.250000 0.0000000000
 514.04516602 0.0000000000  -999.250000  -999.250000 1.9723451138 112.06758881 165.22486877 0.0000000000 -354.8779907 0.0000000000  -999.250000 0.0000000000
 514.19757080 0.0000000000  -999.250000  -999.250000 1.9723374844 112.39636993 165.21890259 0.0000000000 -354.8779907 0.0000000000  -999.250000 0.0000000000
 514.34997559 0.0000000000  -999.250000  -999.250000 1.9723294973 112.72517395 165.21890259 0.0000000000 -354.8779907 0.0000000000  -999.250000 0.0000000000
 514.50238037 0.0000000000  -999.250000  -999.250000 1.9723216295 113.02877808 165.21943665 0.0000000000 -354.8779907 0.0000000000  -999.250000 0.0000000000
 514.65478516 0.0000000000  -999.250000  -999.250000 1.9723138809 111.75720978 165.22486877 0.0000000000 -354.8779907 0.0000000000  -999.250000 0.0000000000
 514.80718994 0.0000000000  -999.250000  -999.250000 1.9723062515 110.48510742 165.21890259 0.0000000000 -354.8779907 0.0000000000  -999.250000 0.0000000000
 514.95959473 0.0000000000  -999.250000  -999.250000 1.9722983837 109.21301270 165.21890259 0.0000000000 -354.8779907 0.0000000000  -999.250000 0.0000000000
 515.11199951 0.0979999974  -999.250000  -999.250000 1.9722906351 108.52539825 165.21890259 0.0022000000 -354.9285889  -999.250000  -999.250000  -999.250000
 515.26440430 0.2313999981  -999.250000  -999.250000 1.9722831249 108.04920197 165.21890259 0.0052999998 -354.9974060  -999.250000  -999.250000  -999.250000
 515.41680908 0.3648000062  -999.250000  -999.250000 1.9722753763 107.57309723 165.21943665 0.0082999999 -355.0661926  -999.250000  -999.250000  -999.250000
 515.56921387 2.0520999432  -999.250000  -999.250000 1.9722676277 106.93350220 165.22486877 0.0362999998 -355.0891113  -999.250000  -999.250000  -999.250000
 515.72161865 5.6076002121  -999.250000  -999.250000 1.9722598791 106.09719849 165.21890259 0.0942000002 -355.0567932  -999.250000  -999.250000  -999.250000
 515.87396240 9.1632003784  -999.250000  -999.250000 1.9722523689 105.26123810 165.21943665 0.1520999968 -355.0245056  -999.250000  -999.250000  -999.250000
 516.02636719 12.255800247  -999.250000  -999.250000 1.9722443819 104.52130127 165.22486877 0.2000000030 -354.9914856  -999.250000  -999.250000  -999.250000
 516.17877197 13.138799667  -999.250000  -999.250000 1.9722369909 104.24131775 165.21890259 0.2000000030 -354.9549866  -999.250000  -999.250000  -999.250000
 516.33117676 14.021900177  -999.250000  -999.250000 1.9722291231 103.96161652 165.21890259 0.2000000030 -354.9183960  -999.250000  -999.250000  -999.250000
 516.48358154 14.905000687  -999.250000  -999.250000 1.9722216129 103.68181610 165.21943665 0.2000000030 -354.8818970  -999.250000  -999.250000  -999.250000
 516.63598633 15.000000954  -999.250000  -999.250000 1.9722139835 103.90711212 165.22486877 0.2000000030 -354.8779907 0.2000000030  -999.250000 0.2000000030
 516.78839111 15.000000954  -999.250000  -999.250000 1.9722062349 104.19358826 165.21890259  -999.250000 -354.8779907 0.2000000030  -999.250000 0.2000000030
 516.94079590 15.000000954  -999.250000  -999.250000 1.9721984863 104.47998810 165.21890259  -999.250000 -354.8779907 0.2000000030  -999.250000 0.2000000030
 517.09320068 15.000000954  -999.250000  -999.250000 1.9721909761 104.88659668 165.21890259  -999.250000 -354.8779907 0.2000000030  -999.250000 0.2000000030
 517.24560547 15.000000954  -999.250000  -999.250000 1.9721835852 105.36930084 165.21890259  -999.250000 -354.8779907 0.2000000030  -999.250000 0.2000000030
 517.39801025 15.000000954  -999.250000  -999.250000 1.9721758366 105.85189819 165.21943665  -999.250000 -354.8779907 0.2000000030  -999.250000 0.2000000030
 517.55041504 15.000000954  -999.250000  -999.250000 1.9721682072 105.96759796 165.22486877  -999.250000 -354.8779907 0.2000000030  -999.250000 0.2000000030
 517.70281982 15.000000954  -999.250000  -999.250000 1.9721605778 105.34059906 165.21890259  -999.250000 -354.8779907 0.2000000030  -999.250000 0.2000000030
 517.85516357 15.000000954  -999.250000  -999.250000 1.9721530676 104.71385193 165.21943665  -999.250000 -354.8779907 0.2000000030  -999.250000 0.2000000030
 518.00756836 15.053600311  -999.250000  -999.250000 1.9721455574 104.12523651 165.22486877  -999.250000 -354.8779907 0.2000000030  -999.250000 0.2000000030
 518.15997314 16.129199982  -999.250000  -999.250000 1.9721378088 104.26834106 165.21890259  -999.250000 -354.8779907 0.2000000030  -999.250000 0.2000000030
 518.31237793 17.204799652  -999.250000  -999.250000 1.9721301794 104.41163635 165.21890259  -999.250000 -354.8779907 0.2000000030  -999.250000 0.2000000030
 518.46478271 18.280399323  -999.250000  -999.250000 1.9721230268 104.55503845 165.22428894  -999.250000 -354.8779907 0.2000000030  -999.250000 0.2000000030
 518.61718750 18.635099411  -999.250000  -999.250000 1.9721153975 103.95793915 165.27970886  -999.250000 -354.8779907 0.2000000030  -999.250000 0.2000000030
 518.76959229 18.773199081  -999.250000  -999.250000 1.9721080065 103.13813019 165.21890259  -999.250000 -354.8779907 0.2000000030  -999.250000 0.2000000030
 518.92199707 18.911399841  -999.250000  -999.250000 1.9721003771 102.31822968 165.21890259  -999.250000 -354.8779907 0.2000000030  -999.250000 0.2000000030
 519.07440186 18.980899811  -999.250000  -999.250000 1.9720926285 102.20274353 165.21890259  -999.250000 -354.8779907 0.2000000030  -999.250000 0.2000000030
 519.22680664 18.978399277  -999.250000  -999.250000 1.9720851183 102.82640076 165.21890259  -999.250000 -354.8779907 0.2000000030  -999.250000 0.2000000030
 519.37921143 18.975900650  -999.250000  -999.250000 1.9720778465 103.44999695 165.21943665  -999.250000 -354.8779907 0.2000000030  -999.250000 0.2000000030
 519.53161621 18.973600388  -999.250000  -999.250000 1.9720700979 103.64890289 165.22486877  -999.250000 -354.8779907 0.2000000030  -999.250000 0.2000000030
 519.68402100 18.972099304  -999.250000  -999.250000 1.9720627069 102.22399902 165.21890259  -999.250000 -354.8779907 0.2000000030  -999.250000 0.2000000030
 519.83642578 18.970600128  -999.250000  -999.250000 1.9720553160 100.79910278 165.21943665  -999.250000 -354.8779907 0.2000000030  -999.250000 0.2000000030
 519.98876953 18.969100952  -999.250000  -999.250000 1.9720479250 99.374870300 165.22486877  -999.250000 -354.8779907 0.2000000030  -999.250000 0.2000000030
 520.14117432 18.973800659  -999.250000  -999.250000 1.9720404148 99.171882629 165.21890259  -999.250000 -354.8779907 0.2000000030  -999.250000 0.2000000030
 520.29357910 18.978900909  -999.250000  -999.250000 1.9720330238 99.066345215 165.21890259  -999.250000 -354.8779907 0.2000000030  -999.250000 0.2000000030
 520.44598389 18.984100342  -999.250000  -999.250000 1.9720256329 98.960945129 165.21890259  -999.250000 -354.8779907 0.2000000030  -999.250000 0.2000000030
 520.59838867 18.985200882  -999.250000  -999.250000 1.9720181227 94.719604492 165.21890259  -999.250000 -354.8779907 0.2000000030  -999.250000 0.2000000030
 520.75079346 18.983999252  -999.250000  -999.250000 1.9720107317 88.207008362 165.21890259  -999.250000 -354.8779907 0.2000000030  -999.250000 0.2000000030
