# LAS format log file from PETREL
# Project units are specified as depth units
#==================================================================
~Version information
VERS.   2.0:
WRAP.   NO:
#==================================================================
~Well
STRT .m      513.13079834 :
STOP .m      3511.9055176 :
STEP .m     0.00000000 :
NULL .        -999.250000 :
COMP.           : COMPANY
WELL.  7/7-1   : WELL
FLD.            : FIELD
LOC.            : LOCATION
SRVC.           : SERVICE COMPANY
DATE.  2018-09-11 21:49:22   : Log Export Date {yyyy-MM-dd HH:mm:ss}
PROV.           : PROVINCE
UWI.   7/7-1   : UNIQUE WELL ID
API.            : API NUMBER
#==================================================================
~Curve
DEPT .m                   : DEPTH
CALI .in                  : CALI
DRHO .g/cm3               : DRHO
NPHI .m3/m3               : NPHI
RHOB .g/cm3               : RHOB
GR .gAPI                  : GR
DTC .us/ft                : DTC
RDEP .ohm.m               : RDEP
SP .mV                    : SP
RSHA .ohm.m               : RSHA
RMIC .ohm.m               : RMIC
RMED .ohm.m               : RMED
~Parameter
#==================================================================
~Ascii
# ...
 1337.0052490 18.756999969 0.0092519997  -999.250000 2.0010204315 37.722301483 152.31546021 0.8460999727 18.542600632 0.8478999734  -999.250000 0.7439000010
 1337.1575928 18.756999969 0.0036140000  -999.250000 2.0005593300 37.705600739 152.67994690 0.8434000015 18.178600311 0.8614000082  -999.250000 0.7469999790
 1337.3099365 18.756999969 -0.002025000  -999.250000 1.9914177656 37.688899994 153.16909790 0.8406000137 17.814500809 0.8750000000  -999.250000 0.7501999736
 1337.4624023 18.756999969 -0.007664000  -999.250000 1.9805787802 37.672100067 153.77217102 0.8378000259 17.450399399 0.8884999752  -999.250000 0.7534000278
 1337.6147461 18.738100052 -0.007597000  -999.250000 1.9735136032 37.321201324 154.49499512 0.8421999812 17.320800781 0.8853999972  -999.250000 0.7549999952
 1337.7672119 18.712999344 -0.005660000  -999.250000 1.9695304632 36.860801697 155.18666077 0.8489999771 17.267999649 0.8768000007  -999.250000 0.7562999725
 1337.9195557 18.687999725 -0.003724000  -999.250000 1.9656660557 36.400398254 155.62054443 0.8557000160 17.215200424 0.8682000041  -999.250000 0.7574999928
 1338.0720215 18.634700775 0.0287289992  -999.250000 1.9672225714 36.393600464 155.51899719 0.8607000113 17.310899734 0.8639000058  -999.250000 0.7594000101
 1338.2243652 18.549999237 0.0952590033  -999.250000 1.9875668287 36.893398285 154.03009033 0.8636999726 17.572200775 0.8644999862  -999.250000 0.7620000243
 1338.3768311 18.465299606 0.1617899984  -999.250000 2.0545763969 37.393100739 150.52738953 0.8668000102 17.833499908 0.8651999831  -999.250000 0.7645999789
 1338.5291748 18.386800766 0.2022159994  -999.250000 2.1896231174 37.804798126 146.80227661 0.8705000281 17.954399109 0.8639000058  -999.250000 0.7682999969
 1338.6816406 18.334199905 0.1325030029  -999.250000 2.1938846111 37.844699860 147.18043518 0.8768000007 17.482700348 0.8543999791  -999.250000 0.7760999799
 1338.8339844 18.281499863 0.0627899989  -999.250000 2.0573630333 37.884498596 151.76826477 0.8830999732 17.010999680 0.8449000120  -999.250000 0.7839999795
 1338.9864502 18.228900909 -0.006923000  -999.250000 1.9317079782 37.924400330 155.53263855 0.8892999887 16.539300919 0.8353999853  -999.250000 0.7918000221
 1339.1387939 18.182199478 -0.010238000  -999.250000 1.9075562954 39.011600494 157.26625061 0.8998000026 16.451999664 0.8352000117  -999.250000 0.7936000228
 1339.2912598 18.135999680 -0.007047000  -999.250000 1.9145423174 40.201400757 158.38722229 0.9106000066 16.402399063 0.8359000087  -999.250000 0.7949000001
 1339.4436035 18.089899063 -0.003856000  -999.250000 1.9164142609 41.391201019 158.60937500 0.9214000106 16.352699280 0.8366000056  -999.250000 0.7961000204
 1339.5959473 18.072599411 -0.002496000  -999.250000 1.9097763300 41.307498932 158.72610474 0.9297000170 15.794299126 0.8476999998  -999.250000 0.8009999990
 1339.7484131 18.072299957 -0.002211000  -999.250000 1.9031709433 40.475498199 158.73510742 0.9365000129 14.937100410 0.8648999929  -999.250000 0.8080999851
 1339.9007568 18.072000504 -0.001926000  -999.250000 1.8960770369 39.643600464 158.83804321 0.9433000088 14.079799652 0.8820999861  -999.250000 0.8151000142
 1340.0532227 18.102899551 -0.001124000  -999.250000 1.8903794289 39.435600281 158.85438538 0.9483000040 13.957500458 0.8963000178  -999.250000 0.8212000132
 1340.2055664 18.191999435 0.0006410000  -999.250000 1.8848795891 40.390899658 158.98608398 0.9498000145 15.205699921 0.9049999714  -999.250000 0.8255000114
 1340.3580322 18.281000137 0.0024059999  -999.250000 1.8813129663 41.346099854 159.36029053 0.9513999820 16.453899384 0.9136000276  -999.250000 0.8298000097
 1340.5103760 18.364999771 0.0036750000  -999.250000 1.8895546198 42.183101654 159.79133606 0.9527999759 17.602899551 0.9215000272  -999.250000 0.8337000012
 1340.6628418 18.379199982 -0.001827000  -999.250000 1.8985575438 41.403999329 159.78894043 0.9535999894 17.397199631 0.9192000031  -999.250000 0.8331000209
 1340.8151855 18.393400192 -0.007328000  -999.250000 1.9004995823 40.624900818 159.65289307 0.9544000030 17.191499710 0.9169999957  -999.250000 0.8325999975
 1340.9676514 18.407499313 -0.012830000  -999.250000 1.9024397135 39.845798492 159.38261414 0.9552000165 16.985700607 0.9146999717  -999.250000 0.8320000172
 1341.1199951 18.434400558 -0.014400000  -999.250000 1.9067538977 39.279998779 158.68023682 0.9567999840 16.523799896 0.9149000049  -999.250000 0.8307999969
 1341.2724609 18.464599609 -0.014909000  -999.250000 1.9111566544 38.771598816 158.18037415 0.9587000012 15.992699623 0.9157000184  -999.250000 0.8295000196
 1341.4248047 18.494899750 -0.015417000  -999.250000 1.9131349325 38.263301849 157.32119751 0.9605000019 15.461600304 0.9164999723  -999.250000 0.8281000257
 1341.5771484 18.564199448 -0.013006000  -999.250000 1.9144022465 38.244701385 156.25430298 0.9556999803 15.343500137 0.9168000221  -999.250000 0.8249999881
 1341.7296143 18.671600342 -0.007753000  -999.250000 1.9156314135 38.703098297 155.19024658 0.9444000125 15.627600670 0.9165999889  -999.250000 0.8201000094
 1341.8819580 18.778900146 -0.002499000  -999.250000 1.9233446121 39.161598206 154.26153564 0.9330999851 15.911800385 0.9164999723  -999.250000 0.8151999712
 1342.0344238 18.871799469 0.0015920000  -999.250000 1.9345204830 39.195800781 153.70753479 0.9229999781 16.243700027 0.9146000147  -999.250000 0.8094000220
 1342.1867676 18.914800644 0.0016970000  -999.250000 1.9389969110 37.775001526 153.57542419 0.9171000123 16.739400864 0.9068999887  -999.250000 0.8007000089
 1342.3392334 18.957799911 0.0018010000  -999.250000 1.9390000105 36.354099274 153.35940552 0.9111999869 17.235000610 0.8992000222  -999.250000 0.7921000123
 1342.4915771 19.000900269 0.0019050000  -999.250000 1.9362634420 34.933300018 153.37567139 0.9053000212 17.730699539 0.8913999796  -999.250000 0.7833999991
 1342.6440430 19.066699982 0.0039780000  -999.250000 1.9317380190 35.006500244 153.64611816 0.9032999873 17.540100098 0.8919000030  -999.250000 0.7876999974
 1342.7963867 19.133899689 0.0061659999  -999.250000 1.9303520918 35.166900635 154.25810242 0.9014000297 17.309400558 0.8927999735  -999.250000 0.7926999927
 1342.9488525 19.201099396 0.0083539998  -999.250000 1.9321391582 35.327201843 155.06781006 0.8996000290 17.078800201 0.8938000202  -999.250000 0.7978000045
 1343.1011963 19.284799576 0.0020389999  -999.250000 1.9393059015 35.980701447 155.46273804 0.8970000148 16.921300888 0.8963000178  -999.250000 0.7978000045
 1343.2536621 19.376899719 -0.008576000  -999.250000 1.9530322552 36.883598328 154.93157959 0.8941000104 16.800899506 0.8996000290  -999.250000 0.7951999903
 1343.4060059 19.468999863 -0.019192001  -999.250000 1.9570870399 37.786399841 153.71720886 0.8910999894 16.680400848 0.9029999971  -999.250000 0.7926999927
 1343.5583496 19.556499481 -0.027282000  -999.250000 1.9535558224 37.827899933 152.38641357 0.8895999789 16.733999252 0.9018999934  -999.250000 0.7921000123
 1343.7108154 19.636699677 -0.031305999  -999.250000 1.9549993277 36.482898712 152.27307129 0.8906000257 17.067800522 0.8938000202  -999.250000 0.7946000099
 1343.8631592 19.716800690 -0.035330001  -999.250000 1.9675030708 35.137901306 153.61059570 0.8914999962 17.401599884 0.8856999874  -999.250000 0.7969999909
 1344.0156250 19.781600952 -0.038529001  -999.250000 1.9735928774 33.993598938 155.23487854 0.8917000294 17.650600433 0.8784999847  -999.250000 0.7990000248
 1344.1679688 19.711099625 -0.034492001  -999.250000 1.9455877542 34.610500336 156.24531555 0.8849999905 17.156600952 0.8798999786  -999.250000 0.7969999909
 1344.3204346 19.640600204 -0.030454000  -999.250000 1.9256707430 35.227298737 156.55982971 0.8784000278 16.662599564 0.8812000155  -999.250000 0.7949000001
 1344.4727783 19.570100784 -0.026417000  -999.250000 1.9220019579 35.844200134 156.26850891 0.8718000054 16.168500900 0.8824999928  -999.250000 0.7928000093
 1344.6252441 19.563899994 -0.021090999  -999.250000 1.9170974493 36.915798187 155.43368530 0.8712000251 16.256200790 0.8810999990  -999.250000 0.7886000276
