# LAS format log file from PETREL
# Project units are specified as depth units
#==================================================================
~Version information
VERS.   2.0:
WRAP.   NO:
#==================================================================
~Well
STRT .m      873.00000000 :
STOP .m      3593.0000000 :
STEP .m     0.00000000 :
NULL .        -999.250000 :
COMP.           : COMPANY
WELL.  7/7-3 Brynhild Appr   : WELL
FLD.            : FIELD
LOC.            : LOCATION
SRVC.           : SERVICE COMPANY
DATE.  2018-09-11 21:49:23   : Log Export Date {yyyy-MM-dd HH:mm:ss}
PROV.           : PROVINCE
UWI.   7/7-3   : UNIQUE WELL ID
API.            : API NUMBER
#==================================================================
~Curve
DEPT .m                   : DEPTH
CALI .in                  : CALI
GR .gAPI                  : GR
RDEP .ohm.m               : RDEP
SP .mV                    : SP
RMED .ohm.m               : RMED
~Parameter
#==================================================================
~Ascii
# ...
 903.60003662 18.598670959 110.52569580 8907.9824219 7.6243247986 5938.3789063
 903.70001221 18.716400146 109.49137878 7641.9531250 8.1036872864 4063.3618164
 903.80004883 18.821140289 108.92084503 5937.9023438 8.5895156860 2359.2421875
 903.89996338 18.898273468 108.44990540 4062.8339844 9.1149978638 1093.0559082
 904.00000000 18.942848206 107.33220673 2358.7597656 9.6819629669 357.86267090
 904.09997559 18.957736969 106.52510834 1092.6948242 10.256896973 59.719131470
 904.20001221 18.947811127 105.90229797 357.65368652 10.787382126 0.6516218185
 904.30004883 18.915912628 105.31339264 59.640846252 11.224138260 0.6480113268
 904.39996338 18.861141205 104.55011749 0.6500394344 11.533414841 0.6674869061
 904.50000000 18.784069061 103.65369415 0.6689661741 11.708698273 0.6887083054
 904.59997559 18.688858032 102.64235687 0.6860082150 11.776168823 0.7103031874
 904.70001221 18.584468842 101.80691528 0.6960672140 11.785139084 0.7313623428
 904.79998779 18.482894897 101.12718964 0.6999590397 11.790458679 0.7493457794
 904.90002441 18.395698547 100.64356995 0.7013967037 11.843252182 0.7620700598
 904.99993896 18.330810547 99.984794617 0.7038997412 11.981504440 0.7696914673
 905.09997559 18.291229248 99.140213013 0.7084733248 12.214315414 0.7747454643
 905.20001221 18.273227692 97.869369507 0.7133197784 12.518577576 0.7801109552
 905.29998779 18.269245148 96.612579346 0.7165614367 12.843629837 0.7870330811
 905.40002441 18.270706177 95.392616272 0.7180435658 13.122793198 0.7947165966
 905.50000000 18.271877289 94.685394287 0.7192943096 13.305116653 0.8014091253
 905.59997559 18.270092010 94.259277344 0.7226675749 13.378080368 0.8056284189
 905.69995117 18.265514374 94.197135925 0.7302086353 13.370943069 0.8069970608
 905.79998779 18.259967804 94.333152771 0.7425004244 13.338073730 0.8063353300
 905.90002441 18.255401611 94.620277405 0.7581206560 13.332826614 0.8051244020
 906.00000000 18.253520966 95.137458801 0.7740595341 13.375726700 0.8043574095
 906.10003662 18.255401611 96.174308777 0.7869611979 13.438232422 0.8039845228
 906.19995117 18.259967804 97.487869263 0.7946017981 13.466476440 0.8032397032
 906.29998779 18.265514374 99.194473267 0.7967694998 13.401641846 0.8014452457
 906.40002441 18.270092010 100.57857513 0.7950627804 13.203287125 0.7983633280
 906.50000000 18.271877289 101.52779388 0.7918064594 12.881052017 0.7941645384
 906.60003662 18.270092010 101.44902039 0.7887231112 12.496273041 0.7893304825
 906.70001221 18.265514374 100.47945404 0.7865662575 12.135972977 0.7844668627
 906.79998779 18.259967804 99.064682007 0.7853273153 11.875597000 0.7801443338
 906.89996338 18.255401611 97.226211548 0.7845613956 11.757160187 0.7768155336
 907.00000000 18.252902985 95.505073547 0.7838439941 11.776926041 0.7747734785
 907.10003662 18.252902985 93.909515381 0.7830474377 11.887323380 0.7741595507
 907.20001221 18.256019592 92.697906494 0.7823927402 12.025709152 0.7749274969
 907.30004883 18.263698578 91.883972168 0.7822284698 12.134080887 0.7768305540
 907.39996338 18.276927948 91.392913818 0.7828354836 12.175418854 0.7794266939
 907.50000000 18.294731140 91.649101257 0.7843654156 12.141412735 0.7821193933
 907.59997559 18.314323425 92.525917053 0.7867991924 12.040668488 0.7843245268
 907.70001221 18.332130432 93.873039246 0.7899491787 11.896156311 0.7856522799
 907.80004883 18.345355988 95.539749146 0.7935285568 11.743837357 0.7860314846
 907.90002441 18.353034973 96.725334167 0.7972575426 11.617626190 0.7857159376
 908.00000000 18.356151581 97.481254578 0.8009513617 11.530376434 0.7851555347
 908.09997559 18.356765747 97.249038696 0.8045513630 11.461120605 0.7848633528
 908.20001221 18.356765747 96.839370728 0.8080708981 11.378349304 0.7852714062
 908.29998779 18.356765747 96.240913391 0.8115111589 11.267574310 0.7865821123
 908.40002441 18.356765747 95.831771851 0.8148025274 11.140436172 0.7887041569
 908.50006104 18.356765747 95.485275269 0.8178520203 11.030712128 0.7912734747
 908.59997559 18.356765747 95.209800720 0.8206154108 10.974596024 0.7937977314
 908.70001221 18.356765747 94.746894836 0.8230750561 10.987504959 0.7958518267
 908.79998779 18.356765747 94.193923950 0.8251847029 11.052831650 0.7972007990
 908.90002441 18.356765747 93.526504517 0.8268226385 11.123245239 0.7978091240
 909.00000000 18.356765747 92.999069214 0.8277752399 11.141548157 0.7977646589
 909.09997559 18.356765747 92.604347229 0.8278243542 11.066131592 0.7971787453
 909.19995117 18.356147766 92.425064087 0.8268605471 10.885467529 0.7961388826
 909.29998779 18.353652954 92.516883850 0.8249437809 10.622665405 0.7947143316
 909.40002441 18.349086761 92.851715088 0.8223412037 10.318098068 0.7929387093
 909.50000000 18.343540192 93.626892090 0.8194568157 10.030784607 0.7907974720
 909.60003662 18.338962555 94.784477234 0.8166898489 9.8549518585 0.7882479429
 909.69995117 18.337177277 96.026908875 0.8143306971 9.9315891266 0.7852700949
 909.79998779 18.338344574 97.179588318 0.8125470877 10.399566650 0.7819453478
 909.89996338 18.340423584 97.733932495 0.8113589287 11.317331314 0.7785218954
 910.00000000 18.341407776 97.860778809 0.8106528521 12.608755112 0.7754049301
 910.10003662 18.340423584 97.189758301 0.8102865219 14.070426941 0.7730131149
 910.20001221 18.338344574 96.070137024 0.8102144003 15.429399490 0.7716012001
 910.29998779 18.337177277 94.701087952 0.8105479479 16.447357178 0.7711852789
 910.39996338 18.338962555 93.156440735 0.8115377426 17.008079529 0.7716045380
 910.50000000 18.343540192 91.866401672 0.8134508133 17.153713226 0.7726999521
 910.60003662 18.349086761 90.808151245 0.8164373636 17.042217255 0.7744367123
 910.70001221 18.353652954 90.447097778 0.8204691410 16.853218079 0.7768480778
 910.80004883 18.356151581 90.527351379 0.8253370523 16.697128296 0.7799341679
 910.89996338 18.356765747 90.936965942 0.8306856155 16.602607727 0.7835241556
 911.00000000 18.356765747 91.435821533 0.8360488415 16.550579071 0.7872169018
 911.09997559 18.356765747 91.633895874 0.8408758640 16.510398865 0.7904289961
 911.20001221 18.356765747 91.561378479 0.8445700407 16.464622498 0.7925328016
 911.30004883 18.356765747 91.118316650 0.8465738297 16.414207458 0.7930074930
 911.40002441 18.356765747 90.747642517 0.8464504480 16.367317200 0.7915495634
 911.50000000 18.356765747 90.455139160 0.8439869881 16.323734283 0.7880812883
 911.59997559 18.356765747 90.531097412 0.8392771482 16.267337799 0.7827489376
 911.70001221 18.356765747 90.862342834 0.8326830864 16.168998718 0.7759087086
 911.79998779 18.356765747 91.506980896 0.8247139454 15.994386673 0.7680898905
 911.90002441 18.356765747 92.521255493 0.8158652782 15.702642441 0.7598965168
 912.00006104 18.356765747 93.680595398 0.8064781427 15.250919342 0.7518903017
 912.09997559 18.356765747 95.010192871 0.7966816425 14.621860504 0.7444725037
 912.20001221 18.356765747 96.295196533 0.7864650488 13.835138321 0.7378162146
 912.29998779 18.356765747 97.364082336 0.7758523226 12.963006973 0.7318915129
 912.40002441 18.356765747 98.022308350 0.7650749683 12.132480621 0.7265309095
 912.50000000 18.356765747 97.911270142 0.7546914816 11.499738693 0.7215650082
 912.60003662 18.356765747 97.341911316 0.7455348969 11.207178116 0.7169673443
 912.69995117 18.356765747 96.081611633 0.7384548187 11.338230133 0.7129272223
 912.79998779 18.356765747 94.645423889 0.7340513468 11.880550385 0.7098079920
 912.90002441 18.356765747 93.284111023 0.7324998379 12.728816986 0.7080644369
 913.00000000 18.356765747 92.332214355 0.7335388660 13.707477570 0.7081351280
 913.10003662 18.356765747 91.971862793 0.7365957499 14.615810394 0.7103388309
 913.19995117 18.356765747 91.973648071 0.7409915924 15.274833679 0.7147537470
 913.29998779 18.356765747 92.512214661 0.7461320162 15.579986572 0.7211010456
 913.39996338 18.356147766 93.239685059 0.7515966892 15.514537811 0.7287107706
 913.50000000 18.353034973 94.022926331 0.7571585178 15.119293213 0.7366557121
 913.60003662 18.345352173 94.572715759 0.7627642155 14.452020645 0.7439912558
 913.70001221 18.332126617 94.569633484 0.7684941292 13.575580597 0.7500145435
