# LAS format log file from PETREL
# Project units are specified as depth units
#==================================================================
~Version information
VERS.   2.0:
WRAP.   NO:
#==================================================================
~Well
STRT .m      513.13079834 :
STOP .m      3511.9055176 :
STEP .m     0.00000000 :
NULL .        -999.250000 :
COMP.           : COMPANY
WELL.  7/7-1   : WELL
FLD.            : FIELD
LOC.            : LOCATION
SRVC.           : SERVICE COMPANY
DATE.  2018-09-11 21:49:22   : Log Export Date {yyyy-MM-dd HH:mm:ss}
PROV.           : PROVINCE
UWI.   7/7-1   : UNIQUE WELL ID
API.            : API NUMBER
#==================================================================
~Curve
DEPT .m                   : DEPTH
CALI .in                  : CALI
DRHO .g/cm3               : DRHO
NPHI .m3/m3               : NPHI
RHOB .g/cm3               : RHOB
GR .gAPI                  : GR
DTC .us/ft                : DTC
RDEP .ohm.m               : RDEP
SP .mV                    : SP
RSHA .ohm.m               : RSHA
RMIC .ohm.m               : RMIC
RMED .ohm.m               : RMED
~Parameter
#==================================================================
~Ascii
# ...
 3497.7321777 8.5761995316  -999.250000  -999.250000 1.9500000477 90.501945496 78.019813538 3.0042858124 120.54806519 2.5181999207 2.7423300743 2.1577999592
 3497.8847656 8.5756998062  -999.250000  -999.250000 1.9500000477 89.548027039 78.314941406 3.0711929798 120.71573639 2.6122999191 3.4841132164 2.2922999859
 3498.0371094 8.5738000870  -999.250000  -999.250000 1.9500000477 88.706649780 77.972579956 3.0816833973 121.06823730 2.6522998810 3.8748745918 2.3624000549
 3498.1894531 8.5675001144  -999.250000  -999.250000 1.9500000477 88.209396362 77.886878967 2.9172639847 121.99451447 2.5248999596 3.1817135811 2.2328999043
 3498.3417969 8.5612001419  -999.250000  -999.250000 1.9500000477 87.712593079 79.441810608 2.7526636124 122.92161560 2.3975000381 2.4869134426 2.1034998894
 3498.4941406 8.5549001694  -999.250000  -999.250000 1.9500000477 87.216690063 79.680282593 2.5883266926 123.84733582 2.2702000141 1.7932233810 1.9740999937
 3498.6467285 8.5525999069  -999.250000  -999.250000 1.9500000477 88.222679138 79.957031250 2.4027969837 122.55158234 2.2699000835 1.8057762384 1.9567999840
 3498.7990723 8.5504999161  -999.250000  -999.250000 1.9500000477 89.289192200 80.538757324 2.2167980671 121.16591644 2.2744998932 1.8475329876 1.9437999725
 3498.9514160 8.5482997894  -999.250000  -999.250000 1.9500000477 90.355789185 79.546539307 2.0306982994 119.78012085 2.2790999413 1.8894329071 1.9307999611
 3499.1037598 8.5481996536  -999.250000  -999.250000 1.9500000477 90.485084534 78.258277893 1.9732832909 119.94257355 2.3136999607 1.8786349297 1.9163000584
 3499.2563477 8.5489997864  -999.250000  -999.250000 1.9500000477 90.177299500 78.553077698 1.9755959511 120.82868195 2.3622000217 1.8431568146 1.9011000395
 3499.4086914 8.5497999191  -999.250000  -999.250000 1.9500000477 89.868492126 78.077308655 1.9780958891 121.71578217 2.4107999802 1.8077567816 1.8859000206
 3499.5610352 8.5483999252  -999.250000  -999.250000 1.9500000477 90.066978455 76.360328674  -999.250000 122.21909332 2.3947999477 1.8119931221  -999.250000
 3499.7133789 8.5437002182  -999.250000  -999.250000 1.9500000477 91.020637512 76.941673279  -999.250000 122.15012360 2.2827000618 1.8754961491  -999.250000
 3499.8659668 8.5389995575  -999.250000  -999.250000 1.9500000477 91.978569031 78.686851501  -999.250000 122.08011627 2.1705000401 1.9391980171  -999.250000
 3500.0183105 8.5314998627  -999.250000  -999.250000 1.9500000477 93.114173889 79.861473083  -999.250000 122.02319336  -999.250000 1.9765403271  -999.250000
 3500.1706543 8.5037002563  -999.250000  -999.250000 1.9500000477 95.555389404 79.422698975  -999.250000 122.06083679  -999.250000 1.8213491440  -999.250000
 3500.3229980 8.4757995605  -999.250000  -999.250000 1.9500000477 97.998588562 79.441810608  -999.250000 122.09864044  -999.250000 1.6659489870  -999.250000
 3500.4753418 8.4479999542  -999.250000  -999.250000 1.9500000477 100.43798065 79.498603821  -999.250000 122.13637543  -999.250000 1.5106976032  -999.250000
 3500.6279297 8.4541997910  -999.250000  -999.250000 1.9500000477 101.72145844 77.524002075  -999.250000 122.04634857  -999.250000 1.5398523808  -999.250000
 3500.7802734 8.4670000076  -999.250000  -999.250000 1.9500000477 102.77740479 76.379440308  -999.250000 121.93157959  -999.250000 1.6046960354  -999.250000
 3500.9326172 8.4797000885  -999.250000  -999.250000 1.9500000477 103.83300781 77.152267456  -999.250000 121.81678009  -999.250000 1.6696958542  -999.250000
 3501.0849609 8.4835996628  -999.250000  -999.250000 1.9500000477 103.74797821 78.496749878  -999.250000 121.95755005  -999.250000 1.6886395216  -999.250000
 3501.2375488 8.4806003571  -999.250000  -999.250000 1.9500000477 102.76108551 78.848625183  -999.250000 122.30094910  -999.250000 1.6713279486  -999.250000
 3501.3898926 8.4774999619  -999.250000  -999.250000 1.9500000477 101.77288818 79.290077209  -999.250000 122.64444733  -999.250000 1.6538280249  -999.250000
 3501.5422363 8.4715995789  -999.250000  -999.250000 1.9500000477 101.41326904 80.399810791  -999.250000 122.86444855  -999.250000 1.6549980640  -999.250000
 3501.6945801 8.4583997726  -999.250000  -999.250000 1.9500000477 102.68321991  -999.250000  -999.250000 122.76381683  -999.250000 1.7044413090  -999.250000
 3501.8471680 8.4451999664  -999.250000  -999.250000 1.9500000477 103.95975494  -999.250000  -999.250000 122.66246033  -999.250000 1.7541204691  -999.250000
 3501.9995117 8.4320001602  -999.250000  -999.250000 1.9500000477 105.23435211  -999.250000  -999.250000 122.56115723  -999.250000 1.8036206961  -999.250000
 3502.1518555 8.4320001602  -999.250000  -999.250000 1.9500000477 103.65893555  -999.250000  -999.250000 122.58975220  -999.250000 1.7414999008  -999.250000
 3502.3041992 8.4320001602  -999.250000  -999.250000 1.9500000477 102.07144165  -999.250000  -999.250000 122.61885071  -999.250000 1.6788004637  -999.250000
 3502.4565430 8.4320001602  -999.250000  -999.250000 1.9500000477 100.48638153  -999.250000  -999.250000 122.64801025  -999.250000 1.6162006855  -999.250000
 3502.6091309 8.4246997833  -999.250000  -999.250000 1.9500000477 100.92269135  -999.250000  -999.250000 122.29905701  -999.250000 1.7105482817  -999.250000
 3502.7614746 8.4144001007  -999.250000  -999.250000 1.9500000477 102.16650391  -999.250000  -999.250000 121.79980469  -999.250000 1.8674483299  -999.250000
 3502.9138184 8.4041004181  -999.250000  -999.250000 1.9500000477 103.41149902  -999.250000  -999.250000 121.30039978  -999.250000 2.0243484974  -999.250000
 3503.0661621 8.3966999054  -999.250000  -999.250000 1.9500000477 103.99941254  -999.250000  -999.250000 121.20500183  -999.250000 2.0829129219  -999.250000
 3503.2187500 8.3930997849  -999.250000  -999.250000 1.9500000477 103.73822021  -999.250000  -999.250000 121.63311005  -999.250000 2.0140109062  -999.250000
 3503.3710938 8.3893995285  -999.250000  -999.250000 1.9500000477 103.47482300  -999.250000  -999.250000 122.06221008  -999.250000 1.9448108673  -999.250000
 3503.5234375 8.3844003677  -999.250000  -999.250000 1.9500000477 103.22859955  -999.250000  -999.250000 122.42063141  -999.250000 1.8775079250  -999.250000
 3503.6757813 8.3720998764  -999.250000  -999.250000 1.9500000477 103.07688904  -999.250000  -999.250000 122.39279175  -999.250000 1.8204827309  -999.250000
 3503.8283691 8.3599004745  -999.250000  -999.250000 1.9500000477 102.92474365  -999.250000  -999.250000 122.36434937  -999.250000 1.7632915974  -999.250000
 3503.9807129 8.3475999832  -999.250000  -999.250000 1.9500000477 102.77284241  -999.250000  -999.250000 122.33594513  -999.250000 1.7061915398  -999.250000
 3504.1330566 8.3395996094  -999.250000  -999.250000 1.9500000477 103.24414825  -999.250000  -999.250000 122.03738403  -999.250000 1.7343547344  -999.250000
 3504.2854004 8.3323001862  -999.250000  -999.250000 1.9500000477 103.80619812  -999.250000  -999.250000 121.69944000  -999.250000 1.7749348879  -999.250000
 3504.4377441 8.3249998093  -999.250000  -999.250000 1.9500000477 104.36750031  -999.250000  -999.250000 121.36208344  -999.250000 1.8155697584  -999.250000
 3504.5903320 8.3140001297  -999.250000  -999.250000 1.9500000477 103.70546722  -999.250000  -999.250000 121.31287384  -999.250000 1.8048175573  -999.250000
 3504.7426758 8.3003997803  -999.250000  -999.250000 1.9500000477 102.20040894  -999.250000  -999.250000 121.46325684  -999.250000 1.7586740255  -999.250000
 3504.8950195 8.2868003845  -999.250000  -999.250000 1.9500000477 100.69400787  -999.250000  -999.250000 121.61385345  -999.250000 1.7123740911  -999.250000
 3505.0473633 8.2153997421  -999.250000  -999.250000 1.9500000477 100.00689697  -999.250000  -999.250000 121.74996185  -999.250000 1.6263757944  -999.250000
 3505.1999512 8.0163002014  -999.250000  -999.250000 1.9500000477 101.12070465  -999.250000  -999.250000 121.85493469  -999.250000 1.4519795179  -999.250000
 3505.3522949 7.8172998428  -999.250000  -999.250000 1.9500000477 102.23840332  -999.250000  -999.250000 121.95973206  -999.250000 1.2775795460  -999.250000
