# LAS format log file from PETREL
# Project units are specified as depth units
#==================================================================
~Version information
VERS.   2.0:
WRAP.   NO:
#==================================================================
~Well
STRT .m      513.13079834 :
STOP .m      3511.9055176 :
STEP .m     0.00000000 :
NULL .        -999.250000 :
COMP.           : COMPANY
WELL.  7/7-1   : WELL
FLD.            : FIELD
LOC.            : LOCATION
SRVC.           : SERVICE COMPANY
DATE.  2018-09-11 21:49:22   : Log Export Date {yyyy-MM-dd HH:mm:ss}
PROV.           : PROVINCE
UWI.   7/7-1   : UNIQUE WELL ID
API.            : API NUMBER
#==================================================================
~Curve
DEPT .m                   : DEPTH
CALI .in                  : CALI
DRHO .g/cm3               : DRHO
NPHI .m3/m3               : NPHI
RHOB .g/cm3               : RHOB
GR .gAPI                  : GR
DTC .us/ft                : DTC
RDEP .ohm.m               : RDEP
SP .mV                    : SP
RSHA .ohm.m               : RSHA
RMIC .ohm.m               : RMIC
RMED .ohm.m               : RMED
~Parameter
#==================================================================
~Ascii
# ...
 1531.3151855 17.727100372 0.0083443141  -999.250000 1.8955043554 47.592975616 166.28778076 0.6354971528 16.425676346 0.7304000258  -999.250000 0.6024000049
 1531.4675293 17.699800491 0.0154453106  -999.250000 1.9007234573 46.997177124 166.84503174 0.6390971541 17.829673767 0.7347999811  -999.250000 0.6075999737
 1531.6199951 17.678699493 0.0068798680  -999.250000 1.9179542065 46.832828522 166.94487000 0.6398993731 17.400644302 0.7332000136  -999.250000 0.6068000197
 1531.7723389 17.659200668 -0.005926735  -999.250000 1.9285156727 46.785438538 166.78712463 0.6399999261 16.475341797 0.7300000191  -999.250000 0.6043999791
 1531.9246826 17.639699936 -0.018727487  -999.250000 1.9233863354 46.738075256 166.21015930 0.6400998235 15.550282478 0.7268000245  -999.250000 0.6019999981
 1532.0771484 17.621000290 -0.020631490  -999.250000 1.9130797386 46.792755127 165.86199951 0.6375020742 15.333172798 0.7243999839  -999.250000 0.5993000269
 1532.2294922 17.603300095 -0.011889024  -999.250000 1.9017053843 46.946952820 165.64279175 0.6324081421 15.807839394 0.7228000164  -999.250000 0.5961999893
 1532.3819580 17.585500717 -0.003125017  -999.250000 1.8939470053 47.101478577 165.64279175 0.6272041798 16.283819199 0.7211999893  -999.250000 0.5931000113
 1532.5343018 17.575899124 0.0038428358  -999.250000 1.8930048943 47.222503662 165.64170837 0.6225075126 16.615070343 0.7197999954  -999.250000 0.5902000070
 1532.6867676 17.594400406 0.0047013205  -999.250000 1.8978749514 47.229496002 165.65087891 0.6191027164 16.452730179 0.7186999917  -999.250000 0.5881999731
 1532.8391113 17.612899780 0.0055503198  -999.250000 1.9020618200 47.236297607 165.96025085 0.6157027483 16.289730072 0.7177000046  -999.250000 0.5861999989
 1532.9915771 17.631299973 0.0063983211  -999.250000 1.9048160315 47.243095398 166.78016663 0.6123027205 16.126729965 0.7166000009  -999.250000 0.5841000080
 1533.1439209 17.615900040 0.0237970483  -999.250000 1.9120180607 46.619098663 167.67976379 0.6193943620 15.876501083 0.7149000168  -999.250000 0.5935999751
 1533.2963867 17.598499298 0.0421742834  -999.250000 1.9248883724 45.957729340 167.76017761 0.6269938946 15.621204376 0.7131000161  -999.250000 0.6039000154
 1533.4487305 17.581100464 0.0605512746  -999.250000 1.9546403885 45.296329498 167.38334656 0.6345939040 15.365804672 0.7113000154  -999.250000 0.6140999794
 1533.6011963 17.573699951 0.0531089753  -999.250000 2.0027239323 44.984848022 166.79643250 0.6410948038 15.692037582 0.7197999954  -999.250000 0.6200000048
 1533.7535400 17.571399689 0.0325834528  -999.250000 2.0088500977 44.850708008 166.31005859 0.6468953490 16.313102722 0.7335000038  -999.250000 0.6237000227
 1533.9058838 17.569200516 0.0120638842  -999.250000 1.9701293707 44.716712952 165.69459534 0.6526907086 16.933803558 0.7472000122  -999.250000 0.6273999810
 1534.0583496 17.568099976 -0.001740956  -999.250000 1.9420473576 44.568618774 164.88870239 0.6560972333 17.046609879 0.7530999780  -999.250000 0.6291000247
 1534.2106934 17.569099426 -0.004659337  -999.250000 1.9383294582 44.398273468 164.44065857 0.6556007862 16.340032578 0.7462999821  -999.250000 0.6273999810
 1534.3631592 17.570100784 -0.007573667  -999.250000 1.9425203800 44.227638245 164.35995483 0.6550004482 15.631567001 0.7394999862  -999.250000 0.6256999969
 1534.5155029 17.572500229 -0.010007100  -999.250000 1.9427992105 44.313262939 164.72630310 0.6538019180 15.078485489 0.7333999872  -999.250000 0.6234999895
 1534.6679688 17.586999893 -0.008261403  -999.250000 1.9400435686 46.645629883 165.17413330 0.6460062861 15.877758026 0.7332999706  -999.250000 0.6161000133
 1534.8203125 17.601600647 -0.006511402  -999.250000 1.9390786886 48.979629517 165.41546631 0.6383062005 16.678558350 0.7330999970  -999.250000 0.6087999940
 1534.9727783 17.616100311 -0.004760402  -999.250000 1.9437856674 51.313629150 165.36322021 0.6305062771 17.479358673 0.7329999804  -999.250000 0.6014999747
 1535.1251221 17.619600296 -0.006624504  -999.250000 1.9508535862 50.801811218 165.04660034 0.6313992739 17.347906113 0.7311000228  -999.250000 0.6021999717
 1535.2775879 17.620700836 -0.009275877  -999.250000 1.9521955252 49.669506073 165.01737976 0.6341977119 17.013069153 0.7287999988  -999.250000 0.6047000289
 1535.4299316 17.621799469 -0.011928874  -999.250000 1.9534146786 48.536609650 164.61158752 0.6369977593 16.678068161 0.7264999747  -999.250000 0.6072000265
 1535.5823975 17.624399185 -0.009885639  -999.250000 1.9565372467 47.561683655 163.68611145 0.6410967112 16.032516479 0.7264000177  -999.250000 0.6122999787
 1535.7347412 17.628099442 -0.003851837  -999.250000 1.9597045183 46.720973969 163.08059692 0.6463957429 15.122928619 0.7281000018  -999.250000 0.6197999716
 1535.8872070 17.631900787 0.0021861657  -999.250000 1.9644371271 45.880371094 162.39378357 0.6515958309 14.213228226 0.7299000025  -999.250000 0.6272000074
 1536.0395508 17.634199142 0.0063106962  -999.250000 1.9702841043 45.609016418 162.00729370 0.6556967497 13.864179611 0.7315000296  -999.250000 0.6320999861
 1536.1918945 17.632600784 0.0049871281  -999.250000 1.9709990025 46.958732605 161.27255249 0.6568980813 15.111798286 0.7328000069  -999.250000 0.6297000051
 1536.3443604 17.631000519 0.0036560656  -999.250000 1.9724600315 48.311916351 160.35710144 0.6579990983 16.362798691 0.7342000008  -999.250000 0.6273000240
 1536.4967041 17.629400253 0.0023281281  -999.250000 1.9767968655 49.662933350 159.90834045 0.6590982080 17.611700058 0.7354999781  -999.250000 0.6248999834
 1536.6491699 17.628499985 0.0037568526  -999.250000 1.9804822206 48.297794342 159.78239441 0.6590000391 16.283966064 0.7330999970  -999.250000 0.6227999926
 1536.8015137 17.627700806 0.0052476106  -999.250000 1.9752881527 46.872283936 159.68750000 0.6588003039 14.898920059 0.7307000160  -999.250000 0.6205999851
 1536.9539795 17.626800537 0.0067408048  -999.250000 1.9703981876 45.444442749 159.65289307 0.6586001515 13.511610985 0.7282999754  -999.250000 0.6184999943
 1537.1063232 17.628200531 0.0099334409  -999.250000 1.9799066782 44.747657776 159.41273499 0.6612978578 13.924367905 0.7297999859  -999.250000 0.6183999777
 1537.2587891 17.630399704 0.0138638532  -999.250000 1.9943518639 44.367004395 159.08389282 0.6651968956 15.116145134 0.7329000235  -999.250000 0.6191999912
 1537.4111328 17.632699966 0.0177938510  -999.250000 2.0062301159 43.986606598 159.08389282 0.6691967845 16.308645248 0.7361000180  -999.250000 0.6200000048
 1537.5635986 17.646099091 0.0225332063  -999.250000 2.0262107849 44.025970459 158.89884949 0.6740960479 16.681402206 0.7404000163  -999.250000 0.6243000031
 1537.7159424 17.674999237 0.0284042954  -999.250000 2.0392088890 44.651500702 156.37414551 0.6801950932 15.909019470 0.7462999821  -999.250000 0.6334000230
 1537.8684082 17.704000473 0.0342762992  -999.250000 2.0456094742 45.277500153 151.13761902 0.6863950491 15.135719299 0.7522000074  -999.250000 0.6425999999
 1538.0207520 17.720399857 0.0354240835  -999.250000 2.0864820480 45.622024536 149.25624084 0.6941937208 14.563757896 0.7562000155  -999.250000 0.6525999904
 1538.1730957 17.657800674 0.0067060608  -999.250000 2.1662750244 44.186405182 153.05281067 0.7119715214 15.265473366 0.7473000288  -999.250000 0.6687999964
 1538.3255615 17.595100403 -0.022081953  -999.250000 2.1984102726 42.746952057 156.50515747 0.7297857404 15.969336510 0.7383999825  -999.250000 0.6848999858
 1538.4779053 17.532499313 -0.050823942  -999.250000 2.1387245655 41.309902191 158.50338745 0.7475715280 16.672075272 0.7294999957  -999.250000 0.7009999752
 1538.6303711 17.452699661 -0.040439364  -999.250000 2.0756649971 41.142635345 160.12475586 0.7426040173 16.880533218 0.7404999733  -999.250000 0.7002000213
 1538.7827148 17.370000839 -0.023406304  -999.250000 2.0492715836 41.192119598 161.11119080 0.7338140607 17.004301071 0.7548999786  -999.250000 0.6965000033
 1538.9351807 17.287300110 -0.006339665  -999.250000 2.0239529610 41.241863251 161.09188843 0.7250070572 17.128200531 0.7692000270  -999.250000 0.6927999854
