# LAS format log file from PETREL
# Project units are specified as depth units
#==================================================================
~Version information
VERS.   2.0:
WRAP.   NO:
#==================================================================
~Well
STRT .m      873.00000000 :
STOP .m      3593.0000000 :
STEP .m     0.00000000 :
NULL .        -999.250000 :
COMP.           : COMPANY
WELL.  7/7-3 Brynhild Appr   : WELL
FLD.            : FIELD
LOC.            : LOCATION
SRVC.           : SERVICE COMPANY
DATE.  2018-09-11 21:49:23   : Log Export Date {yyyy-MM-dd HH:mm:ss}
PROV.           : PROVINCE
UWI.   7/7-3   : UNIQUE WELL ID
API.            : API NUMBER
#==================================================================
~Curve
DEPT .m                   : DEPTH
CALI .in                  : CALI
GR .gAPI                  : GR
RDEP .ohm.m               : RDEP
SP .mV                    : SP
RMED .ohm.m               : RMED
~Parameter
#==================================================================
~Ascii
# ...
 2515.1999512 18.043334961 116.99436951 0.5775402784 10.343696594 0.5804554224
 2515.3000488 18.043334961 117.47081757 0.5822082758 10.220024109 0.5802154541
 2515.4001465 18.043334961 118.07011414 0.5844539404 10.132616043 0.5796746016
 2515.5000000 18.043334961 118.83142090 0.5844118595 10.101575851 0.5783873796
 2515.6000977 18.043334961 119.40606689 0.5828045607 10.126235962 0.5762012005
 2515.7001953 18.043334961 119.67595673 0.5805525780 10.189155579 0.5733361244
 2515.8000488 18.043334961 119.39763641 0.5783969164 10.263168335 0.5703029633
 2515.9001465 18.043334961 118.45770264 0.5765746832 10.314756393 0.5676771402
 2516.0002441 18.043334961 117.20760345 0.5748263597 10.318414688 0.5656157732
 2516.1000977 18.043334961 115.58150482 0.5727560520 10.270025253 0.5636119843
 2516.2001953 18.043334961 114.08827972 0.5700825453 10.189094543 0.5607498884
 2516.2998047 18.043334961 112.85327148 0.5665740967 10.115642548 0.5562196970
 2516.3999023 18.043334961 112.29944611 0.5619487762 10.089080811 0.5497210026
 2516.5000000 18.043334961 112.61682892 0.5558437109 10.130443573 0.5414999723
 2516.5998535 18.043334961 113.47872925 0.5478127003 10.234167099 0.5319948196
 2516.6999512 18.043334961 115.19047546 0.5374944210 10.360279083 0.5215344429
 2516.8000488 18.043334961 117.32722473 0.5249260664 10.452373505 0.5103502274
 2516.8999023 18.043334961 119.72544098 0.5106650591 10.465805054 0.4987650514
 2517.0000000 18.043334961 122.44050598 0.4956943989 10.387498856 0.4873285890
 2517.1000977 18.043334961 125.12178040 0.4811884761 10.236669540 0.4767755866
 2517.1999512 18.043334961 127.71356964 0.4681468010 10.057590485 0.4677872658
 2517.3000488 18.043334961 129.66981506 0.4572888613 9.9058303833 0.4607104063
 2517.4001465 18.043334961 130.80215454 0.4490483403 9.8234367371 0.4556509852
 2517.5000000 18.043334961 131.25695801 0.4435710311 9.8263778687 0.4528200626
 2517.6000977 18.043334961 130.69183350 0.4407151341 9.9054775238 0.4526950121
 2517.6999512 18.043334961 129.71638489 0.4401000738 10.026453018 0.4558053017
 2517.8000488 18.043334961 128.35505676 0.4411861300 10.149637222 0.4621986151
 2517.9001465 18.043334961 126.62042999 0.4434997439 10.255031586 0.4710434079
 2518.0000000 18.043334961 125.00511169 0.4468817115 10.344331741 0.4807917476
 2518.1000977 18.043334961 123.51932526 0.4514912963 10.430227280 0.4897553921
 2518.2001953 18.043334961 122.61827087 0.4574866891 10.522920609 0.4967985153
 2518.3000488 18.043334961 122.04988861 0.4647538066 10.617042542 0.5016634464
 2518.4001465 18.043334961 121.88681030 0.4727403522 10.684270859 0.5046828985
 2518.5002441 18.042716980 122.05983734 0.4805390239 10.693702698 0.5061022043
 2518.5998535 18.040222168 122.34532166 0.4872338772 10.635904312 0.5056519508
 2518.6999512 18.035652161 122.76103210 0.4923030138 10.530609131 0.5027986765
 2518.7998047 18.030105591 123.19253540 0.4958026409 10.424396515 0.4973219037
 2518.8999023 18.025527954 123.51256561 0.4982095361 10.366476059 0.4898191690
 2519.0000000 18.023742676 123.59200287 0.4998494387 10.380813599 0.4821001291
 2519.0998535 18.025531769 123.43997192 0.5006954670 10.457010269 0.4770569205
 2519.1999512 18.031337738 123.32424927 0.5009137392 10.549629211 0.4775077701
 2519.3000488 18.046199799 123.45539093 0.5009880066 10.598031998 0.4848356843
 2519.3999023 18.082923889 124.15991974 0.5015739202 10.554693222 0.4981685281
 2519.5000000 18.156505585 125.11621857 0.5031154156 10.414562225 0.5147117376
 2519.6000977 18.273616791 126.27913666 0.5055811405 10.222137451 0.5309541225
 2519.6999512 18.421466827 126.98863220 0.5083996058 10.047756195 0.5440635681
 2519.8000488 18.564285278 127.39601898 0.5107586384 9.9561862946 0.5526903868
 2519.9001465 18.659641266 127.27531433 0.5119605064 9.9755382538 0.5565949678
 2520.0000000 18.679576874 127.23711395 0.5117269754 10.088838577 0.5555073023
 2520.1000977 18.624237061 127.29410553 0.5102380514 10.247001648 0.5488288403
 2520.2001953 18.521045685 127.68925476 0.5079284906 10.392183304 0.5358111858
 2520.3000488 18.410293579 128.20223999 0.5049299002 10.491111755 0.5168710947
 2520.4001465 18.324478149 128.78033447 0.5012631416 10.542161942 0.4943022728
 2520.5002441 18.275283813 129.23506165 0.4971395135 10.549079895 0.4717938304
 2520.6000977 18.255985260 129.42323303 0.4929056168 10.511415482 0.4529706240
 2520.7001953 18.252285004 129.38981628 0.4887881279 10.430521011 0.4400200248
 2520.8000488 18.252285004 128.98867798 0.4846143723 10.317073822 0.4330036044
 2520.8999023 18.252285004 128.45097351 0.4798016548 10.192193985 0.4303039312
 2521.0000000 18.252285004 127.78222656 0.4736397862 10.082468033 0.4297862649
 2521.0998535 18.252285004 127.17694855 0.4656403065 10.017814636 0.4301183820
 2521.1999512 18.252285004 126.83354950 0.4558266997 10.017057419 0.4306989312
 2521.3000488 18.252285004 126.79438782 0.4448655248 10.077466965 0.4313727617
 2521.3999023 18.252285004 127.19147491 0.4339354038 10.171903610 0.4321461320
 2521.5000000 18.252285004 127.74980164 0.4242610931 10.260290146 0.4329714775
 2521.5998535 18.252285004 128.49223328 0.4165326953 10.308742523 0.4337432981
 2521.6999512 18.252285004 129.40142822 0.4106918573 10.298442841 0.4343315959
 2521.8000488 18.252285004 130.33692932 0.4062561989 10.224576950 0.4346845150
 2521.8999023 18.252285004 131.28123474 0.4028689265 10.104772568 0.4349278212
 2522.0000000 18.252285004 132.03683472 0.4007346630 9.9748058319 0.4354139566
 2522.1000977 18.252285004 132.53305054 0.4007622600 9.8738899231 0.4367756248
 2522.1999512 18.252285004 132.55737305 0.4042592645 9.8299770355 0.4398719072
 2522.3000488 18.252285004 131.93659973 0.4122782350 9.8525962830 0.4454268813
 2522.4001465 18.252285004 131.01423645 0.4248486161 9.9331626892 0.4534346461
 2522.5000000 18.252285004 129.72825623 0.4404650927 10.048561096 0.4627391696
 2522.6000977 18.252285004 128.46258545 0.4562157393 10.174367905 0.4711429477
 2522.7001953 18.252285004 127.32047272 0.4686253667 10.295124054 0.4760946035
 2522.8000488 18.252285004 126.57450867 0.4747650623 10.410266876 0.4756611586
 2522.9001465 18.252285004 126.36584473 0.4732691050 10.521163940 0.4691885114
 2523.0002441 18.252285004 126.41457367 0.4648723602 10.617382050 0.4573291540
 2523.1000977 18.252285004 126.59459686 0.4521459341 10.682880402 0.4416091442
 2523.2001953 18.252285004 126.23813629 0.4384427071 10.707979202 0.4238003492
 2523.2998047 18.252285004 125.48345184 0.4265842438 10.689138412 0.4054899812
 2523.3999023 18.252285004 123.92111969 0.4175004363 10.638221741 0.3879842758
 2523.5000000 18.252285004 122.40619659 0.4098596573 10.587173462 0.3723977804
 2523.5998535 18.252285004 121.00814056 0.4015817642 10.574520111 0.3596419096
 2523.6999512 18.252285004 120.54637909 0.3914991021 10.619688034 0.3501988053
 2523.8000488 18.252902985 120.77285004 0.3801405430 10.711393356 0.3438438773
 2523.8999023 18.256019592 121.55589294 0.3693915606 10.818264008 0.3397025466
 2524.0000000 18.264316559 122.61854553 0.3613539338 10.903463364 0.3366712332
 2524.1000977 18.282508850 123.32904053 0.3571377397 10.939519882 0.3339449763
 2524.1999512 18.323497772 123.69995880 0.3564062715 10.918363571 0.3312495351
 2524.3000488 18.401245117 123.19991302 0.3577427268 10.856235504 0.3287488818
 2524.3999023 18.506633759 122.23213959 0.3596540093 10.786687851 0.3271208405
 2524.5000000 18.609951019 120.72459412 0.3615351915 10.741201401 0.3275166750
 2524.6000977 18.673835754 118.86598206 0.3638151288 10.730964661 0.3306960464
 2524.6999512 18.673667908 117.21392822 0.3669422865 10.740541458 0.3366305232
 2524.8000488 18.610816956 115.87918854 0.3707868457 10.738723755 0.3443636298
 2524.9001465 18.511314392 115.28662872 0.3747979403 10.707794189 0.3524043560
 2525.0000000 18.410743713 114.97458649 0.3783036470 10.652450562 0.3592638373
 2525.1000977 18.337684631 114.98685455 0.3808054328 10.598630905 0.3640494347
 2525.2001953 18.300716400 114.97696686 0.3821123242 10.579351425 0.3667087555
 2525.3000488 18.287895203 114.99510956 0.3823519945 10.613319397 0.3679341078
