# LAS format log file from PETREL
# Project units are specified as depth units
#==================================================================
~Version information
VERS.   2.0:
WRAP.   NO:
#==================================================================
~Well
STRT .m      855.12506104 :
STOP .m      3436.8750000 :
STEP .m     0.00000000 :
NULL .        -999.250000 :
COMP.           : COMPANY
WELL.  7/7-2 Brynhild   : WELL
FLD.            : FIELD
LOC.            : LOCATION
SRVC.           : SERVICE COMPANY
DATE.  2018-09-11 21:49:22   : Log Export Date {yyyy-MM-dd HH:mm:ss}
PROV.           : PROVINCE
UWI.   7/7-2   : UNIQUE WELL ID
API.            : API NUMBER
#==================================================================
~Curve
DEPT .m                   : DEPTH
CALI .in                  : CALI
DRHO .g/cm3               : DRHO
NPHI .m3/m3               : NPHI
RHOB .g/cm3               : RHOB
GR .gAPI                  : GR
DTC .us/ft                : DTC
RDEP .ohm.m               : RDEP
SP .mV                    : SP
RSHA .ohm.m               : RSHA
RMED .ohm.m               : RMED
~Parameter
#==================================================================
~Ascii
# ...
 2745.1250000 17.156299591 0.0516999997 0.3133000135 2.6769204140 20.071800232 74.416282654 2.6340000629  -999.250000  -999.250000 2.4832999706
 2745.2500000 17.156299591 0.0179999992 0.2772000134 2.6285953522 17.429800034 74.493125916 2.6793999672  -999.250000  -999.250000 2.3566999435
 2745.3750000 17.158700943 0.0350000001 0.2515000105 2.6564564705 17.902500153 75.025085449 2.7442998886  -999.250000  -999.250000 2.2095000744
 2745.5002441 17.227500916 0.0397000015 0.2237000018 2.6298294067 21.203500748 75.822929382 2.7795999050  -999.250000  -999.250000 2.0734000206
 2745.6252441 17.250000000 0.0445000008 0.3644999862 2.6343665123 25.096300125 77.391014099 2.7409999371  -999.250000  -999.250000 2.0615999699
 2745.7497559 17.248300552 0.0201999992 0.2496999949 2.6207532883 19.839300156 77.788414001 2.6438000202  -999.250000  -999.250000 2.3046998978
 2745.8747559 17.198900223 0.0379999988 0.2238000035 2.6500854492 17.661600113 75.839546204 2.5515000820  -999.250000  -999.250000 2.6737000942
 2746.0000000 17.068500519 0.0361000001 0.2743000090 2.6445546150 15.602000237 73.138237000 2.4981999397  -999.250000  -999.250000 2.7520000935
 2746.1250000 16.587999344 0.0096000005 0.2457000017 2.6004419327 16.568799973 71.213943481 2.5039999485  -999.250000  -999.250000 2.4769999981
 2746.2500000 16.418600082 -0.057900000 0.2693000138 2.4703230858 16.705900192 70.995368958 2.4909000397  -999.250000  -999.250000 2.3326001167
 2746.3750000 16.121500015 -0.109800003 0.1960999966 2.3473129272 17.069299698 71.387329102 2.5006999969  -999.250000  -999.250000 2.2859001160
 2746.5000000 15.961999893 -0.027100001 0.1975000054 2.4386911392 21.755100250 72.569969177 2.5178000927  -999.250000  -999.250000 2.2843000889
 2746.6250000 14.022100449 0.0184000004 0.2851000130 2.5716090202 18.070100784 73.312866211 2.5106999874  -999.250000  -999.250000 2.2681999207
 2746.7500000 12.909799576 0.0141000003 0.2109999955 2.6115851402 17.153600693 73.667488098 2.5062999725  -999.250000  -999.250000 2.3153998852
 2746.8750000 12.795100212 0.0149999997 0.1344999969 2.6174540520 21.670000076 73.629989624 2.4874999523  -999.250000  -999.250000 2.4971001148
 2747.0000000 12.750000000 0.0231999997 0.1284999996 2.6098690033 21.647199631 72.851799011 2.4700999260  -999.250000  -999.250000 2.9177000523
 2747.1250000 12.750000000 0.0239000004 0.1165999994 2.6364216805 20.720399857 72.365356445 2.4865999222  -999.250000  -999.250000 3.1942000389
 2747.2500000 12.750000000 0.0399000011 0.1238000020 2.6579790115 18.543899536 71.560668945 2.5185999870  -999.250000  -999.250000 3.2355999947
 2747.3750000 12.747499466 0.0088999998 0.1155000031 2.5886926651 18.890600204 71.302764893 2.5457999706  -999.250000  -999.250000 2.7783000469
 2747.5000000 12.678799629 0.0250000004 0.1115000024 2.6334877014 21.203500748 71.498733521 2.5599999428  -999.250000  -999.250000 2.5718998909
 2747.6250000 12.655400276 -0.012900000 0.1147999987 2.5919551849 20.026699066 71.694747925 2.5051999092  -999.250000  -999.250000 2.5977001190
 2747.7500000 12.630200386 -0.003000000 0.1129999980 2.5931787491 17.008399963 71.890769958 2.3701000214  -999.250000  -999.250000 3.3938999176
 2747.8752441 12.562500000 -0.000900000 0.1058000028 2.5931229591 17.655500412 70.467010498 2.1691999435  -999.250000  -999.250000 3.7941999435
 2748.0002441 12.562500000 -0.040199999 0.0967999995 2.5621228218 18.962900162 69.171340942 1.9562000036  -999.250000  -999.250000 4.4243001938
 2748.1247559 12.562500000 -0.034600001 0.0883999988 2.5927720070 15.258199692 68.277603149 1.7445000410  -999.250000  -999.250000 5.0963001251
 2748.2497559 12.562500000 -0.080200002 0.1102000028 2.5325412750 13.560999870 67.741226196 1.5793000460  -999.250000  -999.250000 4.3126997948
 2748.3750000 12.562500000 -0.065800004 0.1068999991 2.5127983093 14.810099602 67.454238892 1.4067000151  -999.250000  -999.250000 3.4147999287
 2748.5000000 12.562500000 -0.045299999 0.1363999993 2.4628076553 12.232500076 69.319641113 1.2578999996  -999.250000  -999.250000 2.9421999454
 2748.6250000 12.562500000 -0.048700001 0.1248999983 2.3958783150 13.057100296 71.339088440 1.1296000481  -999.250000  -999.250000 2.9210000038
 2748.7500000 12.562500000 -0.053500000 0.1567000002 2.4284973145 13.472800255 73.335220337 1.0147000551  -999.250000  -999.250000 3.0243000984
 2748.8750000 12.562500000 -0.039500002 0.1818999946 2.4799032211 15.062199593 74.457313538 0.9261000156  -999.250000  -999.250000 3.2414000034
 2749.0000000 12.562500000 -0.032000002 0.1670999974 2.5194745064 14.748900414 74.344436646 0.8592000008  -999.250000  -999.250000 3.4056000710
 2749.1250000 12.562500000 -0.043400001 0.1833000034 2.5393204689 15.519599915 74.637710571 0.8000000119  -999.250000  -999.250000 2.5715999603
 2749.2500000 12.562500000 -0.046599999 0.1518999934 2.5281682014 14.817999840 75.676155090 0.7472000122  -999.250000  -999.250000 2.1491000652
 2749.3750000 12.562500000 -0.088699996 0.1932999939 2.4735569954 15.798100471 76.539550781 0.7020000219  -999.250000  -999.250000 2.0422000885
 2749.5000000 12.562500000 -0.086599998 0.2467000037 2.4450888634 20.634799957 77.123016357 0.6676999927  -999.250000  -999.250000 2.4086999893
 2749.6250000 12.562500000 -0.039299998 0.1849000007 2.4762358665 15.412099838 77.485031128 0.6358000040  -999.250000  -999.250000 2.7407000065
 2749.7500000 12.562500000 -0.036600001 0.1745000035 2.4496412277 14.248900414 77.666091919 0.6068000197  -999.250000  -999.250000 2.8935999870
 2749.8750000 12.562500000 -0.044799998 0.1739999950 2.4236984253 13.876999855 76.493827820 0.5848000050  -999.250000  -999.250000 2.8796000481
 2750.0000000 12.562500000 -0.051300000 0.1428000033 2.4105482101 13.202099800 76.073272705 0.5705999732  -999.250000  -999.250000 2.8060998917
 2750.1250000 12.562500000 -0.040800001 0.1581999958 2.3831300735 14.114899635 75.966796875 0.5626000166  -999.250000  -999.250000 2.7430000305
 2750.2502441 12.562500000 -0.050600000 0.2067999989 2.3918657303 14.248900414 76.294517517 0.5612000227  -999.250000  -999.250000 2.7683999538
 2750.3752441 12.562500000 -0.032600001 0.2334000021 2.4151911736 15.134499550 76.883415222 0.5656999946  -999.250000  -999.250000 2.8487000465
 2750.4997559 12.562500000 -0.021400001 0.2531999946 2.4296731949 15.869199753 76.688468933 0.5780000091  -999.250000  -999.250000 2.9379999638
 2750.6250000 12.562500000 -0.036600001 0.1925999969 2.4425716400 15.002300262 76.683502197 0.5988000035  -999.250000  -999.250000 3.0864999294
 2750.7500000 12.562500000 -0.035399999 0.1392000020 2.4466814995 12.370599747 76.237861633 0.6287000179  -999.250000  -999.250000 3.2198998928
 2750.8750000 12.562500000 -0.036800001 0.1424999982 2.4642243385 11.309599876 75.755508423 0.6703000069  -999.250000  -999.250000 3.3810999393
 2751.0000000 12.562500000 -0.041499998 0.1782999933 2.4717383385 13.477899551 75.144432068 0.7235000134  -999.250000  -999.250000 3.5848000050
 2751.1250000 12.562500000 -0.070900001 0.1689999998 2.4255557060 12.366000175 74.107231140 0.7971000075  -999.250000  -999.250000 3.8257999420
 2751.2500000 12.562500000 -0.058800001 0.1708000004 2.4723987579 12.442000389 73.420875549 0.8989999890  -999.250000  -999.250000 3.9748001099
 2751.3750000 12.562500000 -0.047699999 0.1644999981 2.4764285088 13.019800186 73.166435242 1.0240999460  -999.250000  -999.250000 4.1723999977
 2751.5000000 12.562500000 -0.027400000 0.1362999976 2.5248303413 9.7075996399 72.581047058 1.1548000574  -999.250000  -999.250000 4.4275999069
 2751.6250000 12.562500000 -0.047899999 0.1721999943 2.5009117126 12.132599831 71.797004700 1.2831000090  -999.250000  -999.250000 4.4762997627
 2751.7500000 12.562500000 -0.050799999 0.1004000008 2.5061583519 12.994299889 70.860900879 1.4184000492  -999.250000  -999.250000 5.1989998817
 2751.8750000 12.562500000 -0.040300000 0.1009000018 2.5767879486 12.678099632 69.401931763 1.5602999926  -999.250000  -999.250000 5.6567001343
 2752.0000000 12.562500000 -0.016400000 0.0744000003 2.6551246643 15.442700386 68.513313293 1.7045999765  -999.250000  -999.250000 5.7186999321
