# LAS format log file from PETREL
# Project units are specified as depth units
#==================================================================
~Version information
VERS.   2.0:
WRAP.   NO:
#==================================================================
~Well
STRT .m      855.12506104 :
STOP .m      3436.8750000 :
STEP .m     0.00000000 :
NULL .        -999.250000 :
COMP.           : COMPANY
WELL.  7/7-2 Brynhild   : WELL
FLD.            : FIELD
LOC.            : LOCATION
SRVC.           : SERVICE COMPANY
DATE.  2018-09-11 21:49:22   : Log Export Date {yyyy-MM-dd HH:mm:ss}
PROV.           : PROVINCE
UWI.   7/7-2   : UNIQUE WELL ID
API.            : API NUMBER
#==================================================================
~Curve
DEPT .m                   : DEPTH
CALI .in                  : CALI
DRHO .g/cm3               : DRHO
NPHI .m3/m3               : NPHI
RHOB .g/cm3               : RHOB
GR .gAPI                  : GR
DTC .us/ft                : DTC
RDEP .ohm.m               : RDEP
SP .mV                    : SP
RSHA .ohm.m               : RSHA
RMED .ohm.m               : RMED
~Parameter
#==================================================================
~Ascii
# ...
 2913.1250000 12.375000000 -0.108099997 0.1506000012 2.5043315887 12.155799866 68.875656128 1.0037000179  -999.250000  -999.250000 5.6669001579
 2913.2500000 12.375000000 -0.098099999 0.1036999971 2.5077691078 13.053700447 68.288574219 1.0776000023  -999.250000  -999.250000 5.8271999359
 2913.3750000 12.375000000 -0.066900000 0.1049999967 2.5794157982 12.508500099 68.042434692 1.1837999821  -999.250000  -999.250000 6.0432000160
 2913.5000000 12.378299713 -0.093699999 0.0912000015 2.5707316399 8.9967002869 67.208396912 1.3233000040  -999.250000  -999.250000 6.4061999321
 2913.6250000 12.468700409 -0.061999999 0.0754000023 2.6347908974 12.940500259 66.035003662 1.4953999519  -999.250000  -999.250000 6.9025998116
 2913.7500000 12.468700409 -0.064800002 0.0732000023 2.6021447182 10.128000259 64.695671082 1.7206000090  -999.250000  -999.250000 7.8270998001
 2913.8750000 12.468700409 -0.049899999 0.0540000014 2.6105732918 12.308899879 62.738666534 1.9983999729  -999.250000  -999.250000 8.8311996460
 2914.0000000 12.472000122 -0.018600000 0.0502999984 2.6638064384 10.827899933 61.170833588 2.3306999207  -999.250000  -999.250000 9.8084001541
 2914.1250000 12.562500000 0.0716999993 0.0566000007 2.7645988464 12.450900078 59.817409515 2.7316999435  -999.250000  -999.250000 7.5913000107
 2914.2502441 12.562500000 0.0296000000 0.0513000004 2.6870250702 14.053700447 59.091743469 3.2111999989  -999.250000  -999.250000 6.1374998093
 2914.3752441 12.562500000 0.0081000002 0.0623999983 2.6360611916 15.928999901 58.752269745 3.7007000446  -999.250000  -999.250000 6.2919001579
 2914.4997559 12.562500000 -0.018200001 0.0522000007 2.5855441093 13.219200134 58.335716248 4.1301999092  -999.250000  -999.250000 8.2215003967
 2914.6247559 12.562500000 0.0219000001 0.0516000018 2.6607789993 11.800299644 58.293384552 4.4486999512  -999.250000  -999.250000 9.5558004379
 2914.7500000 12.562500000 0.0296000000 0.0507999994 2.6726460457 11.308699608 58.044330597 4.6833000183  -999.250000  -999.250000 9.3701000214
 2914.8750000 12.562500000 0.0368999988 0.0557000004 2.6897621155 11.656399727 57.875732422 4.8743000031  -999.250000  -999.250000 8.7056999207
 2915.0000000 12.562500000 0.0291000009 0.0452000014 2.6842303276 11.939599991 58.046405792 4.9826998711  -999.250000  -999.250000 8.1492004395
 2915.1250000 12.562500000 0.0483999997 0.0604000017 2.7289304733 11.939599991 58.368736267 4.9579000473  -999.250000  -999.250000 7.5493001938
 2915.2500000 12.562500000 0.0132999998 0.0502999984 2.6526107788 12.496700287 58.101573944 4.7789001465  -999.250000  -999.250000 7.3776998520
 2915.3750000 12.562500000 0.0318999998 0.0458999984 2.7115025520 10.337800026 58.058578491 4.4976000786  -999.250000  -999.250000 7.6761999130
 2915.5000000 12.559201241 0.0263000000 0.0390999988 2.6944756508 11.228699684 57.360488892 4.1449999809  -999.250000  -999.250000 7.5837001801
 2915.6250000 12.468700409 0.0650999993 0.0419000015 2.7601089478 10.964699745 57.003097534 3.7634000778  -999.250000  -999.250000 8.1885004044
 2915.7500000 12.468700409 -0.001600000 0.0496000014 2.7170939445 9.4730997086 57.145278931 3.4093999863  -999.250000  -999.250000 8.7588996887
 2915.8750000 12.468700409 -0.040800001 0.0595000014 2.6580872536 11.267399788 57.734649658 3.1084001064  -999.250000  -999.250000 9.1991996765
 2916.0000000 12.468700409 -0.059200000 0.0798000023 2.6602783203 7.8763999939 59.495880127 2.8578999043  -999.250000  -999.250000 8.2334995270
 2916.1250000 12.468700409 -0.070600003 0.0700000003 2.5873837471 12.371399879 61.076019287 2.6542000771  -999.250000  -999.250000 7.2473998070
 2916.2500000 12.468700409 -0.077200003 0.0816999972 2.5788578987 12.787199974 62.700698853 2.5104000568  -999.250000  -999.250000 7.1978001595
 2916.3750000 12.468700409 -0.097300000 0.0719000027 2.5611004829 12.850199699 63.653762817 2.4202001095  -999.250000  -999.250000 7.2677998543
 2916.5000000 12.468700409 -0.096500002 0.0714000016 2.5533833504 12.223999977 63.787597656 2.3810999393  -999.250000  -999.250000 7.5553998947
 2916.6252441 12.468700409 -0.069100000 0.0599999987 2.5987215042 12.004500389 63.615882874 2.3921999931  -999.250000  -999.250000 7.9923000336
 2916.7502441 12.470398903 -0.079200000 0.0643000007 2.5771799088 14.263199806 62.327678680 2.4474999905  -999.250000  -999.250000 7.9970998764
 2916.8747559 12.517399788 -0.013100000 0.0604999997 2.6649260521 10.096799850 61.557449341 2.5267000198  -999.250000  -999.250000 7.1125998497
 2916.9997559 12.562500000 -0.011200000 0.0650999993 2.6663169861 12.348999977 60.939022064 2.6382000446  -999.250000  -999.250000 6.9366002083
 2917.1250000 12.562500000 -0.077200003 0.0644000024 2.6132717133 13.344300270 60.473297119 2.7853999138  -999.250000  -999.250000 7.5713000298
 2917.2500000 12.562500000 -0.064000003 0.0617999993 2.6363239288 12.508600235 60.205509186 2.9674000740  -999.250000  -999.250000 8.4808998108
 2917.3750000 12.564999580 -0.068999998 0.0610000007 2.5842576027 11.764900208 59.972232819 3.1942999363  -999.250000  -999.250000 8.6210002899
 2917.5000000 12.633700371 -0.066699997 0.0544000007 2.5647277832 11.939599991 60.259185791 3.4979000092  -999.250000  -999.250000 8.7459001541
 2917.6250000 12.657100677 0.0144999996 0.0509000011 2.6824927330 9.5255002975 60.055236816 3.8766000271  -999.250000  -999.250000 8.4591999054
 2917.7500000 12.682299614 0.0088999998 0.0414000005 2.6511139870 12.344200134 59.664112091 4.2677998543  -999.250000  -999.250000 8.0622997284
 2917.8750000 12.750000000 -0.010500000 0.0454999991 2.6519489288 15.406499863 59.099525452 4.5756998062  -999.250000  -999.250000 7.7287998199
 2918.0000000 12.746701241 0.0192000009 0.0337999985 2.6841287613 15.033300400 58.135974884 4.7614998817  -999.250000  -999.250000 7.3642997742
 2918.1250000 12.658699989 -0.003700000 0.0401999988 2.6726527214 13.560400009 57.353206635 4.8154001236  -999.250000  -999.250000 7.6581001282
 2918.2500000 12.723999023 0.0661000013 0.0276999995 2.7773127556 12.230099678 56.465892792 4.7628002167  -999.250000  -999.250000 8.1907997131
 2918.3750000 12.656300545 0.0419999994 0.0329999998 2.7333674431 13.194600105 56.294181824 4.6209998131  -999.250000  -999.250000 9.0720996857
 2918.5000000 12.656300545 0.0057000001 0.0395000018 2.6655263901 11.387999535 56.466636658 4.4203000069  -999.250000  -999.250000 8.0181999207
 2918.6250000 12.656300545 -0.028999999 0.0527999997 2.6296768188 10.850600243 56.658077240 4.1609001160  -999.250000  -999.250000 7.4767999649
 2918.7500000 12.656300545 -0.003000000 0.0533999987 2.6755390167 10.532600403 57.320560455 3.8650999069  -999.250000  -999.250000 7.5714998245
 2918.8750000 12.656300545 -0.009200000 0.0551999994 2.6838521957 13.260800362 58.602657318 3.5690999031  -999.250000  -999.250000 7.3140001297
 2919.0002441 12.656300545 -0.028200001 0.0509000011 2.6476354599 14.748900414 59.507984161 3.3067998886  -999.250000  -999.250000 6.7305002213
 2919.1252441 12.656300545 -0.060099997 0.0775000006 2.6184692383 12.232700348 60.608982086 3.0861001015  -999.250000  -999.250000 6.4307999611
 2919.2497559 12.656300545 -0.104300000 0.0820000023 2.5391545296 11.587200165 61.722743988 2.9365999699  -999.250000  -999.250000 6.5137000084
 2919.3750000 12.656300545 -0.092600003 0.0856999978 2.5526337624 11.484299660 62.339847565 2.8399000168  -999.250000  -999.250000 6.8326001167
 2919.5000000 12.659500122 -0.097900003 0.0685999990 2.5213079453 12.917699814 63.205898285 2.7853999138  -999.250000  -999.250000 6.8185000420
 2919.6250000 12.750000000 -0.034899998 0.0509999990 2.5943760872 15.442700386 63.750797272 2.8020000458  -999.250000  -999.250000 6.9116997719
 2919.7500000 12.750000000 -0.069300003 0.0544000007 2.5615863800 13.777600288 63.734325409 2.9098999500  -999.250000  -999.250000 7.1258001328
 2919.8750000 12.750000000 -0.062199999 0.0555999987 2.5742955208 13.760899544 63.130233765 3.0892999172  -999.250000  -999.250000 7.7554001808
 2920.0000000 12.753299713 -0.029999999 0.0540000014 2.6188740730 13.628600121 62.154182434 3.3203999996  -999.250000  -999.250000 7.8289999962
