# LAS format log file from PETREL
# Project units are specified as depth units
#==================================================================
~Version information
VERS.   2.0:
WRAP.   NO:
#==================================================================
~Well
STRT .m      873.00000000 :
STOP .m      3593.0000000 :
STEP .m     0.00000000 :
NULL .        -999.250000 :
COMP.           : COMPANY
WELL.  7/7-3 Brynhild Appr   : WELL
FLD.            : FIELD
LOC.            : LOCATION
SRVC.           : SERVICE COMPANY
DATE.  2018-09-11 21:49:23   : Log Export Date {yyyy-MM-dd HH:mm:ss}
PROV.           : PROVINCE
UWI.   7/7-3   : UNIQUE WELL ID
API.            : API NUMBER
#==================================================================
~Curve
DEPT .m                   : DEPTH
CALI .in                  : CALI
GR .gAPI                  : GR
RDEP .ohm.m               : RDEP
SP .mV                    : SP
RMED .ohm.m               : RMED
~Parameter
#==================================================================
~Ascii
# ...
 2158.1999512 18.260028839 170.07604980 0.6196516752 13.216619492 0.5951392651
 2158.3000488 18.216751099 170.04040527 0.6114766598 13.211570740 0.5937410593
 2158.3999023 18.178371429 168.87252808 0.6032620668 13.150602341 0.5888327360
 2158.5000000 18.155052185 167.72906494 0.5953383446 13.057542801 0.5831593275
 2158.6000977 18.147163391 166.65621948 0.5881898403 12.963081360 0.5797331333
 2158.6999512 18.147193909 166.34207153 0.5822460651 12.894412994 0.5800715685
 2158.8000488 18.147811890 166.19757080 0.5777622461 12.867069244 0.5835992098
 2158.9001465 18.147811890 166.19281006 0.5750491619 12.884212494 0.5884037018
 2159.0000000 18.147811890 165.84243774 0.5748676062 12.935712814 0.5926274061
 2159.1000977 18.147811890 165.39476013 0.5783395767 12.998573303 0.5957206488
 2159.2001953 18.147811890 164.84678650 0.5864533186 13.046865463 0.5984805822
 2159.3000488 18.147811890 164.74443054 0.5995225906 13.064521790 0.6022002697
 2159.3999023 18.147811890 165.09851074 0.6168295145 13.046854019 0.6079906225
 2159.5000000 18.147811890 166.01142883 0.6366379261 12.998683929 0.6165667772
 2159.6000977 18.147811890 167.36398315 0.6565593481 12.932723999 0.6283303499
 2159.6999512 18.147811890 168.51377869 0.6740782261 12.871120453 0.6429193020
 2159.8000488 18.147811890 169.29908752 0.6872848272 12.837030411 0.6580357552
 2159.8999023 18.147811890 168.81030273 0.6953783035 12.839677811 0.6690878868
 2160.0000000 18.147811890 167.39738464 0.6987947226 12.871925354 0.6709988117
 2160.1000977 18.147811890 164.60096741 0.6988137960 12.914348602 0.6613842249
 2160.1999512 18.147811890 160.84811401 0.6971743107 12.943254471 0.6425433159
 2160.3000488 18.147811890 156.98745728 0.6956748962 12.941802979 0.6211146116
 2160.4001465 18.149662018 153.38104248 0.6954627037 12.911176682 0.6054166555
 2160.5000000 18.158386230 151.15809631 0.6960488558 12.872913361 0.6015779972
 2160.5998535 18.177692413 149.91474915 0.6951193810 12.855686188 0.6106171608
 2160.6999512 18.206584930 150.42022705 0.6898581982 12.878246307 0.6281613111
 2160.8000488 18.240940094 152.11950684 0.6786142588 12.937471390 0.6466474533
 2160.8999023 18.276790619 154.39695740 0.6617649794 13.010139465 0.6590065956
 2161.0000000 18.308387756 157.21047974 0.6416548491 13.064291000 0.6614830494
 2161.1000977 18.328773499 159.67474365 0.6217298508 13.070318222 0.6545925140
 2161.1999512 18.331760406 161.77117920 0.6052303314 13.013290405 0.6421924829
 2161.3000488 18.313789368 162.79151917 0.5943658352 12.910003662 0.6296274662
 2161.4001465 18.275787354 163.03625488 0.5901541710 12.806392670 0.6216753721
 2161.5000000 18.223720551 162.78009033 0.5926380157 12.757196426 0.6207467318
 2161.6000977 18.168743134 162.11380005 0.6010352373 12.792556763 0.6263468266
 2161.6999512 18.134677887 161.74134827 0.6139216423 12.903306961 0.6355439425
 2161.8000488 18.150329590 161.62783813 0.6291165352 13.046865463 0.6444501877
 2161.8999023 18.220565796 162.30688477 0.6442081928 13.167951584 0.6502140760
 2162.0000000 18.318473816 163.29478455 0.6574628353 13.218976974 0.6524175406
 2162.1000977 18.402126312 164.54811096 0.6684157848 13.180238724 0.6531689167
 2162.1999512 18.434913635 165.59613037 0.6775387526 13.067413330 0.6565282345
 2162.3000488 18.401496887 166.17652893 0.6852355003 12.918313980 0.6662092209
 2162.4001465 18.315452576 166.25840759 0.6912226677 12.775133133 0.6826245785
 2162.5000000 18.210327148 165.45654297 0.6946308613 12.671751022 0.7017039061
 2162.6000977 18.121574402 164.29788208 0.6945511103 12.627523422 0.7163271904
 2162.7001953 18.069969177 162.72891235 0.6910526752 12.648679733 0.7195792198
 2162.8000488 18.054714203 160.82998657 0.6854770184 12.728109360 0.7083883286
 2162.8999023 18.060970306 158.92907715 0.6797484159 12.844728470 0.6850761175
 2163.0000000 18.079380035 157.06761169 0.6755335331 12.972146988 0.6559038162
 2163.1000977 18.107299805 155.89205933 0.6738337278 13.089374542 0.6278164387
 2163.1999512 18.140129089 155.43992615 0.6746331453 13.181116104 0.6055334806
 2163.3000488 18.172595978 156.17036438 0.6769297123 13.231567383 0.5903782845
 2163.3999023 18.202163696 157.87417603 0.6791199446 13.231885910 0.5812134743
 2163.5000000 18.228969574 159.71641541 0.6791701317 13.188352585 0.5763682127
 2163.6000977 18.255393982 161.36355591 0.6750452518 13.118818283 0.5739501715
 2163.6999512 18.284618378 161.94488525 0.6659450531 13.050491333 0.5713688135
 2163.8000488 18.318668365 161.86065674 0.6526790857 13.009628296 0.5658705235
 2163.9001465 18.360462189 160.70759583 0.6373251677 13.010787964 0.5558409691
 2164.0000000 18.420326233 159.26252747 0.6224033833 13.050258636 0.5420705080
 2164.0998535 18.514793396 157.79489136 0.6102735996 13.109970093 0.5276814699
 2164.1999512 18.657409668 156.68887329 0.6025397778 13.166011810 0.5169150829
 2164.3000488 18.844623566 155.84471130 0.5996817350 13.198406219 0.5133324862
 2164.3999023 19.044059753 155.08439636 0.6008384228 13.196123123 0.5182645321
 2164.5000000 19.209426880 154.06471252 0.6041908264 13.156358719 0.5302089453
 2164.6000977 19.301792145 152.64553833 0.6079329252 13.083629608 0.5454311371
 2164.6999512 19.306026459 151.01292419 0.6110606194 12.994071960 0.5595691204
 2164.8000488 19.237098694 149.55479431 0.6133767366 12.909650803 0.5695856810
 2164.9001465 19.129985809 149.22554016 0.6155778170 12.846168518 0.5750106573
 2165.0000000 19.011966705 149.80642700 0.6189087629 12.808429718 0.5784506798
 2165.1000977 18.891616821 152.07312012 0.6242305040 12.792104721 0.5836303234
 2165.1999512 18.762397766 154.30870056 0.6311532259 12.787689209 0.5919971466
 2165.3000488 18.618179321 156.51434326 0.6379408836 12.782930374 0.6011394262
 2165.3999023 18.462730408 156.99754333 0.6424926519 12.771301270 0.6056883335
 2165.5000000 18.315654755 156.26101685 0.6436456442 12.752634048 0.6007381678
 2165.6000977 18.199337006 154.21725464 0.6417038441 12.728706360 0.5854989290
 2165.6999512 18.131160736 151.22698975 0.6382709742 12.704683304 0.5646417141
 2165.8000488 18.124523163 148.55722046 0.6354891062 12.689479828 0.5458554029
 2165.9001465 18.187957764 146.36857605 0.6344511509 12.695753098 0.5353913307
 2166.0000000 18.326412201 145.65646362 0.6347131729 12.731172562 0.5348310471
 2166.1000977 18.538715363 145.85037231 0.6345213652 12.788883209 0.5414220095
 2166.1999512 18.795715332 147.24916077 0.6319515705 12.844131470 0.5516172647
 2166.3000488 19.047195435 149.20954895 0.6261502504 12.865093231 0.5641428232
 2166.3999023 19.238494873 150.98602295 0.6177568436 12.827915192 0.5794512033
 2166.5000000 19.320987701 152.23718262 0.6082370281 12.729328156 0.5976003408
 2166.5998535 19.273445129 152.77471924 0.5989143848 12.593408585 0.6159988642
 2166.6999512 19.112586975 153.04487610 0.5907422304 12.461622238 0.6293902397
 2166.8000488 18.885772705 153.05551147 0.5850789547 12.369064331 0.6344052553
 2166.8999023 18.652877808 152.94644165 0.5835767984 12.335996628 0.6330857277
 2167.0000000 18.465301514 152.69076538 0.5880172253 12.359815598 0.6317222118
 2167.1000977 18.348304749 152.09094238 0.5991289616 12.419540405 0.6367874146
 2167.1999512 18.298931122 151.34411621 0.6157377958 12.490406036 0.6505398750
 2167.3000488 18.303894043 150.70103455 0.6350207329 12.554204941 0.6693581343
 2167.4001465 18.345813751 150.73348999 0.6533786058 12.595506668 0.6864223480
 2167.5000000 18.402595520 151.81163025 0.6674991846 12.601669312 0.6961342096
 2167.5998535 18.459407806 153.56062317 0.6754410267 12.571592331 0.6968502998
 2167.6999512 18.505069733 156.27305603 0.6771427393 12.509269714 0.6911263466
 2167.8000488 18.530292511 159.04928589 0.6740980148 12.424175262 0.6835139990
 2167.8999023 18.531703949 161.78565979 0.6684401035 12.332008362 0.6767045259
 2168.0000000 18.512592316 163.86503601 0.6628911495 12.251066208 0.6703224182
 2168.1000977 18.482227325 165.20986938 0.6605901718 12.203908920 0.6634922028
 2168.1999512 18.451194763 165.97399902 0.6640455723 12.215793610 0.6565188169
 2168.3000488 18.426177979 166.01507568 0.6738111973 12.296979904 0.6508256197
