# LAS format log file from PETREL
# Project units are specified as depth units
#==================================================================
~Version information
VERS.   2.0:
WRAP.   NO:
#==================================================================
~Well
STRT .m      873.00000000 :
STOP .m      3593.0000000 :
STEP .m     0.00000000 :
NULL .        -999.250000 :
COMP.           : COMPANY
WELL.  7/7-3 Brynhild Appr   : WELL
FLD.            : FIELD
LOC.            : LOCATION
SRVC.           : SERVICE COMPANY
DATE.  2018-09-11 21:49:23   : Log Export Date {yyyy-MM-dd HH:mm:ss}
PROV.           : PROVINCE
UWI.   7/7-3   : UNIQUE WELL ID
API.            : API NUMBER
#==================================================================
~Curve
DEPT .m                   : DEPTH
CALI .in                  : CALI
GR .gAPI                  : GR
RDEP .ohm.m               : RDEP
SP .mV                    : SP
RMED .ohm.m               : RMED
~Parameter
#==================================================================
~Ascii
# ...
 2331.6000977 18.252285004 135.81379700 0.4218118191 9.8457775116 0.4181336164
 2331.6999512 18.252285004 135.52467346 0.4139479399 9.7151393890 0.4151521921
 2331.8000488 18.252285004 135.20361328 0.4067761898 9.6004714966 0.4123383164
 2331.8999023 18.252285004 134.83557129 0.4007706642 9.5278625488 0.4096336961
 2332.0000000 18.252285004 134.36064148 0.3962472081 9.5051441193 0.4070589542
 2332.1000977 18.252285004 133.62245178 0.3934050202 9.5302162170 0.4047110081
 2332.1999512 18.252285004 132.70889282 0.3924112320 9.5952014923 0.4027534723
 2332.3000488 18.252285004 131.48152161 0.3934603333 9.6846847534 0.4014558792
 2332.4001465 18.252285004 130.35951233 0.3966841102 9.7791957855 0.4012834430
 2332.5000000 18.252285004 129.42021179 0.4019162655 9.8501453400 0.4028424025
 2332.6000977 18.252285004 129.10359192 0.4085422158 9.8679828644 0.4066467285
 2332.7001953 18.252285004 129.34970093 0.4156113267 9.8147602081 0.4128071666
 2332.8000488 18.252285004 129.91250610 0.4221448898 9.7025718689 0.4207444191
 2332.8999023 18.252285004 130.63021851 0.4274609089 9.5811576843 0.4291055202
 2333.0000000 18.252285004 130.80664063 0.4313217402 9.5163326263 0.4361192584
 2333.1000977 18.252902985 130.55133057 0.4338696003 9.5473480225 0.4403083920
 2333.1999512 18.256633759 129.44735718 0.4354349375 9.6611976624 0.4410747290
 2333.3000488 18.265579224 128.41925049 0.4363023043 9.8036460876 0.4388422966
 2333.4001465 18.277145386 127.49659729 0.4364894629 9.9065742493 0.4346939325
 2333.5000000 18.285137177 127.71471405 0.4357097149 9.9169101715 0.4297474623
 2333.6000977 18.282852173 128.80577087 0.4335588217 9.8256950378 0.4247136116
 2333.6999512 18.266834259 130.73115540 0.4297593236 9.6691761017 0.4198292494
 2333.8000488 18.239089966 133.01577759 0.4243388772 9.5093154907 0.4150387645
 2333.9001465 18.206584930 134.51412964 0.4177044034 9.4024581909 0.4102845192
 2334.0000000 18.177692413 135.09452820 0.4105547667 9.3670139313 0.4057214856
 2334.0998535 18.158386230 133.92712402 0.4036906362 9.3896465302 0.4016847014
 2334.1999512 18.149658203 132.31709290 0.3978327513 9.4443206787 0.3984686136
 2334.3000488 18.147811890 130.24258423 0.3934915662 9.5007152557 0.3962275386
 2334.3999023 18.147811890 128.85948181 0.3909749985 9.5316562653 0.3950222135
 2334.5000000 18.147811890 128.17808533 0.3904832602 9.5251407623 0.3948938251
 2334.6000977 18.147811890 128.57139587 0.3921321034 9.4872684479 0.3959404230
 2334.6999512 18.147811890 129.78239441 0.3959255219 9.4333515167 0.3983904719
 2334.8000488 18.147811890 131.17654419 0.4018217921 9.3844490051 0.4025797844
 2334.9001465 18.147811890 132.63092041 0.4097583294 9.3667201996 0.4087834954
 2335.0000000 18.147811890 133.81677246 0.4195339680 9.4014816284 0.4170016646
 2335.1000977 18.147811890 134.80184937 0.4306916595 9.4937610626 0.4268676639
 2335.1999512 18.147811890 135.42176819 0.4425444007 9.6291580200 0.4376437664
 2335.3000488 18.147811890 135.48393250 0.4543191791 9.7837219238 0.4483353496
 2335.3999023 18.147811890 135.15954590 0.4653486609 9.9298076630 0.4579248428
 2335.5000000 18.147811890 134.14511108 0.4752181172 10.041801453 0.4656576514
 2335.6000977 18.147811890 132.95143127 0.4838213921 10.102100372 0.4712652564
 2335.6999512 18.147811890 131.79548645 0.4914466739 10.115022659 0.4750227928
 2335.8000488 18.147811890 131.17286682 0.4988070130 10.109348297 0.4776961803
 2335.9001465 18.147811890 131.01145935 0.5065573454 10.122905731 0.4805123210
 2336.0000000 18.148426056 131.07337952 0.5146687031 10.181749344 0.4848690629
 2336.1000977 18.151538849 130.97386169 0.5223950148 10.289964676 0.4916376472
 2336.2001953 18.159217834 130.26866150 0.5285981894 10.428153992 0.5002989769
 2336.3000488 18.172447205 129.11260986 0.5321819782 10.561391830 0.5087075233
 2336.3999023 18.190250397 127.32212830 0.5324758291 10.649839401 0.5139998198
 2336.5000000 18.209842682 125.72315216 0.5295302868 10.667407990 0.5140043497
 2336.6000977 18.227649689 124.31394958 0.5241334438 10.614210129 0.5083420277
 2336.6999512 18.240875244 123.87818909 0.5174823999 10.510499954 0.4985579848
 2336.8000488 18.248554230 124.15366364 0.5105963945 10.384181976 0.4871699214
 2336.8999023 18.251670837 125.12529755 0.5038111210 10.252481461 0.4762444496
 2337.0000000 18.252285004 127.07106781 0.4968282580 10.123746872 0.4665228128
 2337.1000977 18.252285004 129.18286133 0.4890908599 9.9995250702 0.4575873613
 2337.1999512 18.252285004 131.46231079 0.4800169468 9.8820514679 0.4487945437
 2337.3000488 18.252285004 133.11654663 0.4693064094 9.7790966034 0.4400551915
 2337.4001465 18.252285004 134.03091431 0.4572712183 9.7036571503 0.4318917394
 2337.5000000 18.252285004 133.94381714 0.4448044896 9.6679801941 0.4248468280
 2337.5998535 18.252285004 132.84292603 0.4330272079 9.6807670593 0.4190294743
 2337.6999512 18.252285004 131.65940857 0.4228478074 9.7360038757 0.4141510725
 2337.8000488 18.252285004 130.56790161 0.4146939516 9.8090515137 0.4098530412
 2337.8999023 18.252285004 130.33865356 0.4085159898 9.8665676117 0.4060149193
 2338.0000000 18.252285004 130.50598145 0.4040096998 9.8811492920 0.4028087854
 2338.1000977 18.252285004 131.17720032 0.4007917643 9.8436050415 0.4004134536
 2338.1999512 18.252285004 131.48037720 0.3985145092 9.7644920349 0.3987779021
 2338.3000488 18.252285004 131.39927673 0.3968864083 9.6627464294 0.3976589441
 2338.4001465 18.252285004 130.52499390 0.3956586719 9.5564136505 0.3968014717
 2338.5000000 18.252285004 129.42822266 0.3946786523 9.4641952515 0.3960898519
 2338.6000977 18.252285004 128.41241455 0.3939589858 9.4036045074 0.3955606222
 2338.6999512 18.252285004 127.97167969 0.3936626315 9.3804950714 0.3953477144
 2338.8000488 18.252285004 128.23081970 0.3939896226 9.3929901123 0.3956376910
 2338.8999023 18.252285004 128.86914063 0.3951004148 9.4351444244 0.3965921402
 2339.0000000 18.252285004 129.85281372 0.3970595002 9.4971637726 0.3982906342
 2339.1000977 18.252285004 130.58316040 0.3997603059 9.5644054413 0.4006904960
 2339.1999512 18.252285004 131.11279297 0.4029217362 9.6185417175 0.4036080837
 2339.3000488 18.252285004 131.20698547 0.4061694741 9.6410293579 0.4067174792
 2339.4001465 18.252285004 131.20042419 0.4091489315 9.6246051788 0.4095995426
 2339.5000000 18.252285004 131.12268066 0.4116109014 9.5738353729 0.4118201733
 2339.6000977 18.252285004 131.00067139 0.4134469628 9.5055446625 0.4130393267
 2339.7001953 18.252285004 130.65159607 0.4146730900 9.4461746216 0.4131132960
 2339.8000488 18.252285004 130.10609436 0.4154018760 9.4263343811 0.4121368527
 2339.8999023 18.252285004 129.09426880 0.4158335328 9.4652938843 0.4104298353
 2340.0000000 18.252285004 128.07716370 0.4162631035 9.5558509827 0.4085164666
 2340.1000977 18.252285004 127.05728149 0.4171419144 9.6662979126 0.4070758224
 2340.1999512 18.252285004 126.54624176 0.4191407561 9.7559261322 0.4068359137
 2340.3000488 18.252285004 126.33540344 0.4230291247 9.7953853607 0.4084228277
 2340.3999023 18.252285004 126.47351074 0.4293262959 9.7784881592 0.4122136235
 2340.5000000 18.252285004 126.64778900 0.4379144907 9.7221298218 0.4182316065
 2340.6000977 18.252285004 126.55852509 0.4479059577 9.6551208496 0.4260926843
 2340.6999512 18.252285004 126.08297729 0.4578751326 9.6015586853 0.4349763989
 2340.8000488 18.252285004 125.22462463 0.4663676023 9.5678100586 0.4436964989
 2340.9001465 18.252285004 124.36868286 0.4724403024 9.5460777283 0.4510097504
 2341.0000000 18.252285004 123.61157990 0.4759736061 9.5200901031 0.4560192823
 2341.0998535 18.252285004 123.07022095 0.4776383042 9.4731521606 0.4584175944
 2341.1999512 18.252285004 122.58876801 0.4784229994 9.4008712769 0.4584292769
 2341.3000488 18.252285004 122.14767456 0.4789083004 9.3202342987 0.4565176368
 2341.3999023 18.252285004 121.98180389 0.4788684845 9.2616081238 0.4530938864
 2341.5000000 18.252285004 122.15414429 0.4774608612 9.2580089569 0.4483797550
 2341.6000977 18.252285004 123.07205200 0.4737156034 9.3273715973 0.4424406290
 2341.6999512 18.252285004 124.75679779 0.4670556784 9.4587669373 0.4354118109
