# LAS format log file from PETREL
# Project units are specified as depth units
#==================================================================
~Version information
VERS.   2.0:
WRAP.   NO:
#==================================================================
~Well
STRT .m      513.13079834 :
STOP .m      3511.9055176 :
STEP .m     0.00000000 :
NULL .        -999.250000 :
COMP.           : COMPANY
WELL.  7/7-1   : WELL
FLD.            : FIELD
LOC.            : LOCATION
SRVC.           : SERVICE COMPANY
DATE.  2018-09-11 21:49:22   : Log Export Date {yyyy-MM-dd HH:mm:ss}
PROV.           : PROVINCE
UWI.   7/7-1   : UNIQUE WELL ID
API.            : API NUMBER
#==================================================================
~Curve
DEPT .m                   : DEPTH
CALI .in                  : CALI
DRHO .g/cm3               : DRHO
NPHI .m3/m3               : NPHI
RHOB .g/cm3               : RHOB
GR .gAPI                  : GR
DTC .us/ft                : DTC
RDEP .ohm.m               : RDEP
SP .mV                    : SP
RSHA .ohm.m               : RSHA
RMIC .ohm.m               : RMIC
RMED .ohm.m               : RMED
~Parameter
#==================================================================
~Ascii
# ...
 2122.0175781 17.965999603 0.0114799999  -999.250000 2.2662160397 49.889099121 127.80332947 0.8009999990 27.949199677 0.8758999705  -999.250000 0.7804999948
 2122.1699219 18.015600204 0.0169043075  -999.250000 2.2689738274 48.176246643 127.29678345 0.7923139334 27.119031906 0.8702999949  -999.250000 0.7760999799
 2122.3222656 18.065099716 0.0223372933  -999.250000 2.2748043537 46.460750580 126.07445526 0.7837137580 26.287633896 0.8647000194  -999.250000 0.7717000246
 2122.4746094 18.114599228 0.0277702939  -999.250000 2.2886674404 44.745151520 124.92015839 0.7750139236 25.456233978 0.8590999842  -999.250000 0.7673000097
 2122.6271973 18.132499695 0.0249279998  -999.250000 2.3047716618 44.133998871 124.30403900 0.7741000056 25.963600159 0.8550000191  -999.250000 0.7677000165
 2122.7795410 18.144100189 0.0204441864  -999.250000 2.3089938164 43.745719910 124.81327057 0.7746990323 26.736562729 0.8511999846  -999.250000 0.7691000104
 2122.9318848 18.155700684 0.0159521997  -999.250000 2.3052105904 43.356719971 125.17778015 0.7752990723 27.510759354 0.8474000096  -999.250000 0.7703999877
 2123.0842285 18.165800095 0.0135678155  -999.250000 2.2987275124 43.335636139 124.81543732 0.7735028863 27.320306778 0.8461999893  -999.250000 0.7702000141
 2123.2368164 18.174600601 0.0128830001  -999.250000 2.2971408367 43.611999512 125.80995941 0.7695999742 26.349399567 0.8471999764  -999.250000 0.7688000202
 2123.3891602 18.183500290 0.0122020002  -999.250000 2.2969200611 43.888401031 127.08797455 0.7656999826 25.378799438 0.8482000232  -999.250000 0.7674000263
 2123.5415039 18.196899414 0.0144344224  -999.250000 2.2936153412 43.885105133 126.62232971 0.7650011182 25.046632767 0.8489000201  -999.250000 0.7663000226
 2123.6938477 18.222499847 0.0244269669  -999.250000 2.2828421593 43.138298035 125.89328003 0.7724879384 26.410011292 0.8489000201  -999.250000 0.7657999992
 2123.8464355 18.247999191 0.0344480015  -999.250000 2.2743208408 42.389099121 125.51297760 0.7799999714 27.778400421 0.8489000201  -999.250000 0.7652999759
 2123.9987793 18.273599625 0.0444529988  -999.250000 2.2777762413 41.641201019 126.17296600 0.7875000238 29.144500732 0.8488000035  -999.250000 0.7649000287
 2124.1511230 18.281000137 0.0525659993  -999.250000 2.2897384167 42.715377808 126.28108215 0.8281348348 28.262212753 0.8580999970  -999.250000 0.8231999874
 2124.3034668 18.288200378 0.0606760010  -999.250000 2.2983820438 43.805850983 127.25777435 0.8691343069 27.360645294 0.8673999906  -999.250000 0.8820000291
 2124.4560547 18.295400620 0.0688000023  -999.250000 2.3032975197 44.897998810 128.69604492 0.9101999998 26.457599640 0.8766999841  -999.250000 0.9408000112
 2124.6083984 18.230300903 0.0252659991  -999.250000 2.3842391968 41.709400177 127.15614319 0.9211000204 26.864999771 1.0363999605  -999.250000 0.9315999746
 2124.7607422 18.135799408 -0.039127804  -999.250000 2.6313807964 36.791782379 121.25935364 0.9197022915 27.802198410 1.2572000027  -999.250000 0.8946999907
 2124.9130859 18.041299820 -0.103625640  -999.250000 2.8186635971 31.866292953 110.18854523 0.9183022380 28.740894318 1.4779000282  -999.250000 0.8578000069
 2125.0654297 17.973400116 -0.120167620  -999.250000 2.6410107613 30.465435028 98.989471436 0.9094142318 29.010868073 1.5032999516  -999.250000 0.8309999704
 2125.2180176 17.940900803 -0.073104002  -999.250000 2.3063108921 33.739398956 97.311866760 0.8906000257 28.393899918 1.2702000141  -999.250000 0.8173999786
 2125.3703613 17.908399582 -0.026089344  -999.250000 2.1934227943 37.010257721 109.42530823 0.8718301058 27.777488708 1.0370999575  -999.250000 0.8039000034
 2125.5227051 17.879499435 0.0148394248  -999.250000 2.2232093811 40.006202698 125.47438049 0.8524311185 27.277700424 0.8406999707  -999.250000 0.7919999957
 2125.6750488 17.870800018 0.0207366403  -999.250000 2.2401404381 41.408458710 131.12127686 0.8301357627 27.446327209 0.8525999784  -999.250000 0.7894999981
 2125.8276367 17.862100601 0.0265880004  -999.250000 2.2340703011 42.810398102 130.36564636 0.8079000115 27.616399765 0.8644999862  -999.250000 0.7870000005
 2125.9799805 17.853399277 0.0324289985  -999.250000 2.2320020199 44.210201263 129.11746216 0.7856000066 27.786100388 0.8765000105  -999.250000 0.7845000029
 2126.1323242 17.853000641 0.0270955469  -999.250000 2.2251651287 44.667568207 127.19947052 0.7928883433 27.881647110 0.8780999780  -999.250000 0.7882000208
 2126.2846680 17.853799820 0.0200662687  -999.250000 2.2348897457 44.983592987 124.86283112 0.8045812249 27.966163635 0.8780999780  -999.250000 0.7929000258
 2126.4372559 17.854700089 0.0130220000  -999.250000 2.2520866394 45.299900055 123.48792267 0.8163999915 28.050800323 0.8781999946  -999.250000 0.7975000143
 2126.5895996 17.865200043 0.0122010000  -999.250000 2.2538995743 45.426700592 122.81484222 0.8227999806 28.062400818 0.8798000216  -999.250000 0.8005999923
 2126.7419434 17.882600784 0.0157273486  -999.250000 2.2547028065 45.420906067 122.68935394 0.8253958225 28.022962570 0.8823999763  -999.250000 0.8026000261
 2126.8942871 17.899999619 0.0192603376  -999.250000 2.2686715126 45.415206909 123.38433838 0.8279958367 27.983362198 0.8849999905  -999.250000 0.8047000170
 2127.0466309 17.924499512 0.0219307225  -999.250000 2.2853910923 45.259647369 124.28101349 0.8320934176 27.997577667 0.8895999789  -999.250000 0.8082000017
 2127.1992188 17.965400696 0.0226559993  -999.250000 2.2995831966 44.764999390 124.50039673 0.8393999934 28.133699417 0.8986999989  -999.250000 0.8149999976
 2127.3515625 18.006299973 0.0233758464  -999.250000 2.3086624146 44.271488190 124.46471405 0.8467881680 28.269481659 0.9078000188  -999.250000 0.8217999935
 2127.5039063 18.046400070 0.0240529161  -999.250000 2.3109962940 43.824516296 123.98347473 0.8549869061 28.398393631 0.9165999889  -999.250000 0.8294000030
 2127.6562500 18.060199738 0.0230935421  -999.250000 2.3095686436 45.137191772 123.05027771 0.8968328238 28.263418198 0.9179000258  -999.250000 0.8658000231
 2127.8088379 18.073900223 0.0221289992  -999.250000 2.3053822517 46.454700470 122.86988831 0.9388999939 28.127700806 0.9190999866  -999.250000 0.9021999836
 2127.9611816 18.087699890 0.0211660005  -999.250000 2.2980742455 47.770099640 123.35015869 0.9807999730 27.992300034 0.9203000069  -999.250000 0.9386000037
 2128.1135254 18.084100723 0.0245545711  -999.250000 2.3003680706 47.504428864 123.66603088 1.0011672974 28.284530640 0.9596999884  -999.250000 0.9538000226
 2128.2658691 18.074600220 0.0294331796  -999.250000 2.3432052135 46.698993683 121.38000488 1.0141791105 28.723297119 1.0119999647  -999.250000 0.9618999958
 2128.4184570 18.065099716 0.0343220010  -999.250000 2.4196021557 45.891300201 115.18323517 1.0270999670 29.162900925 1.0642999411  -999.250000 0.9699000120
 2128.5708008 18.088699341 0.0361380018  -999.250000 2.4465041161 45.476501465 109.42699432 1.0462000370 29.433599472 1.0758999586  -999.250000 0.9779999852
 2128.7231445 18.150199890 0.0344237462  -999.250000 2.3949778080 45.512844086 106.93208313 1.0721583366 29.510278702 1.0405999422  -999.250000 0.9861000180
 2128.8754883 18.211799622 0.0327077508  -999.250000 2.3296256065 45.549243927 107.49082947 1.0980584621 29.587076187 1.0052000284  -999.250000 0.9941999912
 2129.0278320 18.253999710 0.0318833180  -999.250000 2.3100283146 45.965930939 112.59499359 1.1181677580 29.663778305 0.9803000093  -999.250000 1.0022000074
 2129.1804199 18.209999084 0.0350299999  -999.250000 2.3095905781 48.076301575 118.47473907 1.1117000580 29.740400314 1.0016000271  -999.250000 1.0091999769
 2129.3327637 18.166099548 0.0381719619  -999.250000 2.3058621883 50.182723999 120.43007660 1.1052104235 29.816778183 1.0230000019  -999.250000 1.0161000490
 2129.4851074 18.122200012 0.0413199551  -999.250000 2.3048474789 52.292419434 120.15386963 1.0988101959 29.893377304 1.0442999601  -999.250000 1.0231000185
 2129.6374512 18.151100159 0.0312222168  -999.250000 2.3163113594 52.388751984 118.84279633 1.0844231844 29.743041992 1.0411000252  -999.250000 1.0032999516
