# LAS format log file from PETREL
# Project units are specified as depth units
#==================================================================
~Version information
VERS.   2.0:
WRAP.   NO:
#==================================================================
~Well
STRT .m      873.00000000 :
STOP .m      3593.0000000 :
STEP .m     0.00000000 :
NULL .        -999.250000 :
COMP.           : COMPANY
WELL.  7/7-3 Brynhild Appr   : WELL
FLD.            : FIELD
LOC.            : LOCATION
SRVC.           : SERVICE COMPANY
DATE.  2018-09-11 21:49:23   : Log Export Date {yyyy-MM-dd HH:mm:ss}
PROV.           : PROVINCE
UWI.   7/7-3   : UNIQUE WELL ID
API.            : API NUMBER
#==================================================================
~Curve
DEPT .m                   : DEPTH
CALI .in                  : CALI
GR .gAPI                  : GR
RDEP .ohm.m               : RDEP
SP .mV                    : SP
RMED .ohm.m               : RMED
~Parameter
#==================================================================
~Ascii
# ...
 3045.6000977 11.782369614 25.008619308 0.8926019669 -16.82431412 1.1653392315
 3045.7001953 11.787340164 25.416318893 0.8561846018 -16.50886536 1.1308157444
 3045.8000488 11.792650223 25.714548111 0.8212206364 -16.45441055 1.0962848663
 3045.9001465 11.797020912 26.003849030 0.7893215418 -16.66135788 1.0627098083
 3046.0000000 11.799411774 26.308080673 0.7614014149 -17.02663422 1.0315012932
 3046.0998535 11.800001144 26.782131195 0.7375332117 -17.41683197 1.0039689541
 3046.1999512 11.800001144 27.292112350 0.7171852589 -17.75944138 0.9812653065
 3046.3000488 11.800001144 27.788711548 0.6996796131 -18.07608795 0.9643664360
 3046.3999023 11.800001144 27.872100830 0.6846460104 -18.44263458 0.9537296295
 3046.5000000 11.800001144 27.643253326 0.6721737385 -18.94436264 0.9492605925
 3046.5998535 11.800001144 26.830490112 0.6626826525 -19.62281036 0.9503022432
 3046.6999512 11.800001144 25.838905334 0.6564172506 -20.42698288 0.9557354450
 3046.8000488 11.800001144 24.848474503 0.6533013582 -21.21858597 0.9643511772
 3046.8999023 11.800001144 24.168773651 0.6530810595 -21.84881592 0.9752213955
 3047.0000000 11.800001144 23.852636337 0.6553711891 -22.21861267 0.9877642393
 3047.1000977 11.800001144 23.799497604 0.6597710848 -22.29546356 1.0018074512
 3047.1999512 11.800001144 24.219575882 0.6663278341 -22.09049606 1.0174424648
 3047.3000488 11.800001144 24.756898880 0.6758428812 -21.64882660 1.0350527763
 3047.4001465 11.800001144 25.350854874 0.6890615225 -21.04104614 1.0553696156
 3047.5000000 11.800001144 25.803443909 0.7068762779 -20.34486771 1.0795123577
 3047.6000977 11.800001144 26.006673813 0.7309502363 -19.61449051 1.1089167595
 3047.7001953 11.800001144 25.992507935 0.7622692585 -18.89136124 1.1452901363
 3047.8000488 11.800001144 25.413944244 0.8004475832 -18.21603775 1.1904048920
 3047.9001465 11.800001144 24.789972305 0.8442651033 -17.60860062 1.2458937168
 3048.0002441 11.800592422 24.126100540 0.8924460411 -17.03498459 1.3168437481
 3048.1000977 11.803570747 23.848451614 0.9447805882 -16.41514969 1.4145483971
 3048.2001953 11.810923576 23.794155121 1.0031893253 -15.64239693 1.5482316017
 3048.3002930 11.823583603 23.986869812 1.0716655254 -14.61040497 1.7232582569
 3048.3999023 11.840625763 24.469081879 1.1555235386 -13.25998497 1.9439377785
 3048.5000000 11.859376907 24.917932510 1.2611651421 -11.63189125 2.2062835693
 3048.5998535 11.876419067 25.298727036 1.3951232433 -9.855527878 2.4955639839
 3048.6999512 11.889080048 25.418979645 1.5638394356 -8.101867676 2.7905545235
 3048.8000488 11.896430969 25.486852646 1.7736287117 -6.521102905 3.0691971779
 3048.8999023 11.899410248 25.516283035 2.0248332024 -5.219769478 3.3143081665
 3049.0000000 11.900001526 25.722578049 2.3102622032 -4.255408287 3.5176248550
 3049.1000977 11.900001526 25.977708817 2.6167201996 -3.627509594 3.6785573959
 3049.1999512 11.900001526 26.269449234 2.9288573265 -3.281153202 3.7998476028
 3049.3000488 11.900001526 26.201978683 3.2325077057 -3.158176899 3.8879890442
 3049.3999023 11.900001526 25.873645782 3.5180082321 -3.230041981 3.9501357079
 3049.5000000 11.900001526 25.095172882 3.7789788246 -3.496345997 3.9888672829
 3049.6000977 11.900001526 24.242038727 4.0097255707 -3.959089994 4.0103511810
 3049.6999512 11.900001526 23.562492371 4.2052469254 -4.600923538 4.0267257690
 3049.8000488 11.900001526 23.519325256 4.3623971939 -5.354006767 4.0505867004
 3049.9001465 11.900001526 24.077211380 4.4808807373 -6.104089737 4.0910577774
 3050.0000000 11.900001526 24.877967834 4.5681972504 -6.721202850 4.1517257690
 3050.1000977 11.900001526 25.689163208 4.6368122101 -7.132493973 4.2300491333
 3050.2001953 11.900001526 25.941408157 4.6976051331 -7.364218712 4.3188323975
 3050.3000488 11.900001526 25.756872177 4.7560520172 -7.506484985 4.4081506729
 3050.4001465 11.900001526 24.623065948 4.8110437393 -7.632414818 4.4872207642
 3050.5002441 11.899410248 23.391323090 4.8552322388 -7.776340485 4.5463027954
 3050.6000977 11.896430969 22.167381287 4.8780860901 -7.934871197 4.5784339905
 3050.6999512 11.889080048 21.601203918 4.8697948456 -8.085872650 4.5805521011
 3050.7998047 11.876419067 21.372901917 4.8233079910 -8.221136093 4.5542745590
 3050.8999023 11.859376907 21.416959763 4.7381725311 -8.384668350 4.5034818649
 3051.0000000 11.840625763 21.736745834 4.6212320328 -8.647336960 4.4317197800
 3051.0998535 11.823583603 22.056772232 4.4833002090 -9.046670914 4.3415203094
 3051.1999512 11.810923576 22.378530502 4.3351974487 -9.542613983 4.2353029251
 3051.3000488 11.803570747 22.788101196 4.1855030060 -10.02973557 4.1172590256
 3051.3999023 11.800590515 23.258914948 4.0392341614 -10.37981224 3.9946622849
 3051.5000000 11.800001144 23.800916672 3.8981318474 -10.48857498 3.8770842552
 3051.6000977 11.800001144 24.417036057 3.7624034882 -10.29729652 3.7733483315
 3051.6999512 11.800001144 24.955610275 3.6323742867 -9.816946030 3.6884279251
 3051.8000488 11.800001144 25.385784149 3.5090379715 -9.136728287 3.6218776703
 3051.9001465 11.800001144 25.453655243 3.3934478760 -8.405239105 3.5687913895
 3052.0000000 11.800001144 25.370958328 3.2833290100 -7.789492607 3.5222492218
 3052.1000977 11.800001144 25.103145599 3.1759428978 -7.435327530 3.4758596420
 3052.2001953 11.800001144 24.706245422 3.0712728500 -7.435364723 3.4253754616
 3052.3000488 11.800001144 24.257205963 2.9714159966 -7.795862198 3.3693900108
 3052.4001465 11.800001144 23.744113922 2.8778042793 -8.431886673 3.3091673851
 3052.5000000 11.800001144 23.184768677 2.7912211418 -9.220365524 3.2477068901
 3052.6000977 11.800001144 22.649068832 2.7118091583 -10.05491829 3.1885085106
 3052.7001953 11.800001144 22.208385468 2.6401343346 -10.86640930 3.1347427368
 3052.8000488 11.800001144 21.982301712 2.5777211189 -11.61859131 3.0883402824
 3052.9001465 11.800001144 21.878559113 2.5267305374 -12.30649567 3.0502066612
 3053.0000000 11.800001144 21.952426910 2.4881858826 -12.92785645 3.0206522942
 3053.0998535 11.800001144 22.019256592 2.4618725777 -13.45827866 2.9996943474
 3053.1999512 11.800001144 22.079147339 2.4449319839 -13.84554672 2.9873070717
 3053.2998047 11.800592422 22.120309830 2.4329166412 -14.02075577 2.9829850197
 3053.3999023 11.803570747 22.314004898 2.4229469299 -13.92751503 2.9853425026
 3053.5000000 11.810923576 22.662124634 2.4158067703 -13.57433510 2.9921131134
 3053.5998535 11.823583603 23.489234924 2.4139509201 -13.02500153 3.0011334419
 3053.6999512 11.840625763 24.460315704 2.4194898605 -12.37163734 3.0121903419
 3053.8000488 11.859376907 25.491870880 2.4337401390 -11.69456673 3.0282349586
 3053.8999023 11.876419067 26.206148148 2.4576454163 -11.04037476 3.0560441017
 3054.0000000 11.889080048 26.503618240 2.4928221703 -10.40106583 3.1055188179
 3054.1000977 11.896430969 26.428400040 2.5419282913 -9.750205994 3.1871175766
 3054.1999512 11.899410248 25.244857788 2.6089863777 -9.079809189 3.3088135719
 3054.3000488 11.900001526 23.889551163 2.7004966736 -8.393758774 3.4742460251
 3054.4001465 11.900001526 22.374980927 2.8259158134 -7.665016174 3.6820440292
 3054.5000000 11.900001526 21.373325348 2.9966907501 -6.849949837 3.9251699448
 3054.6000977 11.900001526 20.694862366 3.2216691971 -5.917057037 4.1913814545
 3054.7001953 11.900001526 20.385456085 3.4980754852 -4.866628647 4.4652433395
 3054.8000488 11.900001526 20.527015686 3.8087973595 -3.758452892 4.7303209305
 3054.9001465 11.900001526 20.682222366 4.1254386902 -2.711966038 4.9716062546
 3055.0002441 11.900001526 20.818626404 4.4176912308 -1.855257273 5.1770429611
 3055.1000977 11.900001526 20.963520050 4.6642627716 -1.272746325 5.3372859955
 3055.2001953 11.900001526 21.164821625 4.8602485657 -0.986883759 5.4462556839
 3055.3002930 11.900001526 21.458578110 5.0145816803 -0.977781475 5.5012416840
 3055.3999023 11.900001526 21.776250839 5.1403627396 -1.209214449 5.5031261444
 3055.5000000 11.900001526 22.056785583 5.2446880341 -1.630388260 5.4580516815
 3055.5998535 11.900001526 22.245752335 5.3229446411 -2.157724857 5.3771953583
 3055.6999512 11.900001526 22.291383743 5.3604078293 -2.709293842 5.2746400833
