# LAS format log file from PETREL
# Project units are specified as depth units
#==================================================================
~Version information
VERS.   2.0:
WRAP.   NO:
#==================================================================
~Well
STRT .m      873.00000000 :
STOP .m      3593.0000000 :
STEP .m     0.00000000 :
NULL .        -999.250000 :
COMP.           : COMPANY
WELL.  7/7-3 Brynhild Appr   : WELL
FLD.            : FIELD
LOC.            : LOCATION
SRVC.           : SERVICE COMPANY
DATE.  2018-09-11 21:49:23   : Log Export Date {yyyy-MM-dd HH:mm:ss}
PROV.           : PROVINCE
UWI.   7/7-3   : UNIQUE WELL ID
API.            : API NUMBER
#==================================================================
~Curve
DEPT .m                   : DEPTH
CALI .in                  : CALI
GR .gAPI                  : GR
RDEP .ohm.m               : RDEP
SP .mV                    : SP
RMED .ohm.m               : RMED
~Parameter
#==================================================================
~Ascii
# ...
 2872.2001953 12.136245728 29.386102676 1.2977230549 -12.64932632 1.5891678333
 2872.3000488 12.147975922 29.948713303 1.2758429050 -12.35223770 1.5509943962
 2872.4001465 12.161767960 30.752155304 1.2543692589 -12.09258461 1.5124657154
 2872.5002441 12.174028397 31.383602142 1.2296609879 -11.87907410 1.4739892483
 2872.5998535 12.181140900 31.808706284 1.1996052265 -11.75732040 1.4358673096
 2872.6999512 12.180200577 31.428882599 1.1653459072 -11.78561401 1.3995928764
 2872.7998047 12.171448708 30.786296844 1.1301467419 -12.00966263 1.3678078651
 2872.8999023 12.158258438 29.975864410 1.0976839066 -12.45545959 1.3439874649
 2873.0000000 12.145906448 29.353296280 1.0709080696 -13.12549019 1.3305234909
 2873.0998535 12.138886452 29.034488678 1.0513238907 -13.97601318 1.3282046318
 2873.1999512 12.139814377 28.982244492 1.0392382145 -14.92147446 1.3373064995
 2873.3000488 12.147977829 29.639953613 1.0347218513 -15.86641216 1.3586034775
 2873.3999023 12.159378052 30.381620407 1.0378830433 -16.74558258 1.3923602104
 2873.5000000 12.169069290 31.209625244 1.0484213829 -17.53787231 1.4376454353
 2873.6000977 12.172849655 31.565372467 1.0653622150 -18.24089050 1.4919018745
 2873.6999512 12.168468475 31.603107452 1.0874021053 -18.85418701 1.5515682697
 2873.8000488 12.157078743 31.272480011 1.1137158871 -19.35714722 1.6134276390
 2873.9001465 12.142335892 30.365179062 1.1445016861 -19.68806839 1.6753723621
 2874.0000000 12.127965927 29.396245956 1.1805024147 -19.73986053 1.7360022068
 2874.1000977 12.116233826 28.393453598 1.2219924927 -19.41673660 1.7932984829
 2874.2001953 12.107941628 27.639678955 1.2676575184 -18.72204590 1.8440310955
 2874.3000488 12.102981567 27.051647186 1.3140945435 -17.77314377 1.8845152855
 2874.4001465 12.100591660 26.697563171 1.3564739227 -16.75008392 1.9118404388
 2874.5002441 12.100002289 26.718633652 1.3902366161 -15.81571484 1.9247784615
 2874.6000977 12.100002289 26.893720627 1.4128334522 -15.03077126 1.9239807129
 2874.7001953 12.100002289 27.247411728 1.4245076180 -14.31944084 1.9116830826
 2874.8002930 12.100002289 27.437929153 1.4277944565 -13.51724815 1.8912765980
 2874.8999023 12.100002289 27.454311371 1.4263331890 -12.46148872 1.8671197891
 2875.0000000 12.100002289 27.102987289 1.4236440659 -11.03450584 1.8443894386
 2875.0998535 12.100002289 26.692119598 1.4225378036 -9.182298660 1.8282494545
 2875.1999512 12.100002289 26.364549637 1.4247529507 -6.912932396 1.8220701218
 2875.3000488 12.100591660 26.423946381 1.4305367470 -4.270709038 1.8251869678
 2875.3999023 12.104163170 26.829027176 1.4388470650 -1.320697069 1.8319344521
 2875.5000000 12.115673065 27.476547241 1.4479660988 1.8661282063 1.8336071968
 2875.6000977 12.142234802 28.562128067 1.4563910961 5.2370939255 1.8229646683
 2875.6999512 12.190210342 29.984642029 1.4637730122 8.7484588623 1.7986977100
 2875.8000488 12.261657715 31.756645203 1.4714915752 12.350797653 1.7673437595
 2875.8999023 12.352136612 34.678436279 1.4823644161 15.987044334 1.7419157028
 2876.0000000 12.452026367 38.275058746 1.4997859001 19.588222504 1.7367410660
 2876.1000977 12.549264908 42.355602264 1.5266747475 23.024635315 1.7602689266
 2876.1999512 12.633374214 46.815143585 1.5644409657 26.107631683 1.8114273548
 2876.3000488 12.698392868 50.666755676 1.6122560501 28.658809662 1.8808674812
 2876.4001465 12.743705750 53.937053680 1.6672747135 30.584075928 1.9560296535
 2876.5000000 12.772259712 54.507820129 1.7255630493 31.875919342 2.0267009735
 2876.6000977 12.788489342 54.123180389 1.7837221622 32.601318359 2.0882253647
 2876.7001953 12.796431541 52.781745911 1.8402352333 32.885711670 2.1408095360
 2876.8000488 12.799411774 50.404075623 1.8961994648 32.890121460 2.1867189407
 2876.9001465 12.800001144 48.129440308 1.9549589157 32.758247375 2.2277054787
 2877.0002441 12.800001144 46.015708923 2.0204315186 32.597206116 2.2641444206
 2877.1000977 12.800001144 44.833805084 2.0949726105 32.478881836 2.2963085175
 2877.1999512 12.800001144 44.084510803 2.1783375740 32.453254700 2.3267812729
 2877.2998047 12.800001144 43.870376587 2.2680130005 32.517738342 2.3602895737
 2877.3999023 12.800001144 44.323257446 2.3602066040 32.587371826 2.4016361237
 2877.5000000 12.800001144 45.004356384 2.4507937431 32.523536682 2.4529714584
 2877.5998535 12.800001144 45.930835724 2.5357336998 32.206657410 2.5121054649
 2877.6999512 12.800001144 46.708267212 2.6110820770 31.563480377 2.5733819008
 2877.8000488 12.800001144 47.099201202 2.6736874580 30.571605682 2.6300706863
 2877.8999023 12.800001144 46.690200806 2.7222905159 29.277729034 2.6770057678
 2878.0000000 12.800001144 44.969032288 2.7578144073 27.814079285 2.7121100426
 2878.1000977 12.800001144 42.604484558 2.7832317352 26.355876923 2.7361531258
 2878.1999512 12.800001144 39.445091248 2.8028120995 25.079727173 2.7509512901
 2878.3000488 12.800590515 36.677230835 2.8200330734 24.128288269 2.7573466301
 2878.4001465 12.802982330 34.445301056 2.8361053467 23.561344147 2.7543835640
 2878.5000000 12.807352066 33.668197632 2.8499293327 23.325519562 2.7401380539
 2878.6000977 12.812662125 33.671882629 2.8591508865 23.264900208 2.7141847610
 2878.6999512 12.817043304 34.071327209 2.8616547585 23.183460236 2.6796035767
 2878.8000488 12.818754196 34.683441162 2.8564844131 22.934616089 2.6426362991
 2878.9001465 12.817043304 35.167449951 2.8438668251 22.471393585 2.6105980873
 2879.0000000 12.812664032 35.563640594 2.8255066872 21.832183838 2.5889592171
 2879.1000977 12.807352066 35.849262238 2.8046927452 21.097465515 2.5790896416
 2879.2001953 12.802982330 36.158325195 2.7854132652 20.359268188 2.5779848099
 2879.3000488 12.800592422 36.477497101 2.7708325386 19.682331085 2.5806140900
 2879.4001465 12.800001144 36.726383209 2.7628216743 19.086288452 2.5834107399
 2879.5002441 12.800590515 36.895542145 2.7624926567 18.539455414 2.5869626999
 2879.5998535 12.801800728 36.991764069 2.7709817886 17.973075867 2.5967721939
 2879.6999512 12.799620628 36.766918182 2.7897615433 17.287059784 2.6207761765
 2879.7998047 12.787248611 36.414108276 2.8202519417 16.401092529 2.6655511856
 2879.8999023 12.758955002 35.928413391 2.8630499840 15.304933548 2.7345094681
 2880.0000000 12.714511871 35.236328125 2.9168529510 14.076320648 2.8247957230
 2880.0998535 12.661235809 34.576206207 2.9780654907 12.849731445 2.9273080826
 2880.1999512 12.611372948 33.960086823 3.0407767296 11.762748718 3.0290241241
 2880.3000488 12.576357841 33.622138977 3.0985441208 10.916727066 3.1169667244
 2880.3999023 12.561665535 33.437625885 3.1461648941 10.378921509 3.1811466217
 2880.5000000 12.564718246 33.448005676 3.1808867455 10.167755127 3.2162470818
 2880.6000977 12.577009201 33.662513733 3.2019085884 10.261875153 3.2201719284
 2880.6999512 12.589079857 33.923488617 3.2087306976 10.624971390 3.1925530434
 2880.8000488 12.596429825 34.218425751 3.1998391151 11.210081100 3.1351838112
 2880.9001465 12.600000381 34.511692047 3.1730785370 11.924110413 3.0528249741
 2881.0000000 12.602982521 34.806293488 3.1272745132 12.623336792 2.9535431862
 2881.1000977 12.606760979 35.107154846 3.0641036034 13.173074722 2.8491425514
 2881.2001953 12.609090805 35.329250336 2.9875841141 13.498323441 2.7519764900
 2881.3000488 12.606121063 35.427555084 2.9029130936 13.621274948 2.6694192886
 2881.4001465 12.594580650 35.232524872 2.8148727417 13.635454178 2.6022095680
 2881.5002441 12.572847366 34.638515472 2.7265095711 13.653194427 2.5451931953
 2881.6000977 12.542366028 33.802967072 2.6390075684 13.784809113 2.4910664558
 2881.7001953 12.507352829 32.594516754 2.5527572632 14.112983704 2.4344639778
 2881.8000488 12.473279953 31.419710159 2.4688315392 14.635354996 2.3745570183
 2881.8999023 12.444786072 30.354269028 2.3892993927 15.266340256 2.3133468628
 2882.0000000 12.424172401 29.791419983 2.3161816597 15.901597023 2.2544636726
 2882.0998535 12.410923004 29.644107819 2.2504510880 16.458438873 2.2013702393
 2882.1999512 12.403572083 29.801179886 2.1924834251 16.863922119 2.1566524506
 2882.3000488 12.401180267 30.479784012 2.1434831619 17.062469482 2.1228189468
