# LAS format log file from PETREL
# Project units are specified as depth units
#==================================================================
~Version information
VERS.   2.0:
WRAP.   NO:
#==================================================================
~Well
STRT .m      855.12506104 :
STOP .m      3436.8750000 :
STEP .m     0.00000000 :
NULL .        -999.250000 :
COMP.           : COMPANY
WELL.  7/7-2 Brynhild   : WELL
FLD.            : FIELD
LOC.            : LOCATION
SRVC.           : SERVICE COMPANY
DATE.  2018-09-11 21:49:22   : Log Export Date {yyyy-MM-dd HH:mm:ss}
PROV.           : PROVINCE
UWI.   7/7-2   : UNIQUE WELL ID
API.            : API NUMBER
#==================================================================
~Curve
DEPT .m                   : DEPTH
CALI .in                  : CALI
DRHO .g/cm3               : DRHO
NPHI .m3/m3               : NPHI
RHOB .g/cm3               : RHOB
GR .gAPI                  : GR
DTC .us/ft                : DTC
RDEP .ohm.m               : RDEP
SP .mV                    : SP
RSHA .ohm.m               : RSHA
RMED .ohm.m               : RMED
~Parameter
#==================================================================
~Ascii
# ...
 2227.1250000 18.842500687 0.0242999997  -999.250000 2.3789763451 80.148803711 131.54246521 0.5522999763 30.932762146  -999.250000 0.5947999954
 2227.2500000 18.842500687 0.0306000002  -999.250000 2.3833613396 78.305900574 132.08767700 0.5526999831 30.776929855  -999.250000 0.5849000216
 2227.3750000 18.842500687 0.0239000004  -999.250000 2.3753032684 76.508499146 132.57879639 0.5504000187 30.726146698  -999.250000 0.5849999785
 2227.5000000 18.842500687 0.0340999998  -999.250000 2.3946447372 78.801803589 132.95445251 0.5478000045 30.653272629  -999.250000 0.5873000026
 2227.6250000 18.842500687 0.0509999990  -999.250000 2.4016246796 78.922897339 133.36647034 0.5447000265 30.856332779  -999.250000 0.5875999928
 2227.7500000 18.842500687 0.0328000002  -999.250000 2.3917064667 81.760803223 134.14924622 0.5419999957 30.449874878  -999.250000 0.5813000202
 2227.8750000 18.842500687 0.0450000018  -999.250000 2.4044766426 74.522399902 135.43394470 0.5407000184 30.303665161  -999.250000 0.5813999772
 2228.0000000 18.845699310 0.0595000014  -999.250000 2.4355692863 80.078697205 136.55911255 0.5386000276 30.369964600  -999.250000 0.5819000006
 2228.1250000 18.934900284 0.0026000000  -999.250000 2.3349452019 77.485099792 137.14129639 0.5393000245 30.225122452  -999.250000 0.5824999809
 2228.2500000 18.934900284 0.0557999983  -999.250000 2.4112133980 74.237701416 137.14129639 0.5414000154 30.188600540  -999.250000 0.5870000124
 2228.3750000 18.934900284 0.0593999997  -999.250000 2.4090266228 76.056396484 137.14129639 0.5444999933 30.394754410  -999.250000 0.5860999823
 2228.5000000 18.941400528 0.0663999990  -999.250000 2.4187772274 75.387901306 137.31385803 0.5468000174 31.001289368  -999.250000 0.5835999846
 2228.6250000 19.112499237 0.0230000000  -999.250000 2.3514614105 76.989501953 137.67134094 0.5500000119 30.932468414  -999.250000 0.5846999884
 2228.7500000 18.909299850 0.0549000017  -999.250000 2.4090986252 73.534698486 137.86692810 0.5525000095 30.733272552  -999.250000 0.5846999884
 2228.8750000 18.842500687 0.0282000005  -999.250000 2.3849291801 75.513900757 138.03222656 0.5523999929 30.534942627  -999.250000 0.5852000117
 2229.0000000 18.845699310 0.0416000001  -999.250000 2.4060034752 85.230102539 138.58796692 0.5497000217 30.776594162  -999.250000 0.5867999792
 2229.1250000 18.931699753 0.0217000004  -999.250000 2.3960552216 83.484397888 138.78366089 0.5475000143 30.675315857  -999.250000 0.5874999762
 2229.2500000 18.842500687 0.0410000011  -999.250000 2.3973011971 81.755996704 139.15817261 0.5467000008 30.491600037  -999.250000 0.5867000222
 2229.3750000 18.842500687 0.0201999992  -999.250000 2.3664245605 78.332603455 139.42047119 0.5465000272 30.416683197  -999.250000 0.5831999779
 2229.5000000 18.842500687 0.0269000009  -999.250000 2.3729767799 78.810501099 139.68659973 0.5486999750 30.599615097  -999.250000 0.5809999704
 2229.6250000 18.842500687 0.0333000049  -999.250000 2.3905453682 73.158599854 139.99156189 0.5511999726 31.134445190  -999.250000 0.5784000158
 2229.7500000 18.842500687 0.0255999994  -999.250000 2.3693051338 73.733299255 140.00321960 0.5501000285 31.693906784  -999.250000 0.5769000053
 2229.8750000 18.842500687 0.0566000007  -999.250000 2.4078829288 81.176101685 139.63067627 0.5450000167 31.052011490  -999.250000 0.5763000250
 2230.0000000 18.842500687 0.0225000009  -999.250000 2.3616237640 80.122299194 139.53192139 0.5388000011 30.313732147  -999.250000 0.5817999840
 2230.1250000 18.842500687 0.0447999984  -999.250000 2.3806147575 78.674499512 139.20645142 0.5371000171 29.954988480  -999.250000 0.5842999816
 2230.2500000 18.842500687 0.0496999994  -999.250000 2.3936100006 76.121597290 138.74697876 0.5332999825 29.870264053  -999.250000 0.5824999809
 2230.3750000 18.842500687 0.0445999987  -999.250000 2.3849496841 75.983703613 138.61288452 0.5271999836 30.067077637  -999.250000 0.5756000280
 2230.5000000 18.842500687 0.0280000009  -999.250000 2.3703012466 81.381797791 138.99078369 0.5257999897 30.456190109  -999.250000 0.5676000118
 2230.6250000 18.843299866 0.0434000008  -999.250000 2.4032287598 83.101501465 139.57621765 0.5252000093 30.071577072  -999.250000 0.5619000196
 2230.7500000 18.868099213 0.0458000004  -999.250000 2.3796272278 83.836196899 140.29432678 0.5254999995 30.406528473  -999.250000 0.5580000281
 2230.8750000 18.934900284 0.0311999992  -999.250000 2.3646140099 79.407203674 140.71890259 0.5246999860 30.377328873  -999.250000 0.5582000017
 2231.0000000 18.928400040 0.0445999987  -999.250000 2.3841042519 79.670501709 140.71890259 0.5213000178 30.129636765  -999.250000 0.5602999926
 2231.1250000 18.750000000 0.0750999972  -999.250000 2.4061260223 86.232002258 140.71902466 0.5242999792 30.217283249  -999.250000 0.5679000020
 2231.2500000 18.750000000 0.0390000008  -999.250000 2.3412184715 77.874801636 140.72967529 0.5254999995 30.186386108  -999.250000 0.5722000003
 2231.3750000 18.750000000 0.0653999969  -999.250000 2.3923649788 73.239402771 140.72346497 0.5267000198 30.248180389  -999.250000 0.5756999850
 2231.5000000 18.750000000 0.0803000033  -999.250000 2.3965187073 73.387001038 140.71279907 0.5322999954 30.336410522  -999.250000 0.5742999911
 2231.6250000 18.750000000 -0.002700000  -999.250000 2.2860136032 74.768096924 140.70967102 0.5418999791 30.078245163  -999.250000 0.5695999861
 2231.7500000 18.750000000 0.0394000001  -999.250000 2.3674044609 74.814697266 140.74662781 0.5461999774 30.400180817  -999.250000 0.5673999786
 2231.8750000 18.754899979 0.0313000008  -999.250000 2.3724675179 75.273696899 140.95231628 0.5421000123 30.332283020  -999.250000 0.5654000044
 2232.0000000 18.887300491 0.0653999969  -999.250000 2.4158406258 80.376998901 140.78167725 0.5418999791 30.486837387  -999.250000 0.5734000206
 2232.1250000 18.836000443 0.0518000014  -999.250000 2.3974580765 86.206398010 140.58282471 0.5418000221 30.789638519  -999.250000 0.5706999898
 2232.2500000 18.657499313 0.0590999983  -999.250000 2.3775210381 78.422599792 140.38713074 0.5403000116 30.153705597  -999.250000 0.5716999769
 2232.3750000 18.657499313 0.0573000014  -999.250000 2.3849201202 80.190002441 140.19152832 0.5328999758 30.326652527  -999.250000 0.5713999867
 2232.5000000 18.657499313 0.0555000007  -999.250000 2.3696241379 74.554100037 139.99613953 0.5296999812 30.496334076  -999.250000 0.5716000199
 2232.6250000 18.657499313 0.0588999987  -999.250000 2.4000682831 75.868301392 139.80044556 0.5307000279 30.028684616  -999.250000 0.5674999952
 2232.7500000 18.657499313 0.0300999992  -999.250000 2.3522725105 77.096099854 139.60475159 0.5307000279 30.201620102  -999.250000 0.5626000166
 2232.8750000 18.657499313 0.0311999992  -999.250000 2.3544015884 80.446800232 139.40901184 0.5259000063 30.196094513  -999.250000 0.5611000061
 2233.0000000 18.657499313 0.0518000014  -999.250000 2.3942317963 75.405296326 139.36236572 0.5250999928 30.043346405  -999.250000 0.5568000078
 2233.1250000 18.657499313 0.0340999998  -999.250000 2.3563919067 74.916000366 139.49674988 0.5340999961 30.381870270  -999.250000 0.5547000170
 2233.2500000 18.657499313 0.0359999985  -999.250000 2.3647069931 74.661903381 139.31381226 0.5321000218 29.970630646  -999.250000 0.5511000156
 2233.3750000 18.657499313 0.0719999969  -999.250000 2.4670667648 77.625297546 135.79090881 0.5274999738 29.638370514  -999.250000 0.5507000089
 2233.5000000 18.657499313 0.0110999998  -999.250000 2.6879334450 68.406600952 129.21847534 0.5224999785 29.354812622  -999.250000 0.5762000084
 2233.6250000 18.657499313 -0.283399999  -999.250000 2.4121150970 68.968002319 123.46015167 0.5177999735 29.747837067  -999.250000 0.5975000262
 2233.7500000 18.657499313 0.1177999973  -999.250000 2.8016753197 71.437301636 120.41668701 0.5149000287 29.738023758  -999.250000 0.5957000256
 2233.8750000 18.657499313 0.1976000071  -999.250000 2.7145400047 75.618103027 119.80109406 0.5121999979 29.470706940  -999.250000 0.5684000254
 2234.0000000 18.657499313 0.0958999991  -999.250000 2.4362230301 80.666603088 123.87223053 0.5109000206 29.140140533  -999.250000 0.5534999967
