# LAS format log file from PETREL
# Project units are specified as depth units
#==================================================================
~Version information
VERS.   2.0:
WRAP.   NO:
#==================================================================
~Well
STRT .m      855.12506104 :
STOP .m      3436.8750000 :
STEP .m     0.00000000 :
NULL .        -999.250000 :
COMP.           : COMPANY
WELL.  7/7-2 Brynhild   : WELL
FLD.            : FIELD
LOC.            : LOCATION
SRVC.           : SERVICE COMPANY
DATE.  2018-09-11 21:49:22   : Log Export Date {yyyy-MM-dd HH:mm:ss}
PROV.           : PROVINCE
UWI.   7/7-2   : UNIQUE WELL ID
API.            : API NUMBER
#==================================================================
~Curve
DEPT .m                   : DEPTH
CALI .in                  : CALI
DRHO .g/cm3               : DRHO
NPHI .m3/m3               : NPHI
RHOB .g/cm3               : RHOB
GR .gAPI                  : GR
DTC .us/ft                : DTC
RDEP .ohm.m               : RDEP
SP .mV                    : SP
RSHA .ohm.m               : RSHA
RMED .ohm.m               : RMED
~Parameter
#==================================================================
~Ascii
 855.12506104 0.0001000000  -999.250000  -999.250000  -999.250000 89.111602783 162.11129761 1.4388999939 0.0001000000  -999.250000 0.0001000000
 855.25000000 0.0001000000  -999.250000  -999.250000  -999.250000 86.771400452 162.06243896 1.4431999922 0.0001000000  -999.250000 0.0001000000
 855.37500000 0.0001000000  -999.250000  -999.250000  -999.250000 85.069396973 162.10626221 1.4391000271 0.0001000000  -999.250000 0.0001000000
 855.50000000 0.0001000000  -999.250000  -999.250000  -999.250000 84.002502441 162.11950684 1.4330999851 0.0001000000  -999.250000 0.0001000000
 855.62500000 0.0001000000  -999.250000  -999.250000  -999.250000 83.848899841 162.09455872 1.4255000353 0.0001000000  -999.250000 0.0001000000
 855.75006104 0.0001000000  -999.250000  -999.250000  -999.250000 84.014503479 162.07415771 1.4180999994 0.0001000000  -999.250000 0.0001000000
 855.87500000 0.0001000000  -999.250000  -999.250000  -999.250000 84.149299622 162.11599731 1.4115999937 0.0001000000  -999.250000 0.0001000000
 856.00000000 0.0001000000  -999.250000  -999.250000  -999.250000 83.995597839 162.06709290 1.4064999819 0.0001000000  -999.250000 0.0001000000
 856.12500000 0.0001000000  -999.250000  -999.250000  -999.250000 83.705596924 162.10160828 1.4033999443 0.0001000000  -999.250000 0.0001000000
 856.25000000 0.0001000000  -999.250000  -999.250000  -999.250000 84.346603394 162.12225342 1.4014999866 0.0001000000  -999.250000 0.0001000000
 856.37493896 0.4174999893  -999.250000  -999.250000  -999.250000 85.563598633 162.10276794 1.3999999762 0.0000837811  -999.250000 0.0001000000
 856.50000000 11.387000084  -999.250000  -999.250000  -999.250000 86.577697754 162.06945801 1.3984999657 0.0000000000  -999.250000 0.1591999978
 856.62500000 15.000000954  -999.250000  -999.250000  -999.250000 86.953598022 162.11833191 1.3969999552 0.0000000000  -999.250000 0.2000000030
 856.75000000 15.000000954  -999.250000  -999.250000  -999.250000 86.871299744 162.11950684 1.3954000473 0.0000000000  -999.250000 0.2000000030
 856.87500000 15.000000954  -999.250000  -999.250000  -999.250000 86.728500366 162.08250427 1.3941999674 0.0000000000  -999.250000 0.2000000030
 857.00000000 15.000000954  -999.250000  -999.250000  -999.250000 86.601600647 162.08618164 1.3928999901 0.0000000000  -999.250000 0.2000000030
 857.12500000 15.000000954  -999.250000  -999.250000  -999.250000 86.465797424 162.11950684 1.3937000036 0.0000000000  -999.250000 0.2000000030
 857.25000000 15.000000954  -999.250000  -999.250000  -999.250000 86.249198914 162.11463928 1.3956999779 0.0000000000  -999.250000 0.2000000030
 857.37500000 15.000000954  -999.250000  -999.250000  -999.250000 86.004203796 162.06575012 1.3976999521 0.0000000000  -999.250000 0.2000000030
 857.50006104 15.000000954  -999.250000  -999.250000  -999.250000 85.851600647 162.10296631 1.3997000456 0.0000000000  -999.250000 0.2000000030
 857.62500000 15.000000954  -999.250000  -999.250000  -999.250000 85.615600586 162.11950684 1.4018000364 0.0000000000  -999.250000 0.2000000030
 857.75000000 15.000000954  -999.250000  -999.250000  -999.250000 84.970901489 162.09790039 1.4064999819 0.0000000000  -999.250000 0.2000000030
 857.87500000 15.000000954  -999.250000  -999.250000  -999.250000 83.730499268 162.07078552 1.4128999710 0.0000000000  -999.250000 0.2000000030
 858.00000000 15.000000954  -999.250000  -999.250000  -999.250000 82.105300903 162.11950684 1.4175000191 0.0000000000  -999.250000 0.2000000030
 858.12493896 15.000000954  -999.250000  -999.250000  -999.250000 80.394996643 162.11950684 1.4164999723 0.0000000000  -999.250000 0.2000000030
 858.25000000 15.000000954  -999.250000  -999.250000  -999.250000 79.415199280 162.08457947 1.3989000320 0.0000000000  -999.250000 0.2000000030
 858.37500000 15.000000954  -999.250000  -999.250000  -999.250000 81.234001160 162.09036255 1.3811000586 0.0000000000  -999.250000 0.2000000030
 858.50000000 15.000000954  -999.250000  -999.250000  -999.250000 84.948799133 162.11950684 1.3636000156 0.0000000000  -999.250000 0.2000000030
 858.62500000 15.000000954  -999.250000  -999.250000  -999.250000 87.522399902 162.11332703 1.3470000029 0.0000000000  -999.250000 0.2000000030
 858.75000000 15.000000954  -999.250000  -999.250000  -999.250000 88.457000732 162.06443787 1.3334000111 0.0000000000  -999.250000 0.2000000030
 858.87500000 15.000000954  -999.250000  -999.250000  -999.250000 88.911201477 162.10424805 1.3265999556 0.0000000000  -999.250000 0.2000000030
 859.00000000 15.000000954  -999.250000  -999.250000  -999.250000 89.807998657 162.11950684 1.3224999905 0.0000000000  -999.250000 0.2000000030
 859.12500000 15.000000954  -999.250000  -999.250000  -999.250000 90.890899658 162.09658813 1.3185000420 0.0000000000  -999.250000 0.2000000030
 859.25006104 15.000000954  -999.250000  -999.250000  -999.250000 91.984199524 162.07214355 1.3135999441 0.0000000000  -999.250000 0.2000000030
 859.37500000 15.000000954  -999.250000  -999.250000  -999.250000 93.146598816 162.11950684 1.3079999685 0.0000000000  -999.250000 0.2000000030
 859.50000000 15.000000954  -999.250000  -999.250000  -999.250000 93.573097229 162.11950684 1.3018000126 0.0000000000  -999.250000 0.2000000030
 859.62500000 15.000000954  -999.250000  -999.250000  -999.250000 91.242698669 162.07983398 1.2951999903 0.0000000000  -999.250000 0.2000000030
 859.75000000 15.000000954  -999.250000  -999.250000  -999.250000 87.309402466 162.08885193 1.2913999557 0.0000000000  -999.250000 0.2000000030
 859.87493896 15.000000954  -999.250000  -999.250000  -999.250000 84.046997070 162.11950684 1.2877000570 0.0000000000  -999.250000 0.2000000030
 860.00000000 15.000000954  -999.250000  -999.250000  -999.250000 83.043998718 162.11198425 1.2836999893 0.0000000000  -999.250000 0.2000000030
 860.12500000 15.000000954  -999.250000  -999.250000  -999.250000 83.812103271 162.06311035 1.2797000408 0.0000000000  -999.250000 0.2000000030
 860.25000000 15.000000954  -999.250000  -999.250000  -999.250000 85.240798950 162.10964966 1.2756999731 0.0000000000  -999.250000 0.2000000030
 860.37500000 15.000000954  -999.250000  -999.250000  -999.250000 86.727096558 162.12168884 1.2736999989 0.0000000000  -999.250000 0.2000000030
 860.49993896 15.000000954  -999.250000  -999.250000  -999.250000 87.242202759 162.09527588 1.2860000134 0.0000000000  -999.250000 0.2000000030
 860.62500000 15.000000954  -999.250000  -999.250000  -999.250000 85.202499390 162.07344055 1.2940000296 0.0000000000  -999.250000 0.2000000030
 860.75000000 15.000000954  -999.250000  -999.250000  -999.250000 83.245903015 162.11950684 1.2951999903 0.0000000000  -999.250000 0.2000000030
 860.87500000 15.000000954  -999.250000  -999.250000  -999.250000 83.423500061 162.11950684 1.3028999567 0.0000000000  -999.250000 0.2000000030
 861.00006104 15.000000954  -999.250000  -999.250000  -999.250000 84.598503113 162.07850647 1.3187999725 0.0000000000  -999.250000 0.2000000030
 861.12500000 15.000000954  -999.250000  -999.250000  -999.250000 84.239196777 162.09017944 1.3277000189 0.0000000000  -999.250000 0.2000000030
 861.25000000 15.000000954  -999.250000  -999.250000  -999.250000 83.126403809 162.11950684 1.3301000595 0.0000000000  -999.250000 0.2000000030
 861.37500000 15.000000954  -999.250000  -999.250000  -999.250000 81.640502930 162.11065674 1.3327000141 0.0000000000  -999.250000 0.2000000030
 861.50000000 15.000000954  -999.250000  -999.250000  -999.250000 79.827400208 162.06176758 1.3379000425 0.0000000000  -999.250000 0.2000000030
 861.62493896 14.645000458  -999.250000  -999.250000  -999.250000 78.089897156 162.10690308 1.3420000076 0.0000000000  -999.250000 0.2000000030
 861.75000000 5.4348998070  -999.250000  -999.250000  -999.250000 78.199699402 162.08320618 1.3420000076 0.0000000000  -999.250000 0.2000000030
 861.87500000 5.4348998070  -999.250000  -999.250000  -999.250000 79.112396240 162.08549500 1.3420000076 0.0000000000  -999.250000 0.2000000030
 862.00000000 5.4348998070  -999.250000  -999.250000  -999.250000 80.250999451 162.12083435 1.3420000076 0.0000000000  -999.250000 0.2000000030
