# LAS format log file from PETREL
# Project units are specified as depth units
#==================================================================
~Version information
VERS.   2.0:
WRAP.   NO:
#==================================================================
~Well
STRT .m      855.12506104 :
STOP .m      3436.8750000 :
STEP .m     0.00000000 :
NULL .        -999.250000 :
COMP.           : COMPANY
WELL.  7/7-2 Brynhild   : WELL
FLD.            : FIELD
LOC.            : LOCATION
SRVC.           : SERVICE COMPANY
DATE.  2018-09-11 21:49:22   : Log Export Date {yyyy-MM-dd HH:mm:ss}
PROV.           : PROVINCE
UWI.   7/7-2   : UNIQUE WELL ID
API.            : API NUMBER
#==================================================================
~Curve
DEPT .m                   : DEPTH
CALI .in                  : CALI
DRHO .g/cm3               : DRHO
NPHI .m3/m3               : NPHI
RHOB .g/cm3               : RHOB
GR .gAPI                  : GR
DTC .us/ft                : DTC
RDEP .ohm.m               : RDEP
SP .mV                    : SP
RSHA .ohm.m               : RSHA
RMED .ohm.m               : RMED
~Parameter
#==================================================================
~Ascii
# ...
 1716.1251221 17.750000000 0.0113000004  -999.250000 2.1160812378 76.833396912 151.12303162 0.7175999880 48.698459625  -999.250000 0.6748999953
 1716.2498779 18.193500519 0.0317000002  -999.250000 2.1461696625 75.953002930 150.48852539 0.7120000124 48.969001770  -999.250000 0.6739000082
 1716.3750000 18.132200241 0.0494999997  -999.250000 2.1789498329 81.407302856 149.88285828 0.7084000111 48.859645844  -999.250000 0.6754000187
 1716.5000000 17.691799164 0.0230999999  -999.250000 2.1475963593 82.542198181 149.68685913 0.7078999877 48.224620819  -999.250000 0.6662999988
 1716.6250000 17.821899414 0.0027999999  -999.250000 2.1184573174 84.139801025 149.78877258 0.7049999833 48.531085968  -999.250000 0.6575999856
 1716.7500000 17.734600067 0.0126000000  -999.250000 2.1214394569 83.536102295 149.98292542 0.7046999931 48.440536499  -999.250000 0.6649000049
 1716.8750000 17.783300400 0.0287999995  -999.250000 2.1520051956 82.623901367 150.17898560 0.6977000237 48.056694031  -999.250000 0.6683999896
 1717.0000000 17.895500183 0.0303000007  -999.250000 2.1632013321 85.229301453 150.25920105 0.6974999905 47.841522217  -999.250000 0.6707000136
 1717.1250000 17.917800903 0.0445999987  -999.250000 2.1817917824 77.417800903 150.51347351 0.7037000060 47.841362000  -999.250000 0.6747999787
 1717.2500000 17.917800903 0.0071000000  -999.250000 2.1589279175 79.091400146 151.25721741 0.7028999925 48.056995392  -999.250000 0.6690999866
 1717.3751221 17.920400620 0.0340000018  -999.250000 2.1551527977 82.633598328 152.33523560 0.7038999796 48.294483185  -999.250000 0.6610999703
 1717.5000000 17.988000870 0.0174000002  -999.250000 2.0978331566 77.987197876 152.58840942 0.7134000063 48.184150696  -999.250000 0.6549000144
 1717.6250000 18.013700485 0.0052999998  -999.250000 2.0815138817 82.052696228 152.78398132 0.7267000079 48.236751556  -999.250000 0.6621000171
 1717.7500000 18.107900620 0.0197000001  -999.250000 2.1019740105 84.752998352 153.02664185 0.7256000042 48.063724518  -999.250000 0.6679000258
 1717.8750000 18.243900299 0.0116999997  -999.250000 2.1162981987 78.448600769 153.21076965 0.7239000201 48.224960327  -999.250000 0.6761999726
 1718.0000000 18.306499481 0.0445000008  -999.250000 2.1639060974 87.770599365 153.08781433 0.7228000164 48.450454712  -999.250000 0.6837000251
 1718.1250000 18.198600769 0.0166999996  -999.250000 2.0989813805 84.275901794 152.49844360 0.7202000022 48.305763245  -999.250000 0.6837000251
 1718.2500000 18.287700653 0.0412000008  -999.250000 2.1332745552 82.814697266 151.58497620 0.7271000147 48.355220795  -999.250000 0.6772999763
 1718.3750000 18.305700302 0.0384999998  -999.250000 2.1453123093 86.010398865 150.66787720 0.7268000245 48.354362488  -999.250000 0.6757000089
 1718.5001221 18.754899979 0.0395999998  -999.250000 2.1506624222 80.979896545 150.06117249 0.7312999964 48.260108948  -999.250000 0.6728000045
 1718.6248779 18.276500702 0.0186999999  -999.250000 2.1209635735 75.792098999 149.93730164 0.7555999756 48.491493225  -999.250000 0.6679000258
 1718.7500000 17.986299515 0.0480000004  -999.250000 2.1725883484 78.806297302 150.13227844 0.7707999945 47.844009399  -999.250000 0.6632999778
 1718.8750000 17.975999832 0.0244999994  -999.250000 2.1539225578 84.512001038 150.13911438 0.7727000117 47.711429596  -999.250000 0.6563000083
 1719.0000000 18.287599564 0.0148999998  -999.250000 2.1400012970 78.862197876 146.43875122 0.7616000175 47.761920929  -999.250000 0.6531999707
 1719.1250000 18.283399582 0.0305000003  -999.250000 2.1641497612 80.235702515 138.74717712 0.7523999810 48.051139832  -999.250000 0.7038000226
 1719.2500000 18.169500351 -0.168300003  -999.250000 2.1635947227 79.675201416 130.09219360 0.7516999841 48.564067841  -999.250000 0.7656999826
 1719.3750000 18.102699280 -0.046100002  -999.250000 2.3321390152 78.795898438 125.28588867 0.7462000251 48.649650574  -999.250000 0.7617999911
 1719.5000000 18.095899582 0.1316999942  -999.250000 2.4437899590 74.251296997 124.69881439 0.7415000200 48.042575836  -999.250000 0.6923000216
 1719.6251221 17.915199280 0.0428000018  -999.250000 2.1752409935 76.554801941 128.68476868 0.7549999952 48.496303558  -999.250000 0.6582999825
 1719.7498779 17.852800369 0.0335999988  -999.250000 2.1547913551 78.310401917 136.90534973 0.7736999989 48.538314819  -999.250000 0.6578999758
 1719.8750000 17.968299866 0.0395999998  -999.250000 2.1445245743 80.601303101 145.58662415 0.7576000094 48.958404541  -999.250000 0.6600999832
 1720.0000000 18.066699982 0.0320000015  -999.250000 2.1313326359 84.236396790 151.11827087 0.7398999929 48.319644928  -999.250000 0.6590999961
 1720.1250000 17.736299515 0.0196000002  -999.250000 2.1256504059 85.361396790 152.38801575 0.7245000005 47.577014923  -999.250000 0.6636999846
 1720.2500000 17.827100754 0.0397000015  -999.250000 2.1505751610 83.609199524 152.98536682 0.7160000205 48.019165039  -999.250000 0.6711000204
 1720.3750000 17.863000870 0.0322999991  -999.250000 2.1581382751 83.693099976 153.19427490 0.7081999779 47.927085876  -999.250000 0.6771000028
 1720.5000000 17.640499115 0.0148999998  -999.250000 2.1226701736 95.200500488 153.13247681 0.7024999857 48.741470337  -999.250000 0.6744999886
 1720.6250000 17.642999649 0.0241000000  -999.250000 2.1276617050 86.439697266 152.90728760 0.7075999975 49.698497772  -999.250000 0.6733999848
 1720.7500000 17.720899582 0.0016000000  -999.250000 2.1259727478 87.540496826 152.58950806 0.7340000272 49.009757996  -999.250000 0.6728000045
 1720.8751221 18.008499146 0.0236000009  -999.250000 2.1649756432 80.663101196 152.09768677 0.7491999865 48.794727325  -999.250000 0.6682999730
 1720.9998779 17.965799332 0.0270000007  -999.250000 2.1665253639 80.382598877 151.96008301 0.7226999998 48.434261322  -999.250000 0.6643000245
 1721.1250000 18.011100769 -0.013700000  -999.250000 2.1044831276 79.751602173 152.05888367 0.7551000118 48.159278870  -999.250000 0.6599000096
 1721.2500000 18.034200668 -0.002800000  -999.250000 2.1127104759 74.536697388 152.16551208 0.7434999943 48.688766479  -999.250000 0.6613000035
 1721.3750000 18.052299500 -0.008800000  -999.250000 2.1070699692 85.026298523 152.16668701 0.7401999831 49.087471008  -999.250000 0.6693999767
 1721.5000000 17.943500519 0.0184000004  -999.250000 2.1576251984 80.584297180 152.16606140 0.7344999909 49.259349823  -999.250000 0.6718999743
 1721.6250000 18.025699615 -0.010400000  -999.250000 2.1142783165 81.737800598 152.26608276 0.7250000238 49.473358154  -999.250000 0.6625999808
 1721.7500000 18.426399231 0.0157999992  -999.250000 2.1752891541 78.251998901 152.51806641 0.7286000252 49.382514954  -999.250000 0.6538000107
 1721.8750000 18.436500549 0.0083999997  -999.250000 2.1445989609 77.544403076 152.75541687 0.7300999761 49.317024231  -999.250000 0.6481000185
 1722.0001221 18.684799194 0.0390000008  -999.250000 2.1431775093 81.361602783 152.88175964 0.7232999802 49.279930115  -999.250000 0.6485999823
 1722.1248779 18.188299179 -0.023200000  -999.250000 2.0592713356 86.280296326 152.79902649 0.7202000022 49.360439301  -999.250000 0.6524999738
 1722.2500000 18.006799698 0.0066999998  -999.250000 2.1381797791 85.263496399 152.21400452 0.7196999788 49.194255829  -999.250000 0.6474000216
 1722.3750000 17.914499283 -0.009100000  -999.250000 2.1246681213 80.582901001 151.89553833 0.7186999917 48.955799103  -999.250000 0.6506999731
 1722.5000000 17.825300217 0.0078999996  -999.250000 2.1417231560 82.236602783 151.60408020 0.7141000032 49.015407562  -999.250000 0.6589000225
 1722.6250000 17.826200485 0.0337000005  -999.250000 2.1946368217 77.120300293 151.54710388 0.7124999762 49.475528717  -999.250000 0.6650999784
 1722.7500000 17.850999832 -0.013300000  -999.250000 2.1252732277 78.243103027 151.81765747 0.7088999748 49.344753265  -999.250000 0.6685000062
 1722.8750000 17.917800903 0.0035999999  -999.250000 2.1435914040 74.999603271 152.30061340 0.7117999792 49.400993347  -999.250000 0.6710000038
 1723.0000000 17.921199799 -0.056600001  -999.250000 2.0955796242 72.675003052 152.69396973 0.7152000070 49.827606201  -999.250000 0.6711999774
