# LAS format log file from PETREL
# Project units are specified as depth units
#==================================================================
~Version information
VERS.   2.0:
WRAP.   NO:
#==================================================================
~Well
STRT .m      855.12506104 :
STOP .m      3436.8750000 :
STEP .m     0.00000000 :
NULL .        -999.250000 :
COMP.           : COMPANY
WELL.  7/7-2 Brynhild   : WELL
FLD.            : FIELD
LOC.            : LOCATION
SRVC.           : SERVICE COMPANY
DATE.  2018-09-11 21:49:22   : Log Export Date {yyyy-MM-dd HH:mm:ss}
PROV.           : PROVINCE
UWI.   7/7-2   : UNIQUE WELL ID
API.            : API NUMBER
#==================================================================
~Curve
DEPT .m                   : DEPTH
CALI .in                  : CALI
DRHO .g/cm3               : DRHO
NPHI .m3/m3               : NPHI
RHOB .g/cm3               : RHOB
GR .gAPI                  : GR
DTC .us/ft                : DTC
RDEP .ohm.m               : RDEP
SP .mV                    : SP
RSHA .ohm.m               : RSHA
RMED .ohm.m               : RMED
~Parameter
#==================================================================
~Ascii
# ...
 2570.1247559 18.288499832 0.0060000001  -999.250000 2.4792318344 66.500801086 116.74728394 0.7167999744 30.739318848  -999.250000 0.7031999826
 2570.2500000 18.311700821 0.0688000023  -999.250000 2.5316252708 69.577697754 116.70424652 0.7204999924 30.414323807  -999.250000 0.7032999992
 2570.3750000 18.332199097 0.0359000005  -999.250000 2.4513034821 67.533203125 117.20282745 0.7160999775 30.397556305  -999.250000 0.7149000168
 2570.5000000 18.290899277 0.0329000019  -999.250000 2.4228601456 61.092201233 118.53312683 0.7125999928 30.118461609  -999.250000 0.7292000055
 2570.6250000 18.380100250 0.0612999983  -999.250000 2.4851570129 73.609298706 119.76232910 0.7117000222 30.085506439  -999.250000 0.7350000143
 2570.7500000 18.380100250 0.0482000001  -999.250000 2.4766373634 72.746696472 120.45497894 0.7154999971 30.551620483  -999.250000 0.7344999909
 2570.8750000 18.380100250 0.0164000001  -999.250000 2.4186720848 72.237503052 120.75014496 0.7178999782 30.546094894  -999.250000 0.7286999822
 2571.0000000 18.380100250 0.0272999983  -999.250000 2.4197916985 75.089599609 120.91636658 0.7135999799 30.371789932  -999.250000 0.7211999893
 2571.1250000 18.380100250 0.0223999992  -999.250000 2.3885397911 73.033599854 121.11230469 0.7113999724 30.560895920  -999.250000 0.7174999714
 2571.2500000 18.380100250 0.0390999988  -999.250000 2.4200434685 77.362602234 121.56962585 0.7092000246 29.954631805  -999.250000 0.7178000212
 2571.3750000 18.380100250 0.0379000008  -999.250000 2.4309067726 83.550498962 121.77607727 0.7069000006 29.686025620  -999.250000 0.7214000225
 2571.5000000 18.380100250 0.0177999996  -999.250000 2.4181790352 81.263198853 121.85268402 0.7002000213 29.562339783  -999.250000 0.7240999937
 2571.6250000 18.380100250 0.0100999996  -999.250000 2.4334268570 72.625701904 121.99040222 0.7023000121 29.138719559  -999.250000 0.7139999866
 2571.7500000 18.380100250 0.0612000003  -999.250000 2.4892640114 76.858299255 122.27589417 0.7070999742 29.383964539  -999.250000 0.7202000022
 2571.8750000 18.380100250 0.0601999983  -999.250000 2.4802632332 78.391296387 121.91937256 0.7150999904 29.973964691  -999.250000 0.7257000208
 2572.0000000 18.380100250 0.0185000002  -999.250000 2.4077386856 78.955299377 121.70479584 0.7231000066 30.362318039  -999.250000 0.7239000201
 2572.1252441 18.380100250 0.0401999988  -999.250000 2.4190750122 78.718399048 121.74444580 0.7475000024 30.591753006  -999.250000 0.7256000042
 2572.2502441 18.380100250 0.0289999992  -999.250000 2.4284191132 75.173599243 121.93611908 0.7592999935 30.877485275  -999.250000 0.7289000154
 2572.3747559 18.380100250 0.0450000018  -999.250000 2.4312486649 75.276298523 121.89943695 0.7573000193 30.400157928  -999.250000 0.7365999818
 2572.5000000 18.376899719 0.0130000003  -999.250000 2.4526529312 76.809600830 120.91593170 0.7538999915 30.932613373  -999.250000 0.7522000074
 2572.6250000 18.290899277 -0.065899998  -999.250000 2.4244728088 74.899101257 119.15751648 0.7544000149 30.876823425  -999.250000 0.7526999712
 2572.7500000 18.380100250 0.0662000030  -999.250000 2.5214157104 72.375701904 117.85663605 0.7552000284 31.619010925  -999.250000 0.7497000098
 2572.8750000 18.380100250 0.0878999978  -999.250000 2.5066184998 70.747299194 117.21116638 0.7502999902 31.622383118  -999.250000 0.7362999916
 2573.0000000 18.380100250 0.0669000000  -999.250000 2.4413022995 73.224800110 117.34087372 0.7494000196 31.453041077  -999.250000 0.7342000008
 2573.1250000 18.380100250 0.0511000007  -999.250000 2.4139709473 75.101799011 118.28439331 0.7567999959 31.094793320  -999.250000 0.7269999981
 2573.2500000 18.381799698 0.0700000003  -999.250000 2.4515776634 70.668899536 120.04563141 0.7667000294 30.654304504  -999.250000 0.7185999751
 2573.3750000 18.430500031 0.0684000030  -999.250000 2.4304804802 69.667503357 120.88404083 0.7663999796 30.693803787  -999.250000 0.7139000297
 2573.5000000 18.542900085 0.0908999965  -999.250000 2.4483704567 73.224800110 121.14199829 0.7669000030 30.932147980  -999.250000 0.7161999941
 2573.6250000 18.552099228 0.0763999969  -999.250000 2.4258785248 69.522903442 121.14428711 0.7667999864 30.696575165  -999.250000 0.7294999957
 2573.7500000 18.195199966 0.0674000010  -999.250000 2.4478764534 77.408798218 120.93970490 0.7682999969 31.183547974  -999.250000 0.7365999818
 2573.8750000 18.195199966 0.0368999988  -999.250000 2.4197993279 76.021400452 120.23239899 0.7585999966 31.370508194  -999.250000 0.7440999746
 2574.0000000 18.195199966 0.0293000005  -999.250000 2.4132370949 75.396598816 119.57016754 0.7469000220 31.745590210  -999.250000 0.7457000017
 2574.1250000 18.195199966 0.0644999966  -999.250000 2.4449939728 69.759498596 119.44470215 0.7602000237 32.487884521  -999.250000 0.7473000288
 2574.2500000 18.195199966 0.0515000001  -999.250000 2.4267129898 69.565597534 119.69919586 0.7696999907 31.394857407  -999.250000 0.7440999746
 2574.3750000 18.195199966 0.0253999997  -999.250000 2.4043359756 76.290397644 120.02775574 0.7731999755 31.724555969  -999.250000 0.7373999953
 2574.5002441 18.195199966 0.0436000004  -999.250000 2.3992028236 77.388801575 120.13674164 0.7825999856 32.177227020  -999.250000 0.7346000075
 2574.6247559 18.195199966 0.0434000008  -999.250000 2.4257278442 71.438400269 119.97959137 0.7900999784 31.995428085  -999.250000 0.7396000028
 2574.7497559 18.195199966 0.0337999985  -999.250000 2.3952822685 75.216903687 119.78648376 0.7882000208 31.474327087  -999.250000 0.7411000133
 2574.8750000 18.195199966 0.0417999998  -999.250000 2.4155373573 74.574996948 119.70291138 0.7782999873 32.266422272  -999.250000 0.7364000082
 2575.0000000 18.195199966 0.0300999992  -999.250000 2.4105558395 72.237503052 119.21720123 0.7662000060 32.475570679  -999.250000 0.7224000096
 2575.1250000 18.195199966 0.0004000000  -999.250000 2.4256443977 68.360801697 118.04931641 0.7587000132 32.057502747  -999.250000 0.7246000171
 2575.2500000 18.195199966 0.0225000009  -999.250000 2.5076065063 64.522796631 116.28816223 0.7583000064 32.009910583  -999.250000 0.7365999818
 2575.3750000 18.195199966 0.0582000017  -999.250000 2.5707325935 61.984100342 114.52975464 0.7573000193 31.596921921  -999.250000 0.7405999899
 2575.5000000 18.185499191 0.0461000018  -999.250000 2.5487842560 57.941699982 113.87805939 0.7519999743 31.446012497  -999.250000 0.7436000109
 2575.6250000 17.917800903 0.0905999988  -999.250000 2.5621447563 55.648101807 114.22464752 0.7540000081 33.115882874  -999.250000 0.7401000261
 2575.7500000 17.919399261 0.0693999976  -999.250000 2.4597959518 59.630001068 115.34852600 0.7559000254 33.089405060  -999.250000 0.7667999864
 2575.8750000 17.965799332 0.0545999967  -999.250000 2.4047288895 62.040298462 116.84264374 0.7598999739 33.162986755  -999.250000 0.7609999776
 2576.0000000 18.010299683 0.0478999987  -999.250000 2.4155759811 58.801700592 118.01500702 0.7623000145 32.937149048  -999.250000 0.7588999867
 2576.1250000 18.010299683 0.0696000010  -999.250000 2.4077787399 67.501800537 118.21021271 0.7599999905 33.263999939  -999.250000 0.7574999928
 2576.2500000 18.008600235 0.0212999992  -999.250000 2.3635540009 72.104103088 118.28013611 0.7470999956 33.340385437  -999.250000 0.7620000243
 2576.3750000 17.962299347 0.0171000008  -999.250000 2.3564147949 68.602600098 118.48342133 0.7461000085 33.729663849  -999.250000 0.7659999728
 2576.5000000 17.921100616 0.0390000008  -999.250000 2.3956513405 62.241798401 118.63317108 0.7440999746 33.655300140  -999.250000 0.7639999986
 2576.6250000 18.006999969 0.0299999993  -999.250000 2.3852124214 63.895301819 118.34136200 0.7426999807 33.301162720  -999.250000 0.7598999739
 2576.7502441 17.917800903 0.0342000015  -999.250000 2.3947257996 60.944301605 118.26095581 0.7419000268 33.407447815  -999.250000 0.7542999983
 2576.8752441 17.917800903 0.0149999997  -999.250000 2.3599400520 63.318298340 118.25029755 0.7390000224 33.263999939  -999.250000 0.7544000149
 2576.9997559 17.917800903 0.0307000000  -999.250000 2.3724498749 66.796501160 118.27621460 0.7386999726 33.394752502  -999.250000 0.7608000040
