# LAS format log file from PETREL
# Project units are specified as depth units
#==================================================================
~Version information
VERS.   2.0:
WRAP.   NO:
#==================================================================
~Well
STRT .m      873.00000000 :
STOP .m      3593.0000000 :
STEP .m     0.00000000 :
NULL .        -999.250000 :
COMP.           : COMPANY
WELL.  7/7-3 Brynhild Appr   : WELL
FLD.            : FIELD
LOC.            : LOCATION
SRVC.           : SERVICE COMPANY
DATE.  2018-09-11 21:49:23   : Log Export Date {yyyy-MM-dd HH:mm:ss}
PROV.           : PROVINCE
UWI.   7/7-3   : UNIQUE WELL ID
API.            : API NUMBER
#==================================================================
~Curve
DEPT .m                   : DEPTH
CALI .in                  : CALI
GR .gAPI                  : GR
RDEP .ohm.m               : RDEP
SP .mV                    : SP
RMED .ohm.m               : RMED
~Parameter
#==================================================================
~Ascii
# ...
 3402.5998535 13.875696182 43.048690796 1.2384860516 22.226860046 1.0016314983
 3402.6999512 13.872826576 43.605930328 1.2427206039 22.343990326 1.0043370724
 3402.8000488 13.875808716 44.627399445 1.2500834465 22.479984283 1.0085072517
 3402.8999023 13.883863449 45.853614807 1.2584578991 22.615650177 1.0136430264
 3403.0000000 13.894105911 46.582233429 1.2660779953 22.739288330 1.0190081596
 3403.1000977 13.903108597 46.885932922 1.2720909119 22.845275879 1.0240838528
 3403.1999512 13.908924103 46.114337921 1.2766346931 22.935028076 1.0288288593
 3403.3000488 13.911756516 45.259185791 1.2805655003 23.015628815 1.0337345600
 3403.4001465 13.912488937 44.370819092 1.2849876881 23.097904205 1.0396435261
 3403.5000000 13.911956787 44.478336334 1.2906847000 23.192962646 1.0472896099
 3403.6000977 13.909964561 45.093719482 1.2977762222 23.301212311 1.0567092896
 3403.6999512 13.905014038 46.204177856 1.3056590557 23.423091888 1.0669076443
 3403.8000488 13.895184517 47.774887085 1.3132846355 23.556781769 1.0760223866
 3403.9001465 13.880809784 49.136363983 1.3197197914 23.695034027 1.0819876194
 3404.0000000 13.865221024 50.237323761 1.3246717453 23.837635040 1.0833766460
 3404.1000977 13.853366852 50.258586884 1.3286550045 23.996078491 1.0800621510
 3404.2001953 13.848716736 49.943946838 1.3328020573 24.170005798 1.0734362602
 3404.3000488 13.852010727 49.257038116 1.3382923603 24.339931488 1.0661478043
 3404.4001465 13.860717773 48.407829285 1.3453173637 24.470760345 1.0612366199
 3404.5002441 13.870059967 47.559890747 1.3522713184 24.529457092 1.0605919361
 3404.5998535 13.875606537 46.754550934 1.3561539650 24.494232178 1.0634863377
 3404.6999512 13.875535011 46.063770294 1.3541140556 24.363117218 1.0665762424
 3404.7998047 13.871519089 45.417354584 1.3451876640 24.150951385 1.0656056404
 3404.8999023 13.867458344 44.812458038 1.3311719894 23.881851196 1.0578236580
 3405.0000000 13.866434097 44.058029175 1.3160526752 23.587707520 1.0437355042
 3405.0998535 13.869489670 43.268589020 1.3042790890 23.299919128 1.0272161961
 3405.1999512 13.875843048 42.486499786 1.2988927364 23.040401459 1.0138013363
 3405.3000488 13.883354187 42.019859314 1.3003203869 22.831005096 1.0078763962
 3405.3999023 13.889346123 41.794788361 1.3061788082 22.688827515 1.0102775097
 3405.5000000 13.891308784 42.040260315 1.3123915195 22.615043640 1.0179398060
 3405.6000977 13.888925552 42.417312622 1.3153493404 22.595741272 1.0259132385
 3405.6999512 13.883762360 42.761558533 1.3136012554 22.615154266 1.0303301811
 3405.8000488 13.878150940 42.661487579 1.3081567287 22.669109344 1.0301067829
 3405.9001465 13.874158859 42.144256592 1.3017373085 22.759738922 1.0267417431
 3406.0000000 13.872644424 41.369651794 1.2974946499 22.889888763 1.0230782032
 3406.1000977 13.873271942 40.370498657 1.2975931168 23.056419373 1.0218126774
 3406.2001953 13.874884605 39.580207825 1.3023209572 23.241626740 1.0243449211
 3406.3000488 13.876194000 39.007091522 1.3101270199 23.418247223 1.0304572582
 3406.4001465 13.876565933 39.381481171 1.3186032772 23.564300537 1.0388946533
 3406.5002441 13.875796318 40.099796295 1.3259689808 23.669460297 1.0485434532
 3406.6000977 13.873115540 41.094337463 1.3323016167 23.740360260 1.0595920086
 3406.7001953 13.863165855 42.042392731 1.3396654129 23.796047211 1.0739521980
 3406.8000488 13.821338654 42.746440887 1.3508021832 23.852050781 1.0942900181
 3406.9001465 13.687342644 43.213451385 1.3672084808 23.916339874 1.1218824387
 3407.0000000 13.386547089 43.267417908 1.3879160881 23.993965149 1.1547608376
 3407.0998535 12.882212639 43.351135254 1.4097898006 24.089008331 1.1874721050
 3407.1999512 12.221105576 43.482414246 1.4290080070 24.196708679 1.2128801346
 3407.3000488 11.542943954 44.086643219 1.4427921772 24.304847717 1.2251167297
 3407.3999023 11.039094925 45.023990631 1.4506218433 24.399772644 1.2220606804
 3407.5000000 10.870294571 46.401920319 1.4544594288 24.462974548 1.2060351372
 3407.5998535 11.090440750 49.221542358 1.4579391479 24.477413177 1.1826646328
 3407.6999512 11.620439529 52.709407806 1.4646618366 24.435035706 1.1587104797
 3407.8000488 12.288787842 57.036617279 1.4759325981 24.329048157 1.1397531033
 3407.8999023 12.913667679 61.982753754 1.4894714355 24.154376984 1.1284954548
 3408.0000000 13.381251335 66.796173096 1.5004675388 23.916011810 1.1242721081
 3408.1000977 13.667436600 71.006515503 1.5039231777 23.632427216 1.1238875389
 3408.1999512 13.808914185 72.501632690 1.4967975616 23.332767487 1.1232764721
 3408.3000488 13.863376617 72.154907227 1.4794695377 23.056213379 1.1194486618
 3408.4001465 13.878440857 68.687194824 1.4560885429 22.846279144 1.1120190620
 3408.5000000 13.879855156 63.998538971 1.4333324432 22.729621887 1.1036224365
 3408.6000977 13.877332687 59.066093445 1.4181320667 22.706661224 1.0988354683
 3408.7001953 13.874322891 54.881267548 1.4151742458 22.758380890 1.1020100117
 3408.8000488 13.872963905 51.800479889 1.4252369404 22.859394073 1.1151049137
 3408.9001465 13.874217987 49.398120880 1.4456193447 22.985248566 1.1369354725
 3409.0002441 13.877018929 47.990390778 1.4720146656 23.120220184 1.1641480923
 3409.1000977 13.879284859 46.724082947 1.4999876022 23.250747681 1.1928751469
 3409.2001953 13.878940582 45.567047119 1.5258903503 23.363685608 1.2197067738
 3409.2998047 13.875226974 44.676509857 1.5478010178 23.450057983 1.2421422005
 3409.3999023 13.869931221 44.029071808 1.5659704208 23.504463196 1.2588734627
 3409.5000000 13.866205215 43.599670410 1.5822429657 23.527229309 1.2697098255
 3409.5998535 13.865243912 43.824161530 1.5988428593 23.537433624 1.2751183510
 3409.6999512 13.865783691 44.283241272 1.6171355247 23.569412231 1.2759330273
 3409.8000488 13.866302490 44.946945190 1.6371486187 23.651622772 1.2734258175
 3409.8999023 13.865615845 45.980655670 1.6580016613 23.792449951 1.2693655491
 3410.0000000 13.862440109 47.012573242 1.6784205437 23.983470917 1.2658493519
 3410.1000977 13.855047226 48.040130615 1.6969990730 24.199192047 1.2649374008
 3410.1999512 13.840566635 48.563030243 1.7125427723 24.401607513 1.2682361603
 3410.3000488 13.812419891 48.768016815 1.7241683006 24.557308197 1.2765305042
 3410.4001465 13.760319710 48.598037720 1.7310817242 24.646671295 1.2892959118
 3410.5000000 13.677647591 47.798507690 1.7324888706 24.662410736 1.3043155670
 3410.6000977 13.572769165 46.993175507 1.7280697823 24.612823486 1.3179116249
 3410.6999512 13.471193314 46.258155823 1.7187418938 24.510833740 1.3261382580
 3410.8000488 13.405178070 46.255908966 1.7071449757 24.365077972 1.3265736103
 3410.9001465 13.398001671 46.651088715 1.6970081329 24.188037872 1.3197071552
 3411.0000000 13.453006744 47.583858490 1.6914675236 23.992954254 1.3090770245
 3411.1000977 13.550806046 49.100013733 1.6911532879 23.792655945 1.2996327877
 3411.2001953 13.657485962 50.819385529 1.6932754517 23.599670410 1.2950046062
 3411.3000488 13.740262985 52.722480774 1.6923377514 23.426738739 1.2954273224
 3411.4001465 13.783401489 54.277820587 1.6821081638 23.285572052 1.2975547314
 3411.5002441 13.792728424 55.442821503 1.6579587460 23.184055328 1.2962391376
 3411.6000977 13.785963058 55.767795563 1.6189422607 23.124832153 1.2872972488
 3411.6999512 13.778051376 55.501804352 1.5688841343 23.104812622 1.2699229717
 3411.7998047 13.774751663 54.996604919 1.5158152580 23.117332458 1.2477223873
 3411.8999023 13.775566101 54.396587372 1.4696495533 23.165843964 1.2280013561
 3412.0000000 13.776868820 53.845062256 1.4391400814 23.251983643 1.2199938297
 3412.0998535 13.769649506 53.299144745 1.4295020103 23.370845795 1.2329905033
 3412.1999512 13.733314514 52.656681061 1.4417586327 23.509880066 1.2747185230
 3412.3000488 13.632057190 52.010410309 1.4737672806 23.653228760 1.3499877453
 3412.3999023 13.423351288 51.460639954 1.5220932961 23.780532837 1.4593627453
 3412.5000000 13.082222939 51.677597046 1.5840027332 23.876071930 1.5987105370
 3412.6000977 12.621463776 52.543922424 1.6588757038 23.945415497 1.7600560188
 3412.6999512 12.095006943 53.899085999 1.7480332851 24.018230438 1.9323978424
