# LAS format log file from PETREL
# Project units are specified as depth units
#==================================================================
~Version information
VERS.   2.0:
WRAP.   NO:
#==================================================================
~Well
STRT .m      873.00000000 :
STOP .m      3593.0000000 :
STEP .m     0.00000000 :
NULL .        -999.250000 :
COMP.           : COMPANY
WELL.  7/7-3 Brynhild Appr   : WELL
FLD.            : FIELD
LOC.            : LOCATION
SRVC.           : SERVICE COMPANY
DATE.  2018-09-11 21:49:23   : Log Export Date {yyyy-MM-dd HH:mm:ss}
PROV.           : PROVINCE
UWI.   7/7-3   : UNIQUE WELL ID
API.            : API NUMBER
#==================================================================
~Curve
DEPT .m                   : DEPTH
CALI .in                  : CALI
GR .gAPI                  : GR
RDEP .ohm.m               : RDEP
SP .mV                    : SP
RMED .ohm.m               : RMED
~Parameter
#==================================================================
~Ascii
# ...
 1087.2000732 18.043334961 162.22677612 0.9738501310 12.742311478 0.7891120911
 1087.2999268 18.043334961 161.13258362 0.9769870043 12.743801117 0.7892475128
 1087.4000244 18.043334961 160.29283142 0.9806426764 12.709661484 0.7887551785
 1087.5000000 18.043334961 159.72694397 0.9843063354 12.645824432 0.7877451181
 1087.5999756 18.043334961 159.06961060 0.9876182079 12.573118210 0.7863165140
 1087.7000732 18.043334961 158.38020325 0.9904370308 12.521299362 0.7845072746
 1087.8000488 18.043334961 157.69725037 0.9928869009 12.512794495 0.7823575735
 1087.9000244 18.043334961 157.45275879 0.9952653646 12.551717758 0.7800413370
 1088.0000000 18.043334961 157.52583313 0.9978572130 12.619384766 0.7779544592
 1088.0999756 18.043334961 158.20880127 1.0007584095 12.681978226 0.7766178846
 1088.2000732 18.043334961 159.11393738 1.0036873817 12.707624435 0.7763441801
 1088.3000488 18.043334961 160.14443970 1.0059735775 12.681634903 0.7769238949
 1088.4000244 18.043334961 161.19221497 1.0068528652 12.612209320 0.7776157856
 1088.5000000 18.043334961 162.15393066 1.0059018135 12.520906448 0.7775030136
 1088.5999756 18.043334961 163.03778076 1.0032689571 12.425312042 0.7759686708
 1088.6999512 18.043334961 163.66278076 0.9995338917 12.334081650 0.7729654312
 1088.8000488 18.043334961 164.02493286 0.9953149557 12.256738663 0.7688764334
 1088.9000244 18.043334961 164.15960693 0.9908487797 12.205873489 0.7641432285
 1089.0000000 18.043334961 163.98057556 0.9858223200 12.195856094 0.7590025663
 1089.0999756 18.043334961 163.90063477 0.9795093536 12.233104706 0.7534555197
 1089.1999512 18.043334961 163.92149353 0.9711645842 12.314207077 0.7474282980
 1089.3000488 18.043334961 164.33897400 0.9604927301 12.419235229 0.7409718037
 1089.4000244 18.043334961 164.68103027 0.9478768110 12.518041611 0.7343349457
 1089.5000000 18.043334961 164.91610718 0.9342085123 12.584537506 0.7278417349
 1089.5999756 18.043334961 164.45401001 0.9204676151 12.609489441 0.7217090130
 1089.6999512 18.043334961 163.71841431 0.9074009657 12.603082657 0.7160001993
 1089.8000488 18.043334961 162.65596008 0.8954118490 12.588991165 0.7107071877
 1089.9000244 18.043334961 161.92155457 0.8846060038 12.589284897 0.7058391571
 1090.0000000 18.043334961 161.55484009 0.8749209642 12.619384766 0.7014356852
 1090.0999756 18.043334961 161.78131104 0.8662588596 12.678022385 0.6974897385
 1090.1999512 18.043334961 162.32160950 0.8585979939 12.743776321 0.6939325333
 1090.2999268 18.043334961 162.76994324 0.8520376682 12.783773422 0.6907233000
 1090.4000244 18.043334961 162.85633850 0.8467320204 12.773962021 0.6879543066
 1090.5000000 18.043334961 162.22192383 0.8428180218 12.712015152 0.6858550310
 1090.5999756 18.043334961 161.23271179 0.8403358459 12.611783981 0.6846961975
 1090.7000732 18.043334961 159.79869080 0.8391809464 12.495920181 0.6846108437
 1090.7999268 18.043334961 158.54687500 0.8391309977 12.389038086 0.6854207516
 1090.9000244 18.043334961 157.55162048 0.8399428129 12.313632965 0.6866611242
 1091.0000000 18.043334961 157.29884338 0.8414683342 12.284412384 0.6878412962
 1091.0999756 18.043334961 157.63215637 0.8436803818 12.301370621 0.6887404919
 1091.2000732 18.043334961 158.22825623 0.8465790749 12.353519440 0.6894881725
 1091.3000488 18.043334961 158.77629089 0.8500268459 12.422115326 0.6904242039
 1091.4000244 18.043334961 158.61618042 0.8536556959 12.488868713 0.6918412447
 1091.5000000 18.043334961 157.93914795 0.8569954634 12.540369034 0.6937713623
 1091.5999756 18.043334961 156.37812805 0.8597449064 12.568309784 0.6959764957
 1091.7000732 18.043334961 154.98760986 0.8619371653 12.569458008 0.6981453896
 1091.8000488 18.042716980 153.81393433 0.8639453650 12.543785095 0.7001193762
 1091.9000244 18.040222168 154.00434875 0.8662760258 12.492343903 0.7019852400
 1092.0000000 18.035652161 155.33610535 0.8693023920 12.423065186 0.7039643526
 1092.0999756 18.030105591 157.65347290 0.8731062412 12.352067947 0.7062549591
 1092.1999512 18.025527954 160.72030640 0.8775061369 12.299982071 0.7090022564
 1092.3000488 18.023742676 163.27398682 0.8820140362 12.286033630 0.7123547792
 1092.4000244 18.025531769 165.29039001 0.8858388662 12.316621780 0.7163645029
 1092.5000000 18.030105591 166.07489014 0.8881422281 12.371150970 0.7207378149
 1092.5999756 18.035655975 166.43437195 0.8883713484 12.409534454 0.7246943712
 1092.6999512 18.040222168 166.31066895 0.8865021467 12.403778076 0.7271410227
 1092.8000488 18.042716980 165.81159973 0.8831429482 12.353763580 0.7271871567
 1092.9000244 18.043334961 165.02116394 0.8793394566 12.282459259 0.7247333527
 1093.0000000 18.043334961 163.83479309 0.8761845827 12.222845078 0.7207218409
 1093.0999756 18.043334961 162.31591797 0.8743704557 12.201822281 0.7168091536
 1093.1999512 18.043334961 161.05392456 0.8737841845 12.226749420 0.7145234346
 1093.3000488 18.043334961 160.36711121 0.8734455109 12.283702850 0.7143803835
 1093.4000244 18.043334961 161.12216187 0.8719706535 12.338413239 0.7156592607
 1093.5000000 18.043334961 162.55053711 0.8682694435 12.357934952 0.7169740200
 1093.5999756 18.043334961 164.83120728 0.8620080948 12.330154419 0.7171313763
 1093.6999512 18.043334961 166.62362671 0.8537383080 12.265413284 0.7157077789
 1093.7999268 18.043334961 167.82733154 0.8447057009 12.184104919 0.7131125927
 1093.9000244 18.043334961 167.70010376 0.8363890648 12.114290237 0.7102378607
 1094.0000000 18.043334961 166.73086548 0.8299669027 12.083360672 0.7079788446
 1094.0999756 18.043334961 165.45001221 0.8259623051 12.106126785 0.7069098949
 1094.2000732 18.043334961 164.18127441 0.8241713047 12.175479889 0.7071684599
 1094.2999268 18.043334961 163.14985657 0.8239849806 12.266220093 0.7085260153
 1094.4000244 18.043334961 162.22673035 0.8247839212 12.352678299 0.7106076479
 1094.5000000 18.043334961 161.30557251 0.8261350393 12.417184830 0.7130481005
 1094.5999756 18.043334961 160.40328979 0.8278186321 12.444942474 0.7155303955
 1094.7000732 18.043334961 159.57470703 0.8297262192 12.425262451 0.7178221941
 1094.8000488 18.043334961 159.27011108 0.8317826986 12.356325150 0.7198216915
 1094.9000244 18.043334961 159.54821777 0.8339836597 12.253591537 0.7214990854
 1095.0000000 18.043334961 160.26185608 0.8363564014 12.147575378 0.7228145599
 1095.0999756 18.043334961 161.28747559 0.8388661146 12.077796936 0.7237156630
 1095.1999512 18.043334961 162.00451660 0.8413478136 12.076856613 0.7242050171
 1095.3000488 18.043334961 162.44789124 0.8435570002 12.148880005 0.7243578434
 1095.4000244 18.043334961 162.42321777 0.8452678919 12.262828827 0.7242698669
 1095.5000000 18.043334961 162.43627930 0.8463635445 12.366697311 0.7239899635
 1095.5999756 18.043334961 162.48887634 0.8469320536 12.416540146 0.7235219479
 1095.6999512 18.043334961 162.79742432 0.8473130465 12.402067184 0.7228983641
 1095.8000488 18.043334961 163.25787354 0.8480108976 12.345138550 0.7222343683
 1095.9000244 18.043334961 163.89779663 0.8494631052 12.285497665 0.7216562033
 1096.0000000 18.043334961 164.79985046 0.8518584967 12.251176834 0.7212411165
 1096.0999756 18.043334961 165.83273315 0.8551909924 12.248222351 0.7210657597
 1096.1999512 18.043334961 167.03120422 0.8594521284 12.265256882 0.7213333845
 1096.3000488 18.043334961 168.13226318 0.8646743298 12.287059784 0.7224417925
 1096.4000244 18.043334961 168.92675781 0.8708254099 12.305946350 0.7248229980
 1096.5000000 18.042716980 169.16885376 0.8776468039 12.321992874 0.7285823822
 1096.6000977 18.040222168 168.59062195 0.8846038580 12.339609146 0.7331660986
 1096.6999512 18.035652161 167.54563904 0.8909689188 12.361244202 0.7374848127
 1096.8000488 18.030105591 165.81121826 0.8959668875 12.385644913 0.7404189110
 1096.9000244 18.025527954 163.51423645 0.8990153074 12.413415909 0.7414124012
 1097.0000000 18.023742676 161.02902222 0.8999748230 12.440696716 0.7407312393
 1097.0999756 18.025531769 158.47969055 0.8991506100 12.460966110 0.7391462326
 1097.1999512 18.030105591 156.82551575 0.8970546722 12.464929581 0.7373087406
 1097.2999268 18.035655975 155.95364380 0.8940595388 12.444845200 0.7353502512
