# LAS format log file from PETREL
# Project units are specified as depth units
#==================================================================
~Version information
VERS.   2.0:
WRAP.   NO:
#==================================================================
~Well
STRT .m      873.00000000 :
STOP .m      3593.0000000 :
STEP .m     0.00000000 :
NULL .        -999.250000 :
COMP.           : COMPANY
WELL.  7/7-3 Brynhild Appr   : WELL
FLD.            : FIELD
LOC.            : LOCATION
SRVC.           : SERVICE COMPANY
DATE.  2018-09-11 21:49:23   : Log Export Date {yyyy-MM-dd HH:mm:ss}
PROV.           : PROVINCE
UWI.   7/7-3   : UNIQUE WELL ID
API.            : API NUMBER
#==================================================================
~Curve
DEPT .m                   : DEPTH
CALI .in                  : CALI
GR .gAPI                  : GR
RDEP .ohm.m               : RDEP
SP .mV                    : SP
RMED .ohm.m               : RMED
~Parameter
#==================================================================
~Ascii
# ...
 1260.5999756 18.565719604 156.36694336 0.8953868151 11.545566559 0.7853329182
 1260.6999512 18.565719604 156.38642883 0.8994932175 11.451129913 0.7850662470
 1260.7999268 18.565719604 156.49832153 0.9045413733 11.405275345 0.7848490477
 1260.9000244 18.565719604 156.38058472 0.9095780849 11.403240204 0.7850874662
 1261.0000000 18.565719604 156.01483154 0.9138964415 11.434427261 0.7861508131
 1261.0999756 18.565719604 155.32879639 0.9173740149 11.485206604 0.7882473469
 1261.2000732 18.565719604 154.57977295 0.9203689098 11.543956757 0.7912229300
 1261.3000488 18.565719604 154.05650330 0.9232630730 11.603509903 0.7943930626
 1261.4000244 18.565719604 153.91770935 0.9260329008 11.655084610 0.7969533205
 1261.5001221 18.565719604 154.26541138 0.9282184839 11.689493179 0.7981694937
 1261.5999756 18.565719604 154.70750427 0.9291280508 11.694995880 0.7977489233
 1261.6999512 18.565719604 155.17308044 0.9281646013 11.657892227 0.7960448265
 1261.7999268 18.565719604 155.30351257 0.9250987768 11.572994232 0.7938036919
 1261.9000244 18.565719604 155.23931885 0.9200997353 11.450531006 0.7916069031
 1262.0000000 18.566333771 154.88655090 0.9135835171 11.321735382 0.7895153761
 1262.0999756 18.569446564 154.35325623 0.9060845375 11.223283768 0.7869015932
 1262.1999512 18.577129364 153.68196106 0.8982628584 11.184032440 0.7830309868
 1262.3000488 18.590976715 152.74568176 0.8908109665 11.215974808 0.7777251005
 1262.4000244 18.611900330 151.55641174 0.8843091726 11.308984756 0.7715154886
 1262.5000000 18.638553619 150.29763794 0.8790770769 11.433633804 0.7652481794
 1262.6000977 18.667091370 149.19322205 0.8750377893 11.548105240 0.7596861124
 1262.7000732 18.693561554 148.94195557 0.8716728687 11.612697601 0.7551501989
 1262.7999268 18.715286255 149.34284973 0.8681683540 11.607389450 0.7513042688
 1262.8999023 18.731628418 151.11323547 0.8637148142 11.532035828 0.7475308180
 1263.0000000 18.743686676 153.24879456 0.8577849865 11.407241821 0.7434847355
 1263.0999756 18.753768921 155.54058838 0.8501318693 11.264108658 0.7391436100
 1263.1999512 18.763957977 157.08522034 0.8408341408 11.132066727 0.7345947027
 1263.3000488 18.775306702 157.65434265 0.8303928375 11.031675339 0.7296081781
 1263.4000244 18.789764404 157.42770386 0.8196731806 10.969827652 0.7234581709
 1263.5000000 18.815677643 156.28096008 0.8097559214 10.942325592 0.7155625820
 1263.6000977 18.864177704 155.25949097 0.8016864061 10.946229935 0.7062696218
 1263.7000732 18.932579041 154.35740662 0.7962977886 10.985017776 0.6971547604
 1263.8000488 19.004978180 153.97445679 0.7941651344 11.057737350 0.6906317472
 1263.9000244 19.056930542 153.60424805 0.7954739332 11.147953033 0.6889350414
 1264.0000000 19.069831848 153.24414063 0.7998348475 11.230556488 0.6929626465
 1264.0999756 19.041381836 152.41157532 0.8061845303 11.281457901 0.7017800808
 1264.1999512 18.988666534 151.24693298 0.8130030632 11.289731979 0.7130739689
 1264.2999268 18.938713074 149.66256714 0.8188061714 11.262069702 0.7240760326
 1264.4000244 18.912849426 147.92457581 0.8227159977 11.217267990 0.7325220108
 1264.5000000 18.915023804 146.58195496 0.8248912096 11.173940659 0.7373898029
 1264.5999756 18.931354523 145.93199158 0.8264746666 11.139350891 0.7389400005
 1264.7000732 18.940990448 146.62698364 0.8290357590 11.108213425 0.7383059263
 1264.8000488 18.936527252 147.92359924 0.8338024616 11.077037811 0.7370998859
 1264.9000244 18.924430847 149.97018433 0.8412230015 11.051404953 0.7369332314
 1265.0001221 18.922088623 151.83912659 0.8511171341 11.045253754 0.7390216589
 1265.0999756 18.945587158 153.38949585 0.8628199100 11.069486618 0.7440165281
 1265.1999512 18.995082855 154.23603821 0.8749761581 11.124635696 0.7518076897
 1265.2999268 19.057514191 154.56851196 0.8855227232 11.197732925 0.7614628077
 1265.4000244 19.113185883 154.61682129 0.8924766779 11.265182495 0.7715209723
 1265.5000000 19.149288177 154.28016663 0.8949811459 11.298711777 0.7805110216
 1265.5999756 19.160289764 153.55630493 0.8939486742 11.282470703 0.7874300480
 1265.6999512 19.150413513 152.64866638 0.8920317888 11.226053238 0.7921223640
 1265.8000488 19.131637573 151.64212036 0.8929930925 11.159801483 0.7954406738
 1265.9000244 19.111961365 151.16973877 0.9004533291 11.117059708 0.7986501455
 1266.0000000 19.090160370 151.11029053 0.9163633585 11.118339539 0.8026469946
 1266.1000977 19.057743073 151.93777466 0.9399632215 11.163034439 0.8078484535
 1266.2000732 19.009689331 153.18626404 0.9676598310 11.230749130 0.8144735098
 1266.2999268 18.952724457 154.70671082 0.9939370155 11.298297882 0.8226902485
 1266.3999023 18.897766113 156.26426697 1.0129959583 11.355958939 0.8319737911
 1266.5000000 18.855297089 157.23080444 1.0204110146 11.408754349 0.8404963017
 1266.5999756 18.830883026 157.66978455 1.0144214630 11.465234756 0.8450415134
 1266.6999512 18.825729370 156.45755005 0.9967037439 11.522872925 0.8416441679
 1266.8000488 18.835552216 154.10180664 0.9719183445 11.564832687 0.8271489143
 1266.9000244 18.849948883 150.66259766 0.9460587502 11.573347092 0.8015261889
 1267.0000000 18.862823486 146.53755188 0.9243694544 11.541320801 0.7691880465
 1267.1000977 18.874599457 143.08732605 0.9097515345 11.479190826 0.7383652925
 1267.2000732 18.887462616 140.43348694 0.9020850658 11.408948898 0.7179938555
 1267.3000488 18.903186798 139.54370117 0.8989423513 11.351602554 0.7135676146
 1267.4000244 18.922840118 139.36065674 0.8970474005 11.317829132 0.7243999243
 1267.5000000 18.947425842 140.01094055 0.8934247494 11.304422379 0.7442518473
 1267.5999756 18.974365234 141.01194763 0.8861794472 11.299686432 0.7641078234
 1267.6999512 18.998687744 142.09611511 0.8750400543 11.294672012 0.7760826349
 1267.7999268 19.015522003 143.24978638 0.8613235950 11.287778854 0.7767089605
 1267.9000244 19.022209167 144.63392639 0.8473224640 11.282922745 0.7677204609
 1268.0000000 19.019252777 146.10316467 0.8353236914 11.284788132 0.7539335489
 1268.0999756 19.010715485 147.66693115 0.8267995119 11.294111252 0.7404986620
 1268.2000732 19.003345490 148.79574585 0.8222172260 11.300601959 0.7307676077
 1268.3000488 19.003776550 149.50151062 0.8211258650 11.286094666 0.7253741026
 1268.4000244 19.015930176 149.37852478 0.8222063780 11.233240128 0.7227380276
 1268.5001221 19.040359497 148.78280640 0.8235926628 11.136825562 0.7203458548
 1268.6000977 19.072029114 148.12338257 0.8237063885 11.009761810 0.7160505056
 1268.6999512 19.105998993 147.78851318 0.8216758966 10.881309509 0.7091469765
 1268.7999268 19.136268616 148.15414429 0.8172132969 10.783832550 0.7007451057
 1268.9000244 19.157779694 148.91213989 0.8106229305 10.740066528 0.6933053732
 1269.0000000 19.166942596 150.09423828 0.8028751612 10.757646561 0.6895751953
 1269.0999756 19.165607452 150.86157227 0.7952644825 10.824815750 0.6913318634
 1269.1999512 19.153987885 151.26428223 0.7888737917 10.914909363 0.6981452703
 1269.3000488 19.130867004 150.68154907 0.7840182781 11.000709534 0.7073457241
 1269.4000244 19.094116211 149.72488403 0.7802568674 11.063861847 0.7152417898
 1269.5000000 19.047451019 148.54440308 0.7769310474 11.099708557 0.7187619209
 1269.6000977 19.003032684 147.61100769 0.7736630440 11.109933853 0.7165238857
 1269.7000732 18.979606628 147.17042542 0.7703268528 11.098196030 0.7088886499
 1269.7999268 18.981491089 147.13978577 0.7671835423 11.072610855 0.6972804070
 1269.8999023 18.999275208 147.67204285 0.7650909424 11.047439575 0.6838279963
 1270.0000000 19.012771606 148.14616394 0.7650717497 11.040069580 0.6712361574
 1270.0999756 19.002960205 148.56269836 0.7676296234 11.065338135 0.6626499891
 1270.1999512 18.960819244 148.47702026 0.7726422548 11.130701065 0.6609563828
 1270.3000488 18.898754120 148.02371216 0.7795035839 11.230823517 0.6674110889
 1270.4000244 18.847381592 147.14912415 0.7871514559 11.346271515 0.6807172298
 1270.5000000 18.847431183 145.68904114 0.7940707207 11.450067520 0.6971293688
 1270.5999756 18.933898926 144.11576843 0.7985416651 11.514198303 0.7118386030
 1270.7000732 19.120906830 142.43528748 0.7994061708 11.521102905 0.7209277153
