# LAS format log file from PETREL
# Project units are specified as depth units
#==================================================================
~Version information
VERS.   2.0:
WRAP.   NO:
#==================================================================
~Well
STRT .m      855.12506104 :
STOP .m      3436.8750000 :
STEP .m     0.00000000 :
NULL .        -999.250000 :
COMP.           : COMPANY
WELL.  7/7-2 Brynhild   : WELL
FLD.            : FIELD
LOC.            : LOCATION
SRVC.           : SERVICE COMPANY
DATE.  2018-09-11 21:49:22   : Log Export Date {yyyy-MM-dd HH:mm:ss}
PROV.           : PROVINCE
UWI.   7/7-2   : UNIQUE WELL ID
API.            : API NUMBER
#==================================================================
~Curve
DEPT .m                   : DEPTH
CALI .in                  : CALI
DRHO .g/cm3               : DRHO
NPHI .m3/m3               : NPHI
RHOB .g/cm3               : RHOB
GR .gAPI                  : GR
DTC .us/ft                : DTC
RDEP .ohm.m               : RDEP
SP .mV                    : SP
RSHA .ohm.m               : RSHA
RMED .ohm.m               : RMED
~Parameter
#==================================================================
~Ascii
# ...
 1884.1250000 19.212299347 0.0581000000  -999.250000 2.3279027939 79.601196289 138.43544006 0.7863000035 44.822315216  -999.250000 0.7161999941
 1884.2500000 19.214000702 0.0590000004  -999.250000 2.3295841217 84.515899658 139.22389221 0.7763000131 44.380573273  -999.250000 0.7023000121
 1884.3750000 19.260200500 0.0537000000  -999.250000 2.3148517609 92.249702454 139.91252136 0.7732999921 45.150592804  -999.250000 0.6996999979
 1884.5000000 19.304800034 0.0252000000  -999.250000 2.2694606781 81.591201782 140.86909485 0.7748000026 45.205970764  -999.250000 0.7012000084
 1884.6250000 19.302200317 0.0408000015  -999.250000 2.3021812439 83.878196716 141.85307312 0.7745000124 44.079292297  -999.250000 0.7037000060
 1884.7500000 19.236299515 0.0377000012  -999.250000 2.2770667076 81.972900391 142.80436707 0.7889999747 44.834850311  -999.250000 0.7027000189
 1884.8751221 19.259500504 0.0458000004  -999.250000 2.2778978348 86.230796814 143.97267151 0.8051999807 44.840866089  -999.250000 0.7006000280
 1884.9998779 19.279100418 0.0131000001  -999.250000 2.2501134872 83.708999634 144.84762573 0.8208000064 44.015605927  -999.250000 0.7035999894
 1885.1250000 19.215799332 0.0545999967  -999.250000 2.2971467972 92.230499268 145.33218384 0.8478999734 44.539291382  -999.250000 0.7113000154
 1885.2500000 19.304800034 0.0326000005  -999.250000 2.2614789009 84.357398987 144.67634583 0.8680999875 44.162288666  -999.250000 0.7256000042
 1885.3750000 19.304800034 0.0149999997  -999.250000 2.2432041168 82.705902100 143.08685303 0.8873000145 43.884326935  -999.250000 0.7337999940
 1885.5000000 19.304800034 0.0403999984  -999.250000 2.2760519981 80.410598755 141.17703247 0.8946999907 43.637382507  -999.250000 0.7398999929
 1885.6250000 19.305700302 0.0351999998  -999.250000 2.2450184822 84.878501892 139.50253296 0.9042000175 43.310832977  -999.250000 0.7549999952
 1885.7500000 19.328800201 0.0533999987  -999.250000 2.2535200119 82.263999939 138.86106873 0.9052000046 43.847980499  -999.250000 0.7795000076
 1885.8750000 19.349399567 0.0346999988  -999.250000 2.2347607613 77.901000977 138.69493103 0.8963000178 43.723232269  -999.250000 0.7606999874
 1886.0000000 19.304800034 0.0282000005  -999.250000 2.2508788109 74.820602417 138.64270020 0.8985999823 43.864128113  -999.250000 0.7353000045
 1886.1251221 19.300500870 0.0625000000  -999.250000 2.3335428238 84.149696350 138.79417419 0.9065999985 44.581237793  -999.250000 0.7228999734
 1886.2500000 19.186599731 0.0408999994  -999.250000 2.3295884132 76.623497009 139.55146790 0.8752999902 43.889698029  -999.250000 0.7254999876
 1886.3750000 19.119899750 0.0926000029  -999.250000 2.3744568825 75.785102844 139.83865356 0.8331000209 43.748790741  -999.250000 0.7210000157
 1886.5000000 19.123300552 0.0511999987  -999.250000 2.3030352592 77.799400330 139.55981445 0.8155000210 43.974086761  -999.250000 0.7106000185
 1886.6250000 19.214000702 0.0689999983  -999.250000 2.3485636711 81.168899536 139.10617065 0.8030999899 43.351844788  -999.250000 0.7239000201
 1886.7500000 19.255100250 0.0551999994  -999.250000 2.3406238556 82.752998352 138.73458862 0.7803000212 43.044063568  -999.250000 0.7117000222
 1886.8750000 19.167800903 0.0577000007  -999.250000 2.3221659660 79.502403259 138.48904419 0.7710999846 42.670440674  -999.250000 0.7091000080
 1887.0000000 19.212299347 0.0381000005  -999.250000 2.2901062965 86.791702271 137.99353027 0.7782999873 42.346115112  -999.250000 0.7092999816
 1887.1250000 19.214899063 0.0673000067  -999.250000 2.3491516113 81.238601685 138.64323425 0.7901999950 42.477134705  -999.250000 0.7113000154
 1887.2501221 19.280799866 0.0342999995  -999.250000 2.2918477058 83.594802856 139.03305054 0.7881000042 42.123268127  -999.250000 0.6995999813
 1887.3748779 19.255100250 0.0681999996  -999.250000 2.3468723297 86.965400696 138.86372375 0.7857000232 41.790561676  -999.250000 0.7023000121
 1887.5000000 19.164400101 0.0493000001  -999.250000 2.3220558167 77.577598572 138.36906433 0.7932000160 42.328357697  -999.250000 0.7128000259
 1887.6250000 19.119899750 0.0483000018  -999.250000 2.3301100731 81.335502625 138.07873535 0.7958999872 42.414554596  -999.250000 0.7264999747
 1887.7500000 19.119899750 0.0342000015  -999.250000 2.3102030754 81.893203735 137.89025879 0.7871000171 42.754055023  -999.250000 0.7145000100
 1887.8750000 19.119899750 0.0361000001  -999.250000 2.3158378601 81.149002075 137.09390259 0.7778999805 42.544696808  -999.250000 0.7078999877
 1888.0000000 19.119899750 0.0255999994  -999.250000 2.2985582352 80.104896545 136.97428894 0.7746999860 42.302650452  -999.250000 0.7013000250
 1888.1250000 19.116399765 0.0276999995  -999.250000 2.2724804878 80.175796509 137.43933105 0.7652999759 42.017402649  -999.250000 0.7232999802
 1888.2500000 19.027399063 0.0201999992  -999.250000 2.2819218636 84.455200195 138.14895630 0.7635999918 41.485107422  -999.250000 0.7128999829
 1888.3751221 19.027399063 0.0163000003  -999.250000 2.2547831535 82.550300598 138.92480469 0.7631999850 41.919120789  -999.250000 0.7156999707
 1888.4998779 19.027399063 0.0428999998  -999.250000 2.2983465195 82.528297424 140.86990356 0.7627000213 42.189254761  -999.250000 0.6934000254
 1888.6250000 19.027399063 0.0362000018  -999.250000 2.2638144493 81.753997803 142.67631531 0.7574999928 41.889099121  -999.250000 0.6801999807
 1888.7500000 19.027399063 0.0342999995  -999.250000 2.2785887718 80.680999756 143.78849792 0.7444999814 42.078926086  -999.250000 0.6804000139
 1888.8750000 19.024799347 0.0478000008  -999.250000 2.2799682617 79.925903320 144.01622009 0.7285000086 41.785911560  -999.250000 0.6854000092
 1889.0000000 18.957199097 0.0575000010  -999.250000 2.2940049171 78.966102600 143.42366028 0.7128999829 41.450298309  -999.250000 0.6904000044
 1889.1250000 18.934900284 0.0559000000  -999.250000 2.2915487289 80.634597778 142.05833435 0.7013000250 40.810192108  -999.250000 0.6880999804
 1889.2500000 18.934900284 0.0148000000  -999.250000 2.2407341003 80.892898560 141.12402344 0.6948999763 40.362819672  -999.250000 0.6913999915
 1889.3750000 18.934900284 0.0284000002  -999.250000 2.2548918724 78.043502808 141.50334167 0.6930999756 40.916076660  -999.250000 0.6908000112
 1889.5000000 18.934900284 0.0310999993  -999.250000 2.2660279274 78.806297302 142.70576477 0.6958000064 40.568706512  -999.250000 0.6751000285
 1889.6251221 18.934900284 0.0183000006  -999.250000 2.2376680374 81.670700073 144.07759094 0.7003999949 40.451877594  -999.250000 0.6696000099
 1889.7498779 18.934900284 0.0443999991  -999.250000 2.2660994530 82.462600708 145.13778687 0.7078999877 40.699203491  -999.250000 0.6676999927
 1889.8750000 18.934900284 0.0189999994  -999.250000 2.2313838005 80.156700134 145.33128357 0.7139000297 40.543727875  -999.250000 0.6715000272
 1890.0000000 18.934900284 0.0395000018  -999.250000 2.2628951073 80.236801147 144.74340820 0.7106000185 40.898296356  -999.250000 0.6851999760
 1890.1250000 18.934900284 0.0401999988  -999.250000 2.2603945732 78.431701660 143.67886353 0.7064999938 41.171375275  -999.250000 0.6873999834
 1890.2500000 18.934900284 0.0284000002  -999.250000 2.2355327606 80.461303711 142.72708130 0.7153000236 40.534873962  -999.250000 0.6894000173
 1890.3750000 18.934900284 0.0362999998  -999.250000 2.2396802902 81.409896851 142.40235901 0.7239000201 40.546260834  -999.250000 0.6929000020
 1890.5000000 18.934900284 0.0493000001  -999.250000 2.2678937912 83.257499695 142.50024414 0.7268000245 40.966640472  -999.250000 0.6960999966
 1890.6250000 18.934900284 0.0535999984  -999.250000 2.2681379318 84.855102539 142.32705688 0.7289000154 40.801757813  -999.250000 0.7024999857
 1890.7501221 18.934900284 0.0447999984  -999.250000 2.2582449913 79.694801331 142.54798889 0.7372000217 41.225265503  -999.250000 0.6995999813
 1890.8748779 18.934900284 0.0403000005  -999.250000 2.2545804977 75.040100098 142.84385681 0.7405999899 41.751628876  -999.250000 0.6935999990
 1891.0000000 18.934900284 0.0758000016  -999.250000 2.2892575264 81.639297485 143.11557007 0.7419000268 41.894195557  -999.250000 0.6893000007
