# LAS format log file from PETREL
# Project units are specified as depth units
#==================================================================
~Version information
VERS.   2.0:
WRAP.   NO:
#==================================================================
~Well
STRT .m      513.13079834 :
STOP .m      3511.9055176 :
STEP .m     0.00000000 :
NULL .        -999.250000 :
COMP.           : COMPANY
WELL.  7/7-1   : WELL
FLD.            : FIELD
LOC.            : LOCATION
SRVC.           : SERVICE COMPANY
DATE.  2018-09-11 21:49:22   : Log Export Date {yyyy-MM-dd HH:mm:ss}
PROV.           : PROVINCE
UWI.   7/7-1   : UNIQUE WELL ID
API.            : API NUMBER
#==================================================================
~Curve
DEPT .m                   : DEPTH
CALI .in                  : CALI
DRHO .g/cm3               : DRHO
NPHI .m3/m3               : NPHI
RHOB .g/cm3               : RHOB
GR .gAPI                  : GR
DTC .us/ft                : DTC
RDEP .ohm.m               : RDEP
SP .mV                    : SP
RSHA .ohm.m               : RSHA
RMIC .ohm.m               : RMIC
RMED .ohm.m               : RMED
~Parameter
#==================================================================
~Ascii
# ...
 2316.3276367 17.707500458 0.0194930006  -999.250000 2.2498390675 42.382911682 135.69075012 0.6255999804 29.915100098 0.7936000228  -999.250000 0.6466000080
 2316.4799805 17.712400436 0.0195439998  -999.250000 2.2498018742 41.377708435 135.47169495 0.6340000033 29.456399918 0.8014000058  -999.250000 0.6546000242
 2316.6323242 17.790800095 0.0194049999  -999.250000 2.2519962788 42.882682800 135.41436768 0.6395000219 29.741600037 0.8033999801  -999.250000 0.6581000090
 2316.7849121 17.880399704 0.0192370005  -999.250000 2.2529747486 44.773998260 134.71720886 0.6445999742 30.139099121 0.8046000004  -999.250000 0.6607999802
 2316.9372559 17.969999313 0.0190689992  -999.250000 2.2587676048 46.662899017 134.29869080 0.6496000290 30.536600113 0.8058000207  -999.250000 0.6635000110
 2317.0895996 17.995100021 0.0180680007  -999.250000 2.2647173405 47.019626617 134.51956177 0.6549999714 30.308599472 0.8052999973  -999.250000 0.6675000191
 2317.2419434 17.975099564 0.0164819993  -999.250000 2.2659993172 46.305248260 134.50054932 0.6607999802 29.642400742 0.8036000133  -999.250000 0.6723999977
 2317.3945313 17.954999924 0.0148970000  -999.250000 2.2646450996 45.588100433 134.07780457 0.6664999723 28.976100922 0.8019999862  -999.250000 0.6772999763
 2317.5468750 17.910299301 0.0156660005  -999.250000 2.2623412609 45.192100525 134.51615906 0.6714000106 28.823999405 0.8019000292  -999.250000 0.6812999845
 2317.6992188 17.809799194 0.0217480008  -999.250000 2.2629990578 45.517677307 134.73674011 0.6743000150 29.832000732 0.8050000072  -999.250000 0.6834999919
 2317.8515625 17.709400177 0.0278299991  -999.250000 2.2653274536 45.843776703 134.50045776 0.6772999763 30.840099335 0.8080999851  -999.250000 0.6856999993
 2318.0039063 17.613599777 0.0335999988  -999.250000 2.2650058270 46.149806976 134.33885193 0.6801999807 31.796001434 0.8111000061  -999.250000 0.6876999736
 2318.1564941 17.690299988 0.0277989991  -999.250000 2.2648668289 45.707599640 134.73483276 0.6809999943 30.816299438 0.8123999834  -999.250000 0.6862000227
 2318.3088379 17.767000198 0.0219989996  -999.250000 2.2679953575 45.265609741 134.45774841 0.6816999912 29.836500168 0.8136000037  -999.250000 0.6845999956
 2318.4611816 17.843700409 0.0161990002  -999.250000 2.2673480511 44.822910309 133.98535156 0.6825000048 28.856800079 0.8148000240  -999.250000 0.6830999851
 2318.6135254 17.800500870 0.0182610005  -999.250000 2.2643921375 44.537357330 133.40345764 0.6822000146 29.604099274 0.8144000173  -999.250000 0.6830000281
 2318.7661133 17.716299057 0.0230080001  -999.250000 2.2603640556 44.305198669 134.03842163 0.6816999912 30.941200256 0.8134999871  -999.250000 0.6833999753
 2318.9182129 17.632200241 0.0277483910  -999.250000 2.2527749538 44.073970795 134.26013184 0.6811009645 32.276157379 0.8126014471  -999.250000 0.6838992238
 2319.0705566 17.584699631 0.0288732070  -999.250000 2.2478907108 43.967243195 134.02384949 0.6775057912 32.360271454 0.8112022877  -999.250000 0.6814039946
 2319.2231445 17.579299927 0.0258120000  -999.250000 2.2460019588 44.003940582 133.84338379 0.6704999804 30.996000290 0.8090999722  -999.250000 0.6755999923
 2319.3754883 17.573999405 0.0227548983  -999.250000 2.2411656380 44.041038513 134.07708740 0.6635112166 29.633882523 0.8070033193  -999.250000 0.6697000265
 2319.5278320 17.569000244 0.0193804093  -999.250000 2.2381916046 44.255455017 134.49662781 0.6580088139 28.655067444 0.8044041991  -999.250000 0.6643000245
 2319.6801758 17.565299988 0.0146196336  -999.250000 2.2373847961 45.256187439 134.57493591 0.6588985920 29.389419556 0.7996076941  -999.250000 0.6603000164
 2319.8327637 17.561500549 0.0098500000  -999.250000 2.2268936634 46.261390686 135.21586609 0.6599000096 30.127700806 0.7947000265  -999.250000 0.6564000249
 2319.9851074 17.557800293 0.0050880001  -999.250000 2.2110567093 47.264888763 134.99591064 0.6607999802 30.864700317 0.7897999883  -999.250000 0.6524999738
 2320.1374512 17.570999146 0.0028056575  -999.250000 2.2095789909 46.300449371 134.79266357 0.6624972820 30.639160156 0.7914972305  -999.250000 0.6621999741
 2320.2897949 17.585899353 0.0007862356  -999.250000 2.2179872990 45.122978210 135.28947449 0.6641972661 30.309728622 0.7939960361  -999.250000 0.6735000014
 2320.4423828 17.600900650 -0.001237000  -999.250000 2.2124679089 43.941493988 136.22708130 0.6660000086 29.979600906 0.7964000106  -999.250000 0.6847000122
 2320.5947266 17.591400146 0.0011140000  -999.250000 2.1990723610 44.255893707 136.64392090 0.6661999822 30.056100845 0.7989000082  -999.250000 0.6822000146
 2320.7470703 17.566999435 0.0061119907  -999.250000 2.1988143921 45.480533600 136.08996582 0.6654012799 30.378982544 0.8014958501  -999.250000 0.6714000106
 2320.8994141 17.542699814 0.0111179780  -999.250000 2.2076182365 46.706634521 134.91703796 0.6646013260 30.702281952 0.8039960265  -999.250000 0.6606000066
 2321.0517578 17.508399963 0.0142529812  -999.250000 2.2109949589 47.348346710 134.33712769 0.6646997929 30.765298843 0.8040000200  -999.250000 0.6545000076
 2321.2043457 17.454700470 0.0137719996  -999.250000 2.2115964890 46.863998413 135.12811279 0.6662999988 30.324600220 0.7987999916  -999.250000 0.6575999856
 2321.3566895 17.400899887 0.0132857794  -999.250000 2.2160816193 46.378379822 136.36927795 0.6678974628 29.884605408 0.7936083674  -999.250000 0.6607000232
 2321.5090332 17.349599838 0.0129465433  -999.250000 2.2252440453 46.032054901 135.87236023 0.6690980792 29.467567444 0.7889075279  -999.250000 0.6633999944
 2321.6613770 17.335599899 0.0149098476  -999.250000 2.2340328693 47.865753174 134.99293518 0.6644074917 29.419076920 0.7903976440  -999.250000 0.6618000269
 2321.8139648 17.321599960 0.0168789998  -999.250000 2.2404673100 49.705898285 134.95697021 0.6596999764 29.371200562 0.7918999791  -999.250000 0.6600999832
 2321.9663086 17.307699203 0.0188449994  -999.250000 2.2382290363 51.543201447 134.75778198 0.6549999714 29.323299408 0.7932999730  -999.250000 0.6583999991
 2322.1186523 17.292999268 0.0198294222  -999.250000 2.2351799011 51.613189697 134.42015076 0.6583945751 29.595262527 0.7921019197  -999.250000 0.6586999893
 2322.2709961 17.278200150 0.0205388647  -999.250000 2.2450294495 51.184387207 133.28320313 0.6640908718 29.958017349 0.7901031971  -999.250000 0.6596000195
 2322.4235840 17.263299942 0.0212490000  -999.250000 2.2512867451 50.754199982 133.16503906 0.6697999835 30.321500778 0.7881000042  -999.250000 0.6606000066
 2322.5759277 17.252899170 0.0198979992  -999.250000 2.2477171421 51.141899109 134.11984253 0.6733999848 30.418300629 0.7907999754  -999.250000 0.6649000049
 2322.7282715 17.246799469 0.0164824743  -999.250000 2.2460017204 52.349365234 134.79266357 0.6747977138 30.247972488 0.7982880473  -999.250000 0.6726999879
 2322.8806152 17.240800858 0.0130604841  -999.250000 2.2459416389 53.558761597 135.15589905 0.6762976050 30.077472687 0.8056881428  -999.250000 0.6804999709
 2323.0332031 17.191600800 0.0096770003  -999.250000 2.2379429340 55.276000977 134.40505981 0.6765000224 30.039800644 0.8109999895  -999.250000 0.6851000190
 2323.1855469 16.987499237 0.0064530000  -999.250000 2.2301168442 58.807701111 133.10784912 0.6722000241 30.481000900 0.8087999821  -999.250000 0.6786000133
 2323.3378906 16.783399582 0.0032351566  -999.250000 2.2303307056 62.333850861 133.17808533 0.6679068804 30.921493530 0.8067033291  -999.250000 0.6719999909
 2323.4902344 16.579299927 0.0000111667  -999.250000 2.2292335033 65.865539551 134.61325073 0.6636069417 31.362689972 0.8045035005  -999.250000 0.6654999852
 2323.6425781 16.599000931 0.0065664696  -999.250000 2.2213897705 69.264656067 135.82318115 0.6540153623 30.853418350 0.8019042015  -999.250000 0.6621000171
 2323.7951660 16.633800507 0.0138060004  -999.250000 2.2160000801 72.660102844 137.14457703 0.6441000104 30.277799606 0.7991999984  -999.250000 0.6589000225
 2323.9475098 16.668500900 0.0210234337  -999.250000 2.2170898914 76.044677734 137.33930969 0.6341159940 29.703918457 0.7966041565  -999.250000 0.6556000113
