# LAS format log file from PETREL
# Project units are specified as depth units
#==================================================================
~Version information
VERS.   2.0:
WRAP.   NO:
#==================================================================
~Well
STRT .m      873.00000000 :
STOP .m      3593.0000000 :
STEP .m     0.00000000 :
NULL .        -999.250000 :
COMP.           : COMPANY
WELL.  7/7-3 Brynhild Appr   : WELL
FLD.            : FIELD
LOC.            : LOCATION
SRVC.           : SERVICE COMPANY
DATE.  2018-09-11 21:49:23   : Log Export Date {yyyy-MM-dd HH:mm:ss}
PROV.           : PROVINCE
UWI.   7/7-3   : UNIQUE WELL ID
API.            : API NUMBER
#==================================================================
~Curve
DEPT .m                   : DEPTH
CALI .in                  : CALI
GR .gAPI                  : GR
RDEP .ohm.m               : RDEP
SP .mV                    : SP
RMED .ohm.m               : RMED
~Parameter
#==================================================================
~Ascii
# ...
 2688.6000977 13.275129318 82.096115112 0.7847765684 31.379085541 0.8280510902
 2688.6999512 13.323583603 83.981636047 0.7850863934 31.677965164 0.8321360350
 2688.8000488 13.376420021 86.492324829 0.7853276730 32.635871887 0.8342405558
 2688.9001465 13.424875259 90.773406982 0.7854351997 34.055114746 0.8339835405
 2689.0000000 13.461929321 95.509170532 0.7852927446 35.583206177 0.8315880299
 2689.1000977 13.484920502 100.64122772 0.7849034071 36.877334595 0.8277239799
 2689.2001953 13.495841980 105.31082153 0.7844420671 37.734077454 0.8232392073
 2689.3000488 13.499412537 109.30013275 0.7841960192 38.141731262 0.8189080954
 2689.4001465 13.500001907 112.61206818 0.7843784094 38.210144043 0.8152935505
 2689.5002441 13.500001907 113.79693604 0.7849240303 38.072517395 0.8127542734
 2689.6000977 13.500001907 114.19117737 0.7854751348 37.859931946 0.8114508390
 2689.6999512 13.500001907 113.69160461 0.7855863571 37.641517639 0.8112789392
 2689.7998047 13.500001907 111.45290375 0.7849433422 37.381431580 0.8118121624
 2689.8999023 13.499412537 108.41202545 0.7834388018 36.984580994 0.8123321533
 2690.0000000 13.496431351 104.38574982 0.7811021805 36.380584717 0.8120447397
 2690.0998535 13.489080429 99.486633301 0.7780247927 35.566879272 0.8104288578
 2690.1999512 13.476418495 94.728988647 0.7743242979 34.605972290 0.8075795174
 2690.3000488 13.459377289 90.498512268 0.7702307701 33.615165710 0.8042865992
 2690.3999023 13.440624237 88.016921997 0.7661260366 32.729431152 0.8017151356
 2690.5000000 13.423583984 86.551086426 0.7625411749 32.046310425 0.8008579016
 2690.6000977 13.410923004 86.600692749 0.7600538731 31.608015060 0.8020541668
 2690.6999512 13.403572083 87.522949219 0.7591116428 31.445585251 0.8048776388
 2690.8000488 13.399411201 88.767868042 0.7598512173 31.613420486 0.8084256649
 2690.9001465 13.392271042 90.218902588 0.7620223761 32.137039185 0.8117810488
 2691.0000000 13.373998642 91.603080750 0.7650434971 32.954261780 0.8142923117
 2691.1000977 13.338344574 92.894462585 0.7681612968 33.922889709 0.8156074286
 2691.1999512 13.291330338 93.900703430 0.7705672979 34.890457153 0.8155488968
 2691.3000488 13.264017105 94.775764465 0.7715721130 35.743705750 0.8138831854
 2691.4001465 13.303802490 95.644332886 0.7708741426 36.403747559 0.8103991747
 2691.5000000 13.449057579 96.808609009 0.7687407732 36.833946228 0.8052940369
 2691.6000977 13.705720901 98.239662170 0.7658915520 37.063522339 0.7994518280
 2691.7001953 14.039705276 99.843955994 0.7632044554 37.180000305 0.7942099571
 2691.8000488 14.388351440 101.61405945 0.7613779306 37.284942627 0.7908138037
 2691.9001465 14.689779282 103.11029816 0.7607144117 37.468032837 0.7898297310
 2692.0002441 14.912620544 104.34663391 0.7610733509 37.807693481 0.7909229994
 2692.0998535 15.063047409 104.65308380 0.7619698048 38.355232239 0.7931828499
 2692.1999512 15.169217110 104.61518860 0.7628020048 39.087234497 0.7957630157
 2692.2998047 15.255916595 104.27065277 0.7631295919 39.891624451 0.7983177900
 2692.3999023 15.325561523 103.03578949 0.7629277706 40.629814148 0.8011871576
 2692.5000000 15.365745544 101.54830170 0.7626436949 41.209182739 0.8050781488
 2692.5998535 15.368524551 99.799827576 0.7630314827 41.572990417 0.8104114532
 2692.6999512 15.339000702 98.148040771 0.7649095058 41.693069458 0.8168904781
 2692.8000488 15.291593552 96.795486450 0.7687327862 41.593864441 0.8235838413
 2692.8999023 15.228867531 95.819053650 0.7741476297 41.359397888 0.8292847872
 2693.0000000 15.120647430 95.535194397 0.7799912691 41.077560425 0.8329441547
 2693.1000977 14.918146133 95.217384338 0.7847837210 40.783897400 0.8339532614
 2693.1999512 14.584412575 94.747886658 0.7874405384 40.460464478 0.8322534561
 2693.3000488 14.126959801 93.373092651 0.7877613306 40.076408386 0.8284245729
 2693.4001465 13.604679108 91.775588989 0.7864556313 39.607101440 0.8236287832
 2693.5000000 13.106122017 90.020889282 0.7846666574 39.021354675 0.8192118406
 2693.6000977 12.710350990 88.933250427 0.7833644152 38.276206970 0.8160773516
 2693.7001953 12.460077286 88.300926208 0.7829527855 37.368171692 0.8142937422
 2693.8000488 12.355525017 88.399894714 0.7831399441 36.350875854 0.8131625652
 2693.9001465 12.365728378 88.682197571 0.7831288576 35.341911316 0.8116630316
 2694.0002441 12.451586723 89.003273010 0.7821124792 34.520843506 0.8090482950
 2694.1000977 12.585598946 89.279151917 0.7796674967 34.096832275 0.8053299189
 2694.2001953 12.743455887 89.725364685 0.7759150267 34.205268860 0.8013737202
 2694.3000488 12.899131775 90.419876099 0.7714619637 34.804351807 0.7984752655
 2694.3999023 13.029644966 91.855239868 0.7671377659 35.676635742 0.7975955009
 2694.5000000 13.120491982 93.787261963 0.7636390924 36.522193909 0.7988488674
 2694.5998535 13.171049118 96.065727234 0.7612779140 37.088691711 0.8015470505
 2694.6999512 13.192270279 98.994720459 0.7599409819 37.280670166 0.8046907187
 2694.8000488 13.197050095 102.10504913 0.7592749596 37.172019958 0.8075039387
 2694.8999023 13.189880371 105.26237488 0.7589651346 36.944473267 0.8097032309
 2695.0000000 13.170808792 107.97198486 0.7589594126 36.782943726 0.8114838600
 2695.0998535 13.146665573 110.09092712 0.7594754696 36.805763245 0.8132736683
 2695.1999512 13.138034821 111.70756531 0.7608053684 37.068344116 0.8153840303
 2695.3000488 13.159467697 111.93503571 0.7630749941 37.593719482 0.8177872896
 2695.3999023 13.202791214 111.54801941 0.7661030293 38.360473633 0.8201214075
 2695.5000000 13.239845276 110.60154724 0.7694499493 39.266761780 0.8218297958
 2695.6000977 13.237565994 107.69520569 0.7725622654 40.166152954 0.8224048615
 2695.6999512 13.176298141 104.04802704 0.7749645710 40.920845032 0.8216550350
 2695.8000488 13.062807083 99.592956543 0.7764192820 41.404624939 0.8198348284
 2695.9001465 12.927574158 94.462081909 0.7769949436 41.514778137 0.8175604343
 2696.0000000 12.809651375 89.717842102 0.7770192623 41.225044250 0.8155932426
 2696.1000977 12.735084534 85.479141235 0.7769337893 40.627929688 0.8145587444
 2696.2001953 12.705310822 83.004821777 0.7771275043 39.879905701 0.8148066998
 2696.3000488 12.700000763 81.333488464 0.7778795958 39.103263855 0.8164664507
 2696.4001465 12.700590134 80.655281067 0.7793226242 38.332633972 0.8195172548
 2696.5002441 12.705341339 81.288581848 0.7814027071 37.544395447 0.8238146305
 2696.6000977 12.725172043 82.461952209 0.7838734388 36.696411133 0.8290441036
 2696.6999512 12.780719757 84.286521912 0.7863847017 35.748367310 0.8346017599
 2696.7998047 12.895340919 86.626380920 0.7886301279 34.708389282 0.8395634890
 2696.8999023 13.081508636 89.224441528 0.7904142141 33.680549622 0.8429199457
 2697.0000000 13.331285477 92.156272888 0.7916412354 32.825988770 0.8439335823
 2697.0998535 13.617551804 95.237503052 0.7922976017 32.281082153 0.8424373865
 2697.1999512 13.905480385 98.324920654 0.7924305201 32.110176086 0.8389153481
 2697.3000488 14.168128014 101.26102448 0.7921050787 32.320259094 0.8342555761
 2697.3999023 14.402271271 103.79109192 0.7913627625 32.875755310 0.8293412924
 2697.5000000 14.633845329 105.88072205 0.7902133465 33.683364868 0.8247683048
 2697.6000977 14.904219627 106.78383636 0.7886614799 34.603080750 0.8208295107
 2697.6999512 15.240036011 106.83000183 0.7867646217 35.495162964 0.8176901340
 2697.8000488 15.634756088 106.42980194 0.7846759558 36.250854492 0.8155860901
 2697.9001465 16.051826477 105.86388397 0.7826317549 36.797729492 0.8149344921
 2698.0000000 16.442123413 106.29508209 0.7809460163 37.124176025 0.8162301779
 2698.1000977 16.763023376 107.66295624 0.7800089121 37.299377441 0.8197889328
 2698.1999512 16.992656708 111.99115753 0.7801687717 37.454658508 0.8255120516
 2698.3000488 17.134510040 117.14057922 0.7815920115 37.708335876 0.8327713013
 2698.4001465 17.211277008 122.80276489 0.7842372656 38.133567810 0.8405747414
 2698.5000000 17.251373291 126.95719910 0.7879642248 38.762863159 0.8479087353
 2698.6000977 17.277675629 129.77110291 0.7926404476 39.597717285 0.8541104794
 2698.7001953 17.298305511 131.36622620 0.7981920242 40.579566956 0.8590948582
