# LAS format log file from PETREL
# Project units are specified as depth units
#==================================================================
~Version information
VERS.   2.0:
WRAP.   NO:
#==================================================================
~Well
STRT .m      873.00000000 :
STOP .m      3593.0000000 :
STEP .m     0.00000000 :
NULL .        -999.250000 :
COMP.           : COMPANY
WELL.  7/7-3 Brynhild Appr   : WELL
FLD.            : FIELD
LOC.            : LOCATION
SRVC.           : SERVICE COMPANY
DATE.  2018-09-11 21:49:23   : Log Export Date {yyyy-MM-dd HH:mm:ss}
PROV.           : PROVINCE
UWI.   7/7-3   : UNIQUE WELL ID
API.            : API NUMBER
#==================================================================
~Curve
DEPT .m                   : DEPTH
CALI .in                  : CALI
GR .gAPI                  : GR
RDEP .ohm.m               : RDEP
SP .mV                    : SP
RMED .ohm.m               : RMED
~Parameter
#==================================================================
~Ascii
# ...
 1617.6000977 18.147811890 161.22814941 0.6525589228 11.943437576 0.6190744638
 1617.7000732 18.147811890 160.22206116 0.6475875378 11.909372330 0.6158758402
 1617.8000488 18.147811890 160.00532532 0.6429086924 11.821241379 0.6123423576
 1617.8999023 18.147811890 160.19381714 0.6395726204 11.701217651 0.6087718010
 1618.0000000 18.147811890 160.85369873 0.6384558678 11.590772629 0.6055239439
 1618.0999756 18.147811890 161.44619751 0.6400095224 11.525800705 0.6030156612
 1618.1999512 18.147811890 161.91641235 0.6442722082 11.522678375 0.6018208265
 1618.3000488 18.147811890 161.92193604 0.6508437395 11.573301315 0.6027641296
 1618.4000244 18.147811890 161.58575439 0.6587531567 11.652326584 0.6067705154
 1618.5000000 18.147811890 161.05717468 0.6664289236 11.731452942 0.6141357422
 1618.5999756 18.148426056 160.50567627 0.6720061302 11.790006638 0.6237790585
 1618.7000732 18.155239105 160.01075745 0.6739602089 11.819910049 0.6330032349
 1618.8000488 18.181602478 159.51875305 0.6717612743 11.821313858 0.6381282806
 1618.9000244 18.236595154 158.54664612 0.6661853790 11.790248871 0.6362665892
 1619.0001221 18.311973572 156.67935181 0.6590635777 11.718727112 0.6270709038
 1619.0999756 18.384635925 154.06210327 0.6525843143 11.609207153 0.6133058071
 1619.1999512 18.428009033 150.69961548 0.6484590769 11.481937408 0.5997834206
 1619.2999268 18.427162170 148.25508118 0.6470855474 11.373846054 0.5909339190
 1619.4000244 18.389713287 146.73341370 0.6473536491 11.320978165 0.5886733532
 1619.5000000 18.348220825 147.74760437 0.6473308802 11.343721390 0.5918264389
 1619.5999756 18.340896606 149.59268188 0.6452624798 11.436805725 0.5973867178
 1619.7000732 18.379745483 152.37705994 0.6403398514 11.567943573 0.6024032831
 1619.8000488 18.444885254 154.81547546 0.6329885721 11.687063217 0.6053103209
 1619.9000244 18.496074677 156.75177002 0.6246367693 11.746191025 0.6062163115
 1620.0000000 18.498107910 157.98341370 0.6171258688 11.723728180 0.6060619354
 1620.1000977 18.443328857 159.14988708 0.6120636463 11.634952545 0.6056046486
 1620.2000732 18.349536896 160.53395081 0.6103646755 11.517772675 0.6051495075
 1620.2999268 18.245834351 162.32974243 0.6121444702 11.416463852 0.6047576666
 1620.3999023 18.159336090 164.03524780 0.6170318127 11.372369766 0.6047164202
 1620.5000000 18.104324341 165.42147827 0.6244370937 11.415025711 0.6055952311
 1620.5999756 18.078399658 166.12130737 0.6334927082 11.558036804 0.6078660488
 1620.6999512 18.070251465 166.05175781 0.6430312395 11.788736343 0.6115292311
 1620.8000488 18.074398041 165.55447388 0.6518300772 12.070146561 0.6161059141
 1620.9000244 18.087562561 164.44560242 0.6590210199 12.348920822 0.6209099293
 1621.0000000 18.103580475 162.79627991 0.6644161940 12.562381744 0.6253970861
 1621.1000977 18.117980957 160.89788818 0.6684691906 12.651279449 0.6293952465
 1621.2000732 18.127120972 158.80886841 0.6719336510 12.585414886 0.6330405474
 1621.3000488 18.128105164 157.21540833 0.6755012274 12.390733719 0.6365600824
 1621.3999023 18.120059967 156.00590515 0.6795842648 12.141792297 0.6400992870
 1621.5000000 18.104751587 155.60391235 0.6843221188 11.920022964 0.6437089443
 1621.5999756 18.085777283 155.27763367 0.6897029877 11.783733368 0.6474303007
 1621.6999512 18.067974091 154.94331360 0.6956483126 11.759893417 0.6512631178
 1621.8000488 18.054744720 154.21759033 0.7019507885 11.844667435 0.6550812721
 1621.9000244 18.047065735 153.44799805 0.7082455158 12.011655807 0.6585543156
 1622.0000000 18.043952942 152.66397095 0.7140576839 12.217365265 0.6612181664
 1622.0999756 18.043334961 152.10963440 0.7189381123 12.418905258 0.6626724005
 1622.2000732 18.043334961 151.53236389 0.7225823402 12.585914612 0.6627862453
 1622.3000488 18.043334961 150.93252563 0.7248926163 12.701047897 0.6618221998
 1622.4000244 18.043334961 150.10441589 0.7259321213 12.754709244 0.6603622437
 1622.5001221 18.043334961 149.43511963 0.7259091139 12.751682281 0.6589455605
 1622.5999756 18.043334961 148.93002319 0.7251144648 12.723997116 0.6577798128
 1622.6999512 18.043334961 149.25732422 0.7238329649 12.717884064 0.6566877365
 1622.7999268 18.043334961 150.09648132 0.7222702503 12.764577866 0.6553051472
 1622.9000244 18.043334961 151.54278564 0.7205156088 12.869155884 0.6533271074
 1623.0000000 18.043334961 153.39923096 0.7185240984 13.010263443 0.6506634951
 1623.0999756 18.043334961 155.18772888 0.7161711454 13.144098282 0.6474454403
 1623.2000732 18.043334961 156.82351685 0.7133554220 13.217769623 0.6439765692
 1623.3000488 18.043334961 157.84780884 0.7100812197 13.197795868 0.6406567097
 1623.4000244 18.043334961 158.52119446 0.7064775229 13.087263107 0.6378705502
 1623.5000000 18.043334961 158.70741272 0.7026911974 12.923803329 0.6358957291
 1623.6000977 18.043334961 158.86155701 0.6988139153 12.760099411 0.6349031925
 1623.7000732 18.043334961 159.12271118 0.6949515343 12.635515213 0.6348961592
 1623.7999268 18.043334961 159.64410400 0.6913243532 12.573776245 0.6356687546
 1623.8999023 18.043334961 160.00463867 0.6882976294 12.583757401 0.6369265318
 1624.0000000 18.043334961 160.03987122 0.6863720417 12.656988144 0.6384594440
 1624.0999756 18.043334961 159.25877380 0.6861745119 12.767213821 0.6403218508
 1624.1999512 18.043334961 157.84011841 0.6884173155 12.883041382 0.6429722309
 1624.3000488 18.043334961 156.27131653 0.6935902834 12.973964691 0.6473046541
 1624.4000244 18.043334961 155.03855896 0.7015241385 13.015888214 0.6544135809
 1624.5000000 18.043334961 154.83833313 0.7111104727 13.001331329 0.6649231911
 1624.6000977 18.043334961 155.26925659 0.7205238342 12.942630768 0.6781729460
 1624.7000732 18.043334961 156.49060059 0.7279026508 12.863164902 0.6919014454
 1624.8000488 18.043334961 157.22048950 0.7320332527 12.786260605 0.7027297020
 1624.8999023 18.043334961 157.49626160 0.7327615023 12.720508575 0.7075531483
 1625.0000000 18.043334961 156.38621521 0.7310398817 12.669958115 0.7050260305
 1625.0999756 18.043334961 154.86622620 0.7285759449 12.644092560 0.6962828636
 1625.1999512 18.043334961 153.12106323 0.7270411253 12.655939102 0.6844094992
 1625.3000488 18.043334961 152.35836792 0.7271848917 12.707990646 0.6729581356
 1625.4000244 18.043334961 152.85224915 0.7285186052 12.784114838 0.6643682718
 1625.5000000 18.043334961 154.43202209 0.7297089100 12.857673645 0.6592310667
 1625.5999756 18.043334961 157.01371765 0.7292950153 12.902927399 0.6566935778
 1625.7000732 18.043334961 159.17692566 0.7263827324 12.905929565 0.6554752588
 1625.8000488 18.043334961 160.90173340 0.7209460735 12.864959717 0.6546151638
 1625.9000244 18.043334961 161.57505798 0.7137818336 12.786907196 0.6537392139
 1626.0001221 18.043334961 161.91874695 0.7061352730 12.695240021 0.6527972221
 1626.0999756 18.043334961 161.89347839 0.6991904974 12.617420197 0.6516867876
 1626.1999512 18.043334961 161.69442749 0.6936198473 12.577486038 0.6502177715
 1626.2999268 18.043334961 161.33447266 0.6895600557 12.587989807 0.6482689381
 1626.4000244 18.043334961 160.75048828 0.6868749857 12.646654129 0.6459271908
 1626.5000000 18.043334961 159.92932129 0.6853392124 12.741397858 0.6434490681
 1626.5999756 18.043334961 159.26528931 0.6845988035 12.849670410 0.6410914660
 1626.7000732 18.043334961 158.96356201 0.6841713190 12.944791794 0.6389425993
 1626.8000488 18.043334961 159.45140076 0.6836006641 13.012910843 0.6369074583
 1626.9000244 18.043334961 160.24967957 0.6826444864 13.052709579 0.6348276138
 1627.0000000 18.043334961 161.37753296 0.6813075542 13.066278458 0.6326521635
 1627.1000977 18.043334961 162.20721436 0.6797569990 13.048049927 0.6305495501
 1627.2000732 18.043334961 162.77346802 0.6781965494 12.999818802 0.6288782358
 1627.2999268 18.043334961 162.81816101 0.6768127680 12.942546844 0.6280025244
 1627.3999023 18.043334961 162.59326172 0.6757972240 12.911397934 0.6281236410
 1627.5000000 18.043334961 162.29737854 0.6753073931 12.941204071 0.6292188168
 1627.5999756 18.043334961 162.12359619 0.6753988266 13.038619995 0.6310898066
 1627.6999512 18.043334961 162.27595520 0.6759874821 13.177991867 0.6334329844
