# LAS format log file from PETREL
# Project units are specified as depth units
#==================================================================
~Version information
VERS.   2.0:
WRAP.   NO:
#==================================================================
~Well
STRT .m      513.13079834 :
STOP .m      3511.9055176 :
STEP .m     0.00000000 :
NULL .        -999.250000 :
COMP.           : COMPANY
WELL.  7/7-1   : WELL
FLD.            : FIELD
LOC.            : LOCATION
SRVC.           : SERVICE COMPANY
DATE.  2018-09-11 21:49:22   : Log Export Date {yyyy-MM-dd HH:mm:ss}
PROV.           : PROVINCE
UWI.   7/7-1   : UNIQUE WELL ID
API.            : API NUMBER
#==================================================================
~Curve
DEPT .m                   : DEPTH
CALI .in                  : CALI
DRHO .g/cm3               : DRHO
NPHI .m3/m3               : NPHI
RHOB .g/cm3               : RHOB
GR .gAPI                  : GR
DTC .us/ft                : DTC
RDEP .ohm.m               : RDEP
SP .mV                    : SP
RSHA .ohm.m               : RSHA
RMIC .ohm.m               : RMIC
RMED .ohm.m               : RMED
~Parameter
#==================================================================
~Ascii
# ...
 1733.3974609 18.503599167 -0.003476188  -999.250000 2.0775425434 50.976043701 150.49780273 0.6566995978 16.930019379 0.7653051615  -999.250000 0.6265000105
 1733.5499268 18.500200272 -0.000417450  -999.250000 2.0750038624 50.488487244 150.49887085 0.6554009914 17.160814285 0.7688971162  -999.250000 0.6301000118
 1733.7022705 18.487100601 0.0058709593  -999.250000 2.0803158283 51.409858704 150.47868347 0.6507037282 17.146310806 0.7930806279  -999.250000 0.6369000077
 1733.8547363 18.474000931 0.0121609643  -999.250000 2.0928974152 52.332359314 150.21243286 0.6459038258 17.131511688 0.8172806501  -999.250000 0.6437000036
 1734.0070801 18.452899933 0.0180273000  -999.250000 2.1052734852 53.153045654 149.60562134 0.6414035559 17.126104355 0.8392823339  -999.250000 0.6496999860
 1734.1595459 18.269399643 0.0153481504  -999.250000 2.1154830456 51.920886993 148.93783569 0.6432984471 17.309352875 0.8174175024  -999.250000 0.6396999955
 1734.3118896 18.085899353 0.0126621518  -999.250000 2.1137230396 50.687088013 148.85673523 0.6451984644 17.492753983 0.7956174612  -999.250000 0.6297000051
 1734.4643555 17.902399063 0.0099751512  -999.250000 2.1010713577 49.453289032 149.22416687 0.6470984221 17.676054001 0.7738174796  -999.250000 0.6197000146
 1734.6166992 17.857500076 0.0096912263  -999.250000 2.0897588730 49.321105957 149.70167542 0.6427035332 17.362751007 0.7695034742  -999.250000 0.6168000102
 1734.7690430 17.854999542 0.0101402793  -999.250000 2.0850069523 49.525371552 150.17808533 0.6365099549 16.897846222 0.7704983950  -999.250000 0.6161999702
 1734.9215088 17.852399826 0.0105906399  -999.250000 2.0856900215 49.730236053 150.58824158 0.6302050948 16.432172775 0.7714992166  -999.250000 0.6154999733
 1735.0738525 17.862300873 0.0109743858  -999.250000 2.0881240368 49.992179871 150.18284607 0.6278038025 16.480922699 0.7745950818  -999.250000 0.6161999702
 1735.2263184 17.885299683 0.0112877497  -999.250000 2.0882174969 50.315341949 149.23855591 0.6295985579 17.074722290 0.7799956203  -999.250000 0.6183000207
 1735.3786621 17.908300400 0.0116014974  -999.250000 2.0890097618 50.638080597 148.47964478 0.6312972307 17.668447495 0.7853913307  -999.250000 0.6205000281
 1735.5311279 17.922000885 0.0117458841  -999.250000 2.0945496559 51.087242126 148.63719177 0.6334981918 18.201572418 0.7898964286  -999.250000 0.6226999760
 1735.6834717 17.899400711 0.0112334108  -999.250000 2.1021950245 52.024848938 149.18592834 0.6375967264 18.494964600 0.7909991145  -999.250000 0.6252999902
 1735.8359375 17.876699448 0.0107204104  -999.250000 2.1036767960 52.962947845 149.19590759 0.6415967941 18.788166046 0.7920991182  -999.250000 0.6280000210
 1735.9882813 17.854099274 0.0102074109  -999.250000 2.0994877815 53.900947571 149.34376526 0.6456966996 19.081264496 0.7931991220  -999.250000 0.6305999756
 1736.1407471 17.837499619 0.0089420136  -999.250000 2.1020939350 54.119323730 149.74391174 0.6440013647 18.854782104 0.7915013433  -999.250000 0.6298999786
 1736.2930908 17.821399689 0.0076140640  -999.250000 2.1029987335 54.277774811 149.27651978 0.6418017745 18.585016251 0.7894016504  -999.250000 0.6288999915
 1736.4455566 17.805299759 0.0062860632  -999.250000 2.1035361290 54.436275482 148.98640442 0.6396017671 18.315216064 0.7874016166  -999.250000 0.6279000044
 1736.5979004 17.779499054 0.0073881154  -999.250000 2.1047546864 54.120452881 149.47303772 0.6505911946 18.275930405 0.7842025757  -999.250000 0.6349999905
 1736.7502441 17.748199463 0.0098400693  -999.250000 2.1050000191 53.541427612 150.06809998 0.6689705849 18.364656448 0.7802063823  -999.250000 0.6467000246
 1736.9027100 17.716899872 0.0122960340  -999.250000 2.1067781448 52.961364746 150.65678406 0.6872853637 18.453729630 0.7763031125  -999.250000 0.6583999991
 1737.0550537 17.729700089 0.0277452245  -999.250000 2.1137144566 52.416572571 151.07475281 0.6962856054 18.482254028 0.7884804606  -999.250000 0.6661999822
 1737.2075195 17.820100784 0.0661342368  -999.250000 2.1329097748 51.931587219 150.61569214 0.6890058517 18.404663086 0.8289675713  -999.250000 0.6668999791
 1737.3598633 17.910499573 0.1044985205  -999.250000 2.1826460361 51.447475433 147.27513123 0.6816118360 18.327024460 0.8693353534  -999.250000 0.6676999927
 1737.5123291 17.989900589 0.1363994777  -999.250000 2.2484638691 50.976078033 140.00482178 0.6749053597 18.240169525 0.9030730128  -999.250000 0.6678000093
 1737.6646729 17.944299698 0.0946055353  -999.250000 2.2394728661 50.658054352 134.81318665 0.6754994988 18.050151825 0.8595349193  -999.250000 0.6596999764
 1737.8171387 17.898700714 0.0527525097  -999.250000 2.1669404507 50.340156555 135.90582275 0.6760995388 17.860052109 0.8159349561  -999.250000 0.6516000032
 1737.9694824 17.853099823 0.0108985370  -999.250000 2.1127350330 50.022155762 141.50744629 0.6766995192 17.669952393 0.7722349763  -999.250000 0.6434000134
 1738.1219482 17.885799408 -0.001174353  -999.250000 2.1040031910 50.587047577 148.04638672 0.6696056724 17.472158432 0.7718002796  -999.250000 0.6414999962
 1738.2742920 17.937999725 -0.005803296  -999.250000 2.1091594696 51.372570038 151.41143799 0.6605072618 17.272460938 0.7819918394  -999.250000 0.6410999894
 1738.4267578 17.990200043 -0.010427298  -999.250000 2.1080641747 52.158370972 152.32571411 0.6515071988 17.072759628 0.7921918631  -999.250000 0.6406999826
 1738.5791016 18.104499817 -0.008776328  -999.250000 2.1007711887 53.096248627 152.81460571 0.6494016647 17.033033371 0.7959969640  -999.250000 0.6389999986
 1738.7314453 18.276100159 -0.001327944  -999.250000 2.0988249779 54.173973083 153.36964417 0.6536930799 17.141225815 0.7937036753  -999.250000 0.6359999776
 1738.8839111 18.447700500 0.0061360244  -999.250000 2.1020381451 55.253532410 153.47274780 0.6580964923 17.249711990 0.7914018631  -999.250000 0.6330999732
 1739.0362549 18.605300903 0.0136968838  -999.250000 2.1016826630 55.574386597 153.36964417 0.6627925038 17.268369675 0.7918992043  -999.250000 0.6341999769
 1739.1887207 18.718200684 0.0216126610  -999.250000 2.0951104164 53.480777740 153.54995728 0.6689950824 17.001213074 0.8009927273  -999.250000 0.6482999921
 1739.3410645 18.831100464 0.0295163337  -999.250000 2.0920035839 51.386558533 154.36241150 0.6751900315 16.734027863 0.8101852536  -999.250000 0.6624000072
 1739.4935303 18.944000244 0.0374326631  -999.250000 2.1039609909 49.289077759 154.76974487 0.6813950539 16.466413498 0.8192927241  -999.250000 0.6764000058
 1739.6458740 18.657100677 0.0056574866  -999.250000 2.1515228748 47.040302277 152.68717957 0.6901929379 16.765359879 0.8239962459  -999.250000 0.6811000109
 1739.7983398 18.352600098 -0.027890138  -999.250000 2.2009079456 44.784805298 147.32942200 0.6991927624 17.089540482 0.8285962939  -999.250000 0.6854000092
 1739.9506836 18.048200607 -0.061438117  -999.250000 2.2106325626 42.529308319 142.36241150 0.7080928683 17.413740158 0.8330964446  -999.250000 0.6897000074
 1740.1031494 17.872400284 -0.051560935  -999.250000 2.1812951565 42.524402618 140.68315125 0.7094988823 17.421594620 0.8359977007  -999.250000 0.6876000166
 1740.2554932 17.758100510 -0.020945543  -999.250000 2.1725497246 43.594341278 140.34519958 0.7073017955 17.278314590 0.8380983472  -999.250000 0.6826000214
 1740.4079590 17.643699646 0.0096864747  -999.250000 2.2072169781 44.665142059 140.18286133 0.7050018311 17.135013580 0.8401983380  -999.250000 0.6775000095
 1740.5603027 17.575500488 0.0262907036  -999.250000 2.2132430077 45.537502289 139.53881836 0.6993045807 17.127405167 0.8353039622  -999.250000 0.6699000001
 1740.7127686 17.577400208 0.0215148367  -999.250000 2.1756832600 46.107440948 139.89100647 0.6884086728 17.326740265 0.8200122714  -999.250000 0.6583999991
 1740.8651123 17.579299927 0.0167228393  -999.250000 2.1289756298 46.677143097 141.56051636 0.6775087714 17.526340485 0.8047122955  -999.250000 0.6470000148
 1741.0174561 17.580900192 0.0125696557  -999.250000 2.1080293655 47.241497040 144.62774658 0.6671166420 17.698423386 0.7909221053  -999.250000 0.6367999911
