# LAS format log file from PETREL
# Project units are specified as depth units
#==================================================================
~Version information
VERS.   2.0:
WRAP.   NO:
#==================================================================
~Well
STRT .m      855.12506104 :
STOP .m      3436.8750000 :
STEP .m     0.00000000 :
NULL .        -999.250000 :
COMP.           : COMPANY
WELL.  7/7-2 Brynhild   : WELL
FLD.            : FIELD
LOC.            : LOCATION
SRVC.           : SERVICE COMPANY
DATE.  2018-09-11 21:49:22   : Log Export Date {yyyy-MM-dd HH:mm:ss}
PROV.           : PROVINCE
UWI.   7/7-2   : UNIQUE WELL ID
API.            : API NUMBER
#==================================================================
~Curve
DEPT .m                   : DEPTH
CALI .in                  : CALI
DRHO .g/cm3               : DRHO
NPHI .m3/m3               : NPHI
RHOB .g/cm3               : RHOB
GR .gAPI                  : GR
DTC .us/ft                : DTC
RDEP .ohm.m               : RDEP
SP .mV                    : SP
RSHA .ohm.m               : RSHA
RMED .ohm.m               : RMED
~Parameter
#==================================================================
~Ascii
# ...
 2059.1250000 19.767099380 0.0381000005  -999.250000 2.2976918221 92.289299011 138.71681213 0.9283999801 49.318847656  -999.250000 0.7519000173
 2059.2500000 19.767099380 0.0070000002  -999.250000 2.2508554459 91.148498535 140.58488464 0.9052000046 48.836929321  -999.250000 0.7523000240
 2059.3750000 19.769599915 0.0252999999  -999.250000 2.2875804901 86.090499878 142.65524292 0.8985999823 48.068149567  -999.250000 0.7547000051
 2059.5000000 19.840599060 0.0088000000  -999.250000 2.2772088051 86.967498779 143.03096008 0.8966000080 48.743503571  -999.250000 0.7588000298
 2059.6250000 19.955299377 0.0738999993  -999.250000 2.3939313889 82.841400146 142.12635803 0.8907999992 48.792060852  -999.250000 0.7598000169
 2059.7500000 20.044500351 0.0219000001  -999.250000 2.3117322922 84.880996704 140.11763000 0.8917999864 48.412460327  -999.250000 0.7752000093
 2059.8750000 20.044500351 0.0463999994  -999.250000 2.3361973763 89.207397461 137.81178284 0.9067000151 48.616367340  -999.250000 0.7807000279
 2060.0000000 20.044500351 0.0487999991  -999.250000 2.3364639282 81.706298828 135.93556213 0.9330000281 48.629199982  -999.250000 0.7774999738
 2060.1250000 20.044500351 0.0361000001  -999.250000 2.3198702335 88.315399170 134.35336304 0.9530000091 48.670219421  -999.250000 0.7784000039
 2060.2500000 20.044500351 0.0540999994  -999.250000 2.3428139687 95.551101685 132.97355652 0.9753999710 48.236057281  -999.250000 0.7793999910
 2060.3750000 20.044500351 0.0449000001  -999.250000 2.3487815857 84.987701416 132.17851257 0.9891999960 48.116828918  -999.250000 0.8000000119
 2060.5000000 20.034799576 0.0370000005  -999.250000 2.3448505402 82.667503357 131.80484009 0.9994999766 47.839328766  -999.250000 0.8151999712
 2060.6250000 19.767099380 0.0659999996  -999.250000 2.3559336662 86.423103333 132.02445984 1.0133999586 47.644985199  -999.250000 0.8260999918
 2060.7500000 19.777299881 0.0535000004  -999.250000 2.3600726128 84.270301819 133.16122437 1.0326000452 47.614326477  -999.250000 0.8154000044
 2060.8750000 20.044500351 0.0697000027  -999.250000 2.3643279076 82.183097839 134.13969421 1.0484000444 48.072643280  -999.250000 0.8069999814
 2061.0000000 20.044500351 0.0472000018  -999.250000 2.3353643417 86.814002991 134.61477661 1.0571000576 48.349853516  -999.250000 0.8033000231
 2061.1250000 20.044500351 0.0337999985  -999.250000 2.2998189926 80.181198120 134.00630188 1.0490000248 47.853786469  -999.250000 0.8141000271
 2061.2500000 20.044500351 0.0088999998  -999.250000 2.2833352089 77.234298706 132.26884460 1.0259000063 48.068214417  -999.250000 0.8192999959
 2061.3750000 20.044500351 0.0355000012  -999.250000 2.3391065598 81.091003418 129.89863586 0.9915999770 48.144119263  -999.250000 0.8176000118
 2061.5000000 20.044500351 0.0465000011  -999.250000 2.3560123444 85.102699280 128.11288452 0.9711999893 48.220451355  -999.250000 0.8159000278
 2061.6250000 20.044500351 0.0662999973  -999.250000 2.3966565132 86.677597046 129.22929382 0.9923999906 48.181224823  -999.250000 0.8047999740
 2061.7500000 20.044500351 0.0310999993  -999.250000 2.3382954597 90.248802185 131.59603882 1.0191999674 47.849754333  -999.250000 0.7821999788
 2061.8750000 20.044500351 0.0723000020  -999.250000 2.3722519875 89.767402649 134.34242249 1.0420999527 48.109119415  -999.250000 0.7695999742
 2062.0000000 20.044500351 0.0507999994  -999.250000 2.3280282021 87.546699524 136.58055115 1.0600999594 48.174850464  -999.250000 0.7843999863
 2062.1250000 20.044500351 0.0467999987  -999.250000 2.3060426712 89.507598877 137.69932556 1.0779000521 47.795768738  -999.250000 0.8097000122
 2062.2500000 20.044500351 0.0406000018  -999.250000 2.2964978218 85.821899414 138.48210144 1.0543999672 48.532234192  -999.250000 0.8191000223
 2062.3750000 20.042100906 0.0337000005  -999.250000 2.2859764099 88.356201172 137.36030579 1.0292999744 47.808761597  -999.250000 0.8306999803
 2062.5000000 19.974300385 0.0232999995  -999.250000 2.2914185524 77.849296570 134.83116150 1.0279999971 47.968776703  -999.250000 0.8610000014
 2062.6250000 19.952100754 0.0397999994  -999.250000 2.3794078827 81.291603088 132.22875977 1.0333000422 48.884685516  -999.250000 0.8884000182
 2062.7500000 19.952100754 0.0179999992  -999.250000 2.3888089657 81.758399963 130.83460999 1.0379999876 47.887100220  -999.250000 0.8632000089
 2062.8750000 19.956899643 0.0529999994  -999.250000 2.3841214180 80.252197266 131.44003296 1.0462000370 48.045124054  -999.250000 0.8169999719
 2063.0000000 20.089397430 0.0713000000  -999.250000 2.3498916626 78.963996887 134.37550354 1.0397000313 48.162708282  -999.250000 0.7882000208
 2063.1250000 20.047800064 0.0403999984  -999.250000 2.2784032822 78.740600586 138.08309937 1.0467000008 47.214962006  -999.250000 0.7876999974
 2063.2500000 20.136999130 0.0698999986  -999.250000 2.3108997345 86.430099487 141.55169678 1.0398999453 48.782875061  -999.250000 0.7835000157
 2063.3750000 20.139400482 0.0505000018  -999.250000 2.2960729599 88.833900452 143.65541077 1.0167000294 48.758369446  -999.250000 0.7858999968
 2063.5000000 20.200799942 0.0489999987  -999.250000 2.2923841476 90.679702759 143.58901978 0.9976999760 47.965560913  -999.250000 0.7921000123
 2063.6250000 20.043699265 0.0476000011  -999.250000 2.2961926460 93.591003418 141.82769775 0.9858000278 48.627506256  -999.250000 0.8098000288
 2063.7500000 20.018899918 0.0414000005  -999.250000 2.3146219254 83.984298706 139.17391968 1.0031000376 48.465301514  -999.250000 0.8210999966
 2063.8750000 19.952100754 0.0575999990  -999.250000 2.3473691940 85.492797852 136.72029114 1.0255999565 48.108383179  -999.250000 0.8241999745
 2064.0000000 19.952100754 0.0212999992  -999.250000 2.2924642563 91.105400085 134.55984497 1.0778000355 48.063796997  -999.250000 0.8192999959
 2064.1250000 19.952100754 0.0751999989  -999.250000 2.3481082916 84.075302124 132.83824158 1.0994000435 48.541095734  -999.250000 0.8321999907
 2064.2500000 19.952100754 0.0366000012  -999.250000 2.2893643379 88.073898315 131.92851257 1.1210000515 49.150356293  -999.250000 0.8399000168
 2064.3750000 19.954500198 0.0524000004  -999.250000 2.3054590225 85.998298645 132.90704346 1.1390000582 49.361587524  -999.250000 0.8578000069
 2064.5000000 20.022300720 0.0577999987  -999.250000 2.3286375999 78.538398743 135.49623108 1.1545000076 48.873950958  -999.250000 0.8571000099
 2064.6250000 20.047800064 0.0557999983  -999.250000 2.3194041252 84.190299988 137.72512817 1.1786999702 48.876895905  -999.250000 0.8499000072
 2064.7500000 20.140300751 0.0456999987  -999.250000 2.2950353622 83.615600586 138.66326904 1.1854000092 48.325191498  -999.250000 0.8479999900
 2064.8750000 20.230499268 0.0436000004  -999.250000 2.3011145592 79.587699890 138.27188110 1.1762000322 48.348228455  -999.250000 0.8562999964
 2065.0000000 20.254899979 0.0359999985  -999.250000 2.3106098175 86.370903015 137.88049316 1.1842000484 48.350109100  -999.250000 0.8375999928
 2065.1250000 20.309700012 0.0570000000  -999.250000 2.3498849869 80.253402710 137.30526733 1.1864000559 48.248493195  -999.250000 0.8165000081
 2065.2500000 19.974500656 0.0619000010  -999.250000 2.3573689461 79.372596741 136.30877686 1.1412999630 48.673019409  -999.250000 0.8068000078
 2065.3750000 19.943700790 0.0238000005  -999.250000 2.3279824257 81.353897095 133.27639771 1.0742000341 49.107654572  -999.250000 0.8267999887
 2065.5000000 19.722299576 -0.034299999  -999.250000 2.4081044197 74.545303345 128.20648193 1.0463000536 49.364124298  -999.250000 0.8877999783
 2065.6250000 19.778499603 -0.090300001  -999.250000 2.4363098145 80.791198730 122.95930481 1.0315999985 48.866470337  -999.250000 0.9383999705
 2065.7500000 20.095800400 0.0713000000  -999.250000 2.5620889664 74.342201233 121.19800568 1.0056999922 48.656364441  -999.250000 0.8945000172
 2065.8750000 20.229400635 0.1242000014  -999.250000 2.5147705078 74.015899658 122.27043152 1.0063999891 48.282035828  -999.250000 0.8245000243
 2066.0000000 20.232700348 0.0344999991  -999.250000 2.3310537338 72.390998840 126.02140045 1.0439000130 48.059707642  -999.250000 0.7771999836
