# LAS format log file from PETREL
# Project units are specified as depth units
#==================================================================
~Version information
VERS.   2.0:
WRAP.   NO:
#==================================================================
~Well
STRT .m      855.12506104 :
STOP .m      3436.8750000 :
STEP .m     0.00000000 :
NULL .        -999.250000 :
COMP.           : COMPANY
WELL.  7/7-2 Brynhild   : WELL
FLD.            : FIELD
LOC.            : LOCATION
SRVC.           : SERVICE COMPANY
DATE.  2018-09-11 21:49:22   : Log Export Date {yyyy-MM-dd HH:mm:ss}
PROV.           : PROVINCE
UWI.   7/7-2   : UNIQUE WELL ID
API.            : API NUMBER
#==================================================================
~Curve
DEPT .m                   : DEPTH
CALI .in                  : CALI
DRHO .g/cm3               : DRHO
NPHI .m3/m3               : NPHI
RHOB .g/cm3               : RHOB
GR .gAPI                  : GR
DTC .us/ft                : DTC
RDEP .ohm.m               : RDEP
SP .mV                    : SP
RSHA .ohm.m               : RSHA
RMED .ohm.m               : RMED
~Parameter
#==================================================================
~Ascii
# ...
 3088.1250000 12.472000122 0.0549000017 0.0751999989 2.6492624283 17.603399277 64.873802185 4.0387001038  -999.250000  -999.250000 4.2727999687
 3088.2500000 12.562500000 0.0237000007 0.0936999992 2.6021943092 15.472800255 64.873802185 4.0093002319  -999.250000  -999.250000 4.2775001526
 3088.3750000 12.562500000 0.0630000010 0.0887999982 2.6499094963 14.324600220 64.877624512 3.9528999329  -999.250000  -999.250000 4.5626997948
 3088.5000000 12.562500000 0.0392999984 0.0741999969 2.6040434837 17.691799164 65.269004822 3.8492000103  -999.250000  -999.250000 4.8183999062
 3088.6250000 12.562500000 0.0450000018 0.0737999976 2.6026768684 17.740699768 65.041206360 3.7495999336  -999.250000  -999.250000 5.6020998955
 3088.7500000 12.562500000 0.0469000004 0.0874999985 2.6303625107 14.751399994 64.537841797 3.7258999348  -999.250000  -999.250000 6.8720002174
 3088.8750000 12.562500000 0.0208999999 0.0817999989 2.6205120087 14.923600197 64.020164490 3.7476000786  -999.250000  -999.250000 6.0465998650
 3089.0000000 12.562500000 0.0229000002 0.0838000029 2.6257147789 17.549699783 63.748035431 3.7850999832  -999.250000  -999.250000 4.7645001411
 3089.1250000 12.562500000 0.0243999995 0.0841000006 2.6254301071 15.530799866 64.250518799 3.8232998848  -999.250000  -999.250000 3.9958999157
 3089.2500000 12.562500000 0.0747999996 0.0813999996 2.6672949791 17.831899643 64.549896240 3.8239998817  -999.250000  -999.250000 3.8180000782
 3089.3750000 12.562500000 0.0685999990 0.0807999969 2.6597599983 17.422199249 64.771369934 3.8006999493  -999.250000  -999.250000 4.4689998627
 3089.5000000 12.562500000 0.0472999997 0.0931999981 2.6234807968 17.976200104 64.727905273 3.7904000282  -999.250000  -999.250000 5.8555002213
 3089.6250000 12.562500000 0.0502000004 0.0832000002 2.6230297089 16.793600082 64.478408813 3.7815999985  -999.250000  -999.250000 5.8225998878
 3089.7500000 12.562500000 0.0351000018 0.0886999965 2.6111030579 16.429700851 64.371910095 3.7279999256  -999.250000  -999.250000 4.7009000778
 3089.8750000 12.562500000 0.0491999984 0.0925000012 2.6607580185 15.353899956 63.701221466 3.6540999413  -999.250000  -999.250000 4.6472997665
 3090.0000000 12.562500000 0.0496000014 0.0807999969 2.7181673050 14.046600342 63.807968140 3.5920000076  -999.250000  -999.250000 6.1451001167
 3090.1252441 12.562500000 0.0066000000 0.0879999995 2.5867533684 14.882200241 64.037330627 3.5371999741  -999.250000  -999.250000 5.6726999283
 3090.2497559 12.562500000 0.0507000014 0.1128000021 2.6800851822 18.667499542 64.600906372 3.4779000282  -999.250000  -999.250000 4.0521998405
 3090.3747559 12.562500000 0.0386000015 0.0926000029 2.6139960289 22.354999542 65.761138916 3.4509999752  -999.250000  -999.250000 3.1665000916
 3090.5000000 12.562500000 0.0441000015 0.0895999968 2.6100168228 27.240100861 66.849456787 3.4449999332  -999.250000  -999.250000 3.0460000038
 3090.6250000 12.562500000 0.0474999994 0.0766000003 2.5987253189 24.286399841 67.732887268 3.3996000290  -999.250000  -999.250000 3.4716999531
 3090.7500000 12.562500000 0.0370999984 0.0834000036 2.6034989357 20.239099503 67.125831604 3.3059999943  -999.250000  -999.250000 4.3814001083
 3090.8750000 12.562500000 0.0120999999 0.0866999999 2.5649538040 14.843500137 65.952583313 3.2334001064  -999.250000  -999.250000 5.7602000237
 3091.0000000 12.562500000 0.0406000018 0.0863000005 2.6035828590 13.620100021 64.756095886 3.2109999657  -999.250000  -999.250000 6.4142999649
 3091.1250000 12.562500000 0.0430000015 0.0758000016 2.6397509575 11.771800041 63.584789276 3.2135999203  -999.250000  -999.250000 5.2843999863
 3091.2500000 12.562500000 0.0417999998 0.0776999965 2.6423587799 13.689399719 63.668399811 3.2360999584  -999.250000  -999.250000 4.6125998497
 3091.3750000 12.562500000 0.0324000008 0.1032000035 2.6169180870 15.723299980 63.681301117 3.2874000072  -999.250000  -999.250000 4.5756998062
 3091.5000000 12.562500000 0.0368000008 0.1136000007 2.6521782875 16.855899811 64.101837158 3.3733999729  -999.250000  -999.250000 5.1863999367
 3091.6250000 12.562500000 0.0368999988 0.0728000030 2.6468687057 15.593099594 64.783668518 3.4337000847  -999.250000  -999.250000 4.3557000160
 3091.7500000 12.562500000 0.0048000002 0.0863000005 2.5847382545 19.372299194 65.481246948 3.4890000820  -999.250000  -999.250000 3.8787999153
 3091.8750000 12.559999466 0.0469000004 0.0824000016 2.6721916199 19.073900223 66.176956177 3.5966000557  -999.250000  -999.250000 3.8426001072
 3092.0000000 12.491299629 0.0600999966 0.1112999991 2.7063469887 17.140300751 66.472610474 3.6932001114  -999.250000  -999.250000 4.2691998482
 3092.1250000 12.468700409 0.0621999986 0.1070000008 2.7213435173 18.462200165 66.982963562 3.7557001114  -999.250000  -999.250000 4.0882000923
 3092.2500000 12.468700409 0.0375000015 0.1102000028 2.6773114204 20.153200150 67.051696777 3.8317000866  -999.250000  -999.250000 4.1963000298
 3092.3752441 12.468700409 0.0105999997 0.1032000035 2.6559867859 21.205900192 66.754417419 3.9400999546  -999.250000  -999.250000 4.5089001656
 3092.5002441 12.468700409 0.0097000012 0.0798999965 2.6225576401 20.651899338 66.709838867 4.0223999023  -999.250000  -999.250000 4.5111999512
 3092.6247559 12.468700409 -0.009500000 0.0781999975 2.6193890572 21.063899994 67.079994202 4.0613999367  -999.250000  -999.250000 4.0946998596
 3092.7497559 12.468700409 0.0366000012 0.0885000005 2.6442465782 22.129299164 66.710060120 4.1119999886  -999.250000  -999.250000 4.3323001862
 3092.8750000 12.468700409 0.0152000003 0.0922000036 2.6040887833 22.225000381 66.671134949 4.2027001381  -999.250000  -999.250000 4.5278000832
 3093.0000000 12.468700409 0.0427000001 0.0850000009 2.6224827766 22.056600571 66.574348450 4.2916002274  -999.250000  -999.250000 4.2413997650
 3093.1250000 12.468700409 0.0080000004 0.0882999972 2.5671930313 18.030399323 66.091270447 4.3633999825  -999.250000  -999.250000 4.1217999458
 3093.2500000 12.468700409 0.0527000017 0.0882999972 2.6361837387 17.913000107 65.591255188 4.4460000992  -999.250000  -999.250000 4.6270999908
 3093.3750000 12.468700409 0.0494000018 0.0835999995 2.6498994827 15.706800461 64.224807739 4.5327000618  -999.250000  -999.250000 6.0062999725
 3093.5000000 12.468700409 0.0626000017 0.0828000009 2.6897449493 12.508299828 63.072345734 4.5946998596  -999.250000  -999.250000 7.0426998138
 3093.6250000 12.468700409 0.0373999998 0.0653000027 2.6974802017 14.845800400 61.671749115 4.6595001221  -999.250000  -999.250000 7.2199001312
 3093.7500000 12.468700409 0.0631000027 0.0641999990 2.7641291618 12.291999817 60.421783447 4.7472000122  -999.250000  -999.250000 7.3680000305
 3093.8750000 12.468700409 0.0359999985 0.0555999987 2.7115859985 13.199700356 59.993587494 4.8301000595  -999.250000  -999.250000 7.7122998238
 3094.0000000 12.472000122 0.0252000000 0.0581000000 2.6757841110 12.223999977 59.876831055 4.8942999840  -999.250000  -999.250000 7.7832999229
 3094.1250000 12.559201241 -0.006400000 0.0471000001 2.6292543411 13.267299652 60.568870544 4.9499001503  -999.250000  -999.250000 6.9860000610
 3094.2500000 12.468700409 0.0665000007 0.0562999994 2.7226800919 16.482000351 61.085220337 4.9938001633  -999.250000  -999.250000 5.7639999390
 3094.3750000 12.468700409 0.0711999983 0.0619999990 2.7210264206 18.784700394 61.709388733 4.9945001602  -999.250000  -999.250000 4.8510999680
 3094.5000000 12.468700409 0.0423999988 0.0649999976 2.6730413437 18.260599136 62.503356934 4.9767999649  -999.250000  -999.250000 4.7315998077
 3094.6250000 12.468700409 0.0671999976 0.0693000033 2.7354617119 17.136999130 62.988632202 4.9713001251  -999.250000  -999.250000 5.0587000847
 3094.7502441 12.468700409 0.0505000018 0.0790000036 2.6952772141 20.293699265 63.969089508 4.9688000679  -999.250000  -999.250000 5.0085000992
 3094.8752441 12.471199036 0.0408999994 0.0764999986 2.6896266937 24.803699493 65.103904724 4.9425997734  -999.250000  -999.250000 4.4765000343
 3094.9997559 12.539999008 0.0248000007 0.0815000013 2.6721749306 23.051799774 66.221504211 4.9414000511  -999.250000  -999.250000 4.0253000259
