# LAS format log file from PETREL
# Project units are specified as depth units
#==================================================================
~Version information
VERS.   2.0:
WRAP.   NO:
#==================================================================
~Well
STRT .m      855.12506104 :
STOP .m      3436.8750000 :
STEP .m     0.00000000 :
NULL .        -999.250000 :
COMP.           : COMPANY
WELL.  7/7-2 Brynhild   : WELL
FLD.            : FIELD
LOC.            : LOCATION
SRVC.           : SERVICE COMPANY
DATE.  2018-09-11 21:49:22   : Log Export Date {yyyy-MM-dd HH:mm:ss}
PROV.           : PROVINCE
UWI.   7/7-2   : UNIQUE WELL ID
API.            : API NUMBER
#==================================================================
~Curve
DEPT .m                   : DEPTH
CALI .in                  : CALI
DRHO .g/cm3               : DRHO
NPHI .m3/m3               : NPHI
RHOB .g/cm3               : RHOB
GR .gAPI                  : GR
DTC .us/ft                : DTC
RDEP .ohm.m               : RDEP
SP .mV                    : SP
RSHA .ohm.m               : RSHA
RMED .ohm.m               : RMED
~Parameter
#==================================================================
~Ascii
# ...
 2402.1250000 18.380100250 0.0253999997  -999.250000 2.3792519569 81.917701721 133.29699707 0.5924000144 33.095405579  -999.250000 0.5935999751
 2402.2500000 18.380100250 0.0408000015  -999.250000 2.4049367905 75.779899597 132.88452148 0.5952000022 32.937824249  -999.250000 0.5996999741
 2402.3750000 18.380100250 0.0412000008  -999.250000 2.4192824364 75.655899048 132.15747070 0.6000999808 33.285579681  -999.250000 0.6069999933
 2402.5000000 18.380100250 0.0693000033  -999.250000 2.4436378479 83.237899780 132.14076233 0.6060000062 33.667743683  -999.250000 0.6122999787
 2402.6250000 18.380100250 0.0305000003  -999.250000 2.4025611877 77.739700317 132.78172302 0.6157000065 33.481616974  -999.250000 0.6136999726
 2402.7500000 18.380100250 0.0408999994  -999.250000 2.4079356194 78.797996521 133.65176392 0.6310999990 33.783313751  -999.250000 0.6129999757
 2402.8750000 18.380100250 0.0390999988  -999.250000 2.3879685402 79.394897461 134.23982239 0.6442999840 33.700099945  -999.250000 0.6128000021
 2403.0000000 18.380100250 0.0351999998  -999.250000 2.3505225182 84.234001160 133.89439392 0.6525999904 33.285003662  -999.250000 0.6204000115
 2403.1250000 18.380100250 0.0274999999  -999.250000 2.3466625214 88.540496826 133.80220032 0.6485999823 33.578880310  -999.250000 0.6353999972
 2403.2500000 18.380100250 0.0562000014  -999.250000 2.3738780022 80.776702881 133.47810364 0.6507999897 33.730812073  -999.250000 0.6466000080
 2403.3750000 18.380100250 0.0313000008  -999.250000 2.3586950302 78.106498718 132.88331604 0.6498000026 33.300987244  -999.250000 0.6463999748
 2403.5000000 18.380100250 0.0461999997  -999.250000 2.3776345253 82.522697449 132.35037231 0.6431999803 32.924888611  -999.250000 0.6391000152
 2403.6250000 18.380100250 0.0417000018  -999.250000 2.3675808907 81.761596680 132.13267517 0.6353999972 32.658054352  -999.250000 0.6327999830
 2403.7500000 18.380100250 0.0535000004  -999.250000 2.3700060844 83.860198975 131.76264954 0.6270999908 33.511486053  -999.250000 0.6283000112
 2403.8750000 18.380100250 0.0474000014  -999.250000 2.3324346542 82.097000122 131.77133179 0.6230000257 33.385246277  -999.250000 0.6316000223
 2404.0000000 18.380100250 0.0432999991  -999.250000 2.3282260895 87.511802673 131.97975159 0.6229000092 33.825424194  -999.250000 0.6283000112
 2404.1250000 18.380100250 0.0581000000  -999.250000 2.3682799339 84.028701782 131.99925232 0.6226000190 33.823863983  -999.250000 0.6165999770
 2404.2500000 18.380100250 0.0423999988  -999.250000 2.3845219612 81.700302124 131.38920593 0.6234999895 33.572059631  -999.250000 0.6032000184
 2404.3750000 18.380100250 0.0472999997  -999.250000 2.4014148712 79.356399536 130.21495056 0.6265000105 33.745666504  -999.250000 0.6115999818
 2404.5000000 18.380100250 0.0170000009  -999.250000 2.3562488556 79.534500122 129.84217834 0.6280000210 33.746078491  -999.250000 0.6334999800
 2404.6250000 18.380100250 0.0335000008  -999.250000 2.3586559296 83.701400757 130.07958984 0.6268000007 33.723182678  -999.250000 0.6399000287
 2404.7500000 18.380100250 0.0434999987  -999.250000 2.3725435734 79.552299500 130.64253235 0.6437000036 33.621719360  -999.250000 0.6441000104
 2404.8750000 18.380100250 0.0355999991  -999.250000 2.3450622559 81.659896851 131.19982910 0.6779000163 33.685760498  -999.250000 0.6506000161
 2405.0000000 18.380100250 0.0537000000  -999.250000 2.3349919319 83.825798035 131.37236023 0.7045999765 33.603500366  -999.250000 0.6482999921
 2405.1250000 18.380100250 0.0313000008  -999.250000 2.3179259300 82.470703125 131.93968201 0.7300999761 33.921012878  -999.250000 0.6377999783
 2405.2500000 18.380100250 0.0201999992  -999.250000 2.3466477394 79.981399536 132.53402710 0.7692000270 34.005699158  -999.250000 0.6279000044
 2405.3750000 18.380100250 0.0199999996  -999.250000 2.3726053238 87.494903564 132.83839417 0.8014000058 33.855556488  -999.250000 0.6338999867
 2405.5000000 18.380100250 0.0219999999  -999.250000 2.3641762733 80.148498535 132.82768250 0.8446999788 33.603199005  -999.250000 0.6524000168
 2405.6250000 18.380100250 0.0390999988  -999.250000 2.4085233212 78.911499023 132.84762573 0.9004999995 33.436958313  -999.250000 0.6687999964
 2405.7500000 18.380100250 0.0143999998  -999.250000 2.3729567528 82.378898621 132.82656860 0.9672999978 33.258316040  -999.250000 0.6754999757
 2405.8750000 18.380100250 0.0116999997  -999.250000 2.3516635895 82.541496277 132.83950806 1.0435999632 33.869022369  -999.250000 0.6801999807
 2406.0000000 18.380100250 0.0046000001  -999.250000 2.3039870262 79.823997498 132.84820557 1.0925999880 33.674385071  -999.250000 0.6909999847
 2406.1250000 18.380100250 0.0326000005  -999.250000 2.3739342690 80.524299622 132.84042358 1.1111999750 33.908767700  -999.250000 0.7017999887
 2406.2500000 18.380100250 0.0212999992  -999.250000 2.3813700676 80.842002869 132.82249451 1.1210999489 34.490909576  -999.250000 0.7129999995
 2406.3750000 18.380100250 0.0502999984  -999.250000 2.4537291527 77.145797729 132.82249451 1.1126999855 34.858581543  -999.250000 0.6923000216
 2406.5000000 18.380100250 0.0063000000  -999.250000 2.4559035301 76.673599243 133.04325867 1.0907000303 35.360305786  -999.250000 0.6518999934
 2406.6250000 18.380100250 0.0513999984  -999.250000 2.4672741890 79.346496582 132.94308472 1.0772000551 34.971668243  -999.250000 0.6226000190
 2406.7500000 18.380100250 0.0952000022  -999.250000 2.5055623055 70.855903625 132.83287048 1.0630999804 35.269054413  -999.250000 0.6280999780
 2406.8750000 18.377700806 0.0408000015  -999.250000 2.3861231804 73.171096802 132.84245300 1.0194000006 34.815639496  -999.250000 0.6565999985
 2407.0000000 18.309900284 0.0399000011  -999.250000 2.3737711906 79.244903564 132.82249451 0.9574000239 34.600639343  -999.250000 0.6786999702
 2407.1250000 18.287700653 0.0535999984  -999.250000 2.3848381042 77.252700806 132.82249451 0.9000999928 35.114021301  -999.250000 0.6915000081
 2407.2500000 18.287700653 0.0641999990  -999.250000 2.3837342262 80.650199890 132.85752869 0.8485999703 35.261638641  -999.250000 0.7003999949
 2407.3750000 18.287700653 0.0513000004  -999.250000 2.3653931618 82.609001160 132.84785461 0.8022999763 35.680778503  -999.250000 0.7024000287
 2407.5000000 18.287700653 0.0441000015  -999.250000 2.3610820770 80.394500732 132.82249451 0.7669000030 35.881206512  -999.250000 0.7027999759
 2407.6250000 18.287700653 0.0250000004  -999.250000 2.3537464142 85.163597107 132.82249451 0.7444000244 35.533679962  -999.250000 0.6912999749
 2407.7500000 18.287700653 0.0366999991  -999.250000 2.3827195168 80.207000732 132.82249451 0.7287999988 35.068618774  -999.250000 0.6850000024
 2407.8750000 18.287700653 0.0176999997  -999.250000 2.3723535538 79.986602783 132.84268188 0.7091000080 34.327640533  -999.250000 0.6829000115
 2408.0000000 18.287700653 0.0183000006  -999.250000 2.3686904907 85.102699280 132.84820557 0.6941000223 34.034523010  -999.250000 0.6786000133
 2408.1250000 18.287700653 0.0482000001  -999.250000 2.3901429176 86.346603394 132.83724976 0.6866000295 34.145790100  -999.250000 0.6693000197
 2408.2500000 18.287700653 0.0373000018  -999.250000 2.3575601578 90.370201111 132.77006531 0.6747000217 34.147624969  -999.250000 0.6585999727
 2408.3750000 18.287700653 0.0491999984  -999.250000 2.3937568665 90.953498840 132.60969543 0.6607999802 33.821113586  -999.250000 0.6478000283
 2408.5000000 18.287700653 0.0272000004  -999.250000 2.3480658531 90.850700378 132.60969543 0.6475999951 33.802310944  -999.250000 0.6473000050
 2408.6250000 18.287700653 0.0454000011  -999.250000 2.3512721062 90.650901794 132.42240906 0.6341999769 34.346984863  -999.250000 0.6521000266
 2408.7500000 18.285999298 0.0195000004  -999.250000 2.3536310196 84.156501770 132.23292542 0.6226999760 34.283905029  -999.250000 0.6524000168
 2408.8750000 18.239700317 0.0357000008  -999.250000 2.3796744347 74.593399048 132.12339783 0.6146000028 34.563655853  -999.250000 0.6438000202
 2409.0000000 18.195199966 0.0245999992  -999.250000 2.3526616096 70.526199341 132.14569092 0.6108999848 34.706005096  -999.250000 0.6301000118
