# LAS format log file from PETREL
# Project units are specified as depth units
#==================================================================
~Version information
VERS.   2.0:
WRAP.   NO:
#==================================================================
~Well
STRT .m      513.13079834 :
STOP .m      3511.9055176 :
STEP .m     0.00000000 :
NULL .        -999.250000 :
COMP.           : COMPANY
WELL.  7/7-1   : WELL
FLD.            : FIELD
LOC.            : LOCATION
SRVC.           : SERVICE COMPANY
DATE.  2018-09-11 21:49:22   : Log Export Date {yyyy-MM-dd HH:mm:ss}
PROV.           : PROVINCE
UWI.   7/7-1   : UNIQUE WELL ID
API.            : API NUMBER
#==================================================================
~Curve
DEPT .m                   : DEPTH
CALI .in                  : CALI
DRHO .g/cm3               : DRHO
NPHI .m3/m3               : NPHI
RHOB .g/cm3               : RHOB
GR .gAPI                  : GR
DTC .us/ft                : DTC
RDEP .ohm.m               : RDEP
SP .mV                    : SP
RSHA .ohm.m               : RSHA
RMIC .ohm.m               : RMIC
RMED .ohm.m               : RMED
~Parameter
#==================================================================
~Ascii
# ...
 746.30279541 17.863300323 0.0259739999  -999.250000 1.9957051277 52.212100983 154.36352539 1.1006000042 -99.57039642 1.0463000536  -999.250000 0.9513000250
 746.45520020 17.860799789 0.0400899984  -999.250000 2.0135936737 49.817401886 154.24729919 1.1003999710 -99.99330139 1.0635999441  -999.250000 0.9581000209
 746.60760498 17.858999252 0.0333530009  -999.250000 2.0286352634 49.226600647 154.18460083 1.1111999750 -99.72560120 1.0681999922  -999.250000 0.9675999880
 746.76000977 17.857400894 0.0179340001  -999.250000 2.0175516605 49.386901855 154.06849670 1.1267000437 -99.17040253 1.0673999786  -999.250000 0.9782999754
 746.91241455 17.855899811 0.0025140001  -999.250000 1.9931232929 49.547199249 154.00569153 1.1421999931 -98.61519623 1.0666999817  -999.250000 0.9890000224
 747.06481934 17.855499268 -0.004572000  -999.250000 1.9779698849 49.716899872 153.88943481 1.1447999477 -98.03849792 1.0657000542  -999.250000 0.9943000078
 747.21722412 17.856599808 -0.000393000  -999.250000 1.9735498428 49.899398804 153.78616333 1.1299999952 -97.43280029 1.0644999743  -999.250000 0.9923999906
 747.36962891 17.857799530 0.0037860000  -999.250000 1.9720547199 50.081901550 153.10411072 1.1151000261 -96.82720184 1.0631999969  -999.250000 0.9904000163
 747.52203369 17.859199524 0.0052189999  -999.250000 1.9778132439 50.217800140 151.40533447 1.0994999409 -96.38950348 1.0608999729  -999.250000 0.9836999774
 747.67437744 17.862899780 -0.009628000  -999.250000 1.9938969612 50.076999664 149.53857422 1.0787999630 -96.94750214 1.0526000261  -999.250000 0.9488999844
 747.82678223 17.866500854 -0.024475001  -999.250000 2.0140335560 49.936298370 149.76017761 1.0579999685 -97.50550079 1.0442999601  -999.250000 0.9140999913
 747.97918701 17.870100021 -0.039321002  -999.250000 2.0199961662 49.795600891 153.31236267 1.0372999907 -98.06349945 1.0360000134  -999.250000 0.8792999983
 748.13159180 17.874000549 -0.025444999  -999.250000 2.0065150261 50.735298157 158.52058411 1.0276000500 -97.59290314 1.0263999701  -999.250000 0.8852999806
 748.28399658 17.877899170 -0.007029000  -999.250000 1.9955346584 51.845699310 162.29840088 1.0195000172 -96.95980072 1.0167000294  -999.250000 0.8977000117
 748.43640137 17.881700516 0.0113869999  -999.250000 2.0013184547 52.956100464 161.99147034 1.0115000010 -96.32669830 1.0068999529  -999.250000 0.9101999998
 748.58880615 17.882299423 0.0207780004  -999.250000 2.0143818855 52.831699371 158.86787415 1.0111999512 -96.00530243 1.0139000416  -999.250000 0.9146000147
 748.74121094 17.880599976 0.0237060003  -999.250000 2.0308449268 51.822898865 154.97084045 1.0163999796 -95.90709686 1.0328999758  -999.250000 0.9132000208
 748.89361572 17.878900528 0.0266340002  -999.250000 2.0504963398 50.814098358 153.17228699 1.0216000080 -95.80889893 1.0519000292  -999.250000 0.9118999839
 749.04602051 17.877099991 0.0263940003  -999.250000 2.0596325397 50.163799286 155.22761536 1.0312999487 -95.86139679 1.0626000166  -999.250000 0.9136000276
 749.19842529 17.875099182 0.0188280009  -999.250000 2.0578484535 50.342700958 156.76182556 1.0512000322 -96.26249695 1.0542999506  -999.250000 0.9223999977
 749.35083008 17.872999191 0.0112619987  -999.250000 2.0562057495 50.521598816 156.05262756 1.0712000132 -96.66349792 1.0460000038  -999.250000 0.9311000109
 749.50323486 17.871099472 0.0038689999  -999.250000 2.0529587269 50.707199097 154.70074463 1.0909999609 -97.03849792 1.0383000374  -999.250000 0.9401999712
 749.65563965 17.875999451 0.0045679999  -999.250000 2.0490651131 51.207801819 153.72540283 1.1016999483 -96.19660187 1.0571999550  -999.250000 0.9610999823
 749.80798340 17.880899429 0.0052660001  -999.250000 2.0446450710 51.708301544 153.87055969 1.1124000549 -95.35459900 1.0760999918  -999.250000 0.9819999933
 749.96038818 17.885700226 0.0059639998  -999.250000 2.0436728001 52.208900452 154.26654053 1.1231000423 -94.51260376 1.0950000286  -999.250000 1.0029000044
 750.11279297 17.886999130 0.0035039999  -999.250000 2.0413286686 52.226001740 154.46005249 1.1419999599 -94.52590179 1.0968999863  -999.250000 1.0109000206
 750.26519775 17.886999130 -0.000065000  -999.250000 2.0380039215 52.073501587 154.87297058 1.1639000177 -94.83940125 1.0929000378  -999.250000 1.0144000053
 750.41760254 17.886999130 -0.003634000  -999.250000 2.0373408794 51.920898438 155.97126770 1.1857000589 -95.15290070 1.0888999701  -999.250000 1.0177999735
 750.57000732 17.884799957 -0.002876000  -999.250000 2.0370984077 52.307201385 158.03865051 1.1938999891 -95.08300018 1.0867999792  -999.250000 1.0217000246
 750.72241211 17.879899979 0.0029760001  -999.250000 2.0418365002 53.327701569 159.75524902 1.1859999895 -94.56189728 1.0868999958  -999.250000 1.0259000063
 750.87481689 17.875000000 0.0088290004  -999.250000 2.0528683662 54.348201752 159.89515686 1.1780999899 -94.04070282 1.0870000124  -999.250000 1.0300999880
 751.02722168 17.871000290 0.0137890000  -999.250000 2.0610253811 54.890201569 158.79991150 1.1705000401 -93.56439972 1.0865999460  -999.250000 1.0307999849
 751.17962646 17.871000290 0.0146479998  -999.250000 2.0684008598 53.229999542 156.78468323 1.1641000509 -93.29399872 1.0836999416  -999.250000 1.0149999857
 751.33203125 17.871000290 0.0155060003  -999.250000 2.0794415474 51.569801331 154.20120239 1.1576999426 -93.02359772 1.0808000565  -999.250000 0.9993000031
 751.48443604 17.871000290 0.0163640007  -999.250000 2.0864534378 49.909599304 151.48225403 1.1513999701 -92.75319672 1.0778000355  -999.250000 0.9835000038
 751.63684082 17.871099472 0.0255960003  -999.250000 2.0757553577 52.493400574 150.61883545 1.1562000513 -93.43640137 1.0644999743  -999.250000 0.9937000275
 751.78924561 17.871299744 0.0357830003  -999.250000 2.0608043671 55.561199188 152.16349792 1.1621999741 -94.22830200 1.0499999523  -999.250000 1.0068000555
 751.94158936 17.871400833 0.0459709987  -999.250000 2.0611314774 58.629001617 154.27815247 1.1683000326 -95.02020264 1.0355000496  -999.250000 1.0198999643
 752.09399414 17.874300003 0.0408050008  -999.250000 2.0817725658 59.462200165 155.94018555 1.1691999435 -94.82140350 1.0363999605  -999.250000 1.0221999884
 752.24639893 17.878900528 0.0261020008  -999.250000 2.1090979576 58.907199860 156.04794312 1.1669000387 -94.00700378 1.0470000505  -999.250000 1.0176999569
 752.39880371 17.883600235 0.0113990000  -999.250000 2.1143002510 58.352199554 154.70338440 1.1646000147 -93.19259644 1.0575000048  -999.250000 1.0132000446
 752.55120850 17.888000488 0.0009250000  -999.250000 2.0960350037 57.594001770 153.73489380 1.1655999422 -92.52330017 1.0597000122  -999.250000 1.0109000206
 752.70361328 17.892000198 -0.001189000  -999.250000 2.0789813995 56.434299469 154.03201294 1.1728999615 -92.14060211 1.0451999903  -999.250000 1.0127999783
 752.85601807 17.895999908 -0.003303000  -999.250000 2.0648052692 55.274600983 154.97309875 1.1801999807 -91.75800323 1.0306999683  -999.250000 1.0147999525
 753.00842285 17.900299072 -0.004536000  -999.250000 2.0509035587 54.066398621 155.68240356 1.1856000423 -91.39550018 1.0178999901  -999.250000 1.0154999495
 753.16082764 17.909900665 0.0093409996  -999.250000 2.0517580509 52.028301239 155.68284607 1.1576000452 -91.37840271 1.0338000059  -999.250000 0.9951999784
 753.31323242 17.919500351 0.0232170001  -999.250000 2.0669066906 49.990299225 155.69718933 1.1296999454 -91.36129761 1.0497000217  -999.250000 0.9750000238
 753.46563721 17.929100037 0.0370940007  -999.250000 2.0835528374 47.952201843 155.79187012 1.1016999483 -91.34410095 1.0657000542  -999.250000 0.9548000097
 753.61804199 17.928499222 0.0351530015  -999.250000 2.0860664845 48.424400330 155.65827942 1.1125999689 -91.23410034 1.0595999956  -999.250000 0.9623000026
 753.77044678 17.924800873 0.0286010001  -999.250000 2.0744855404 49.628398895 155.35279846 1.1348999739 -91.09690094 1.0470999479  -999.250000 0.9779000282
 753.92279053 17.921199799 0.0220490005  -999.250000 2.0660092831 50.832401276 154.92358398 1.1571999788 -90.95970154 1.0345000029  -999.250000 0.9934999943
