# LAS format log file from PETREL
# Project units are specified as depth units
#==================================================================
~Version information
VERS.   2.0:
WRAP.   NO:
#==================================================================
~Well
STRT .m      2674.6198730 :
STOP .m      4399.4833984 :
STEP .m     0.00000000 :
NULL .        -999.250000 :
COMP.           : COMPANY
WELL.  7/8-4 T2   : WELL
FLD.            : FIELD
LOC.            : LOCATION
SRVC.           : SERVICE COMPANY
DATE.  2018-09-11 21:49:25   : Log Export Date {yyyy-MM-dd HH:mm:ss}
PROV.           : PROVINCE
UWI.   7/8-4 T2   : UNIQUE WELL ID
API.            : API NUMBER
#==================================================================
~Curve
DEPT .m                   : DEPTH
DCAL .in                  : DCAL
CALI .in                  : CALI
BS .in                    : BS
ROP .m/h                  : ROP
DRHO .g/cm3               : DRHO
NPHI .m3/m3               : NPHI
RHOB .g/cm3               : RHOB
PEF .b/e                  : PEF
GR .gAPI                  : GR
DTC .us/ft                : DTC
RDEP .ohm.m               : RDEP
SP .mV                    : SP
RSHA .ohm.m               : RSHA
RMED .ohm.m               : RMED
~Parameter
#==================================================================
~Ascii
# ...
 2905.8110352 3.7760999203 16.026100159 12.250000954 84.965553284 -0.005070646 0.3595732749 2.3595108986 10.170105934 82.873107910 122.20270538 0.6147179604 39.753799438 0.5325999856 0.6470000148
 2905.9633789 3.7209000587 15.970899582 12.250000954 86.604202271 -0.004026152 0.3634076416 2.3628880978 10.576774597 83.529983521 122.01679230 0.6202964783 39.685798645 0.5159999728 0.6266000271
 2906.1157227 3.6499001980 15.899900436 12.250000954 88.159271240 -0.004121734 0.3719190359 2.3553826809 10.498826981 84.022003174 122.27059937 0.6180924773 40.764099121 0.4997000098 0.6356999874
 2906.2680664 3.5738999844 15.823900223 12.250000954 89.687156677 -0.004579734 0.3819150329 2.3444826603 10.266427040 84.461204529 122.66429901 0.6133924723 42.207298279 0.4835000038 0.6541000009
 2906.4206543 3.4979996681 15.748000145 12.250000954 91.213668823 -0.005037352 0.3919083774 2.3336064816 10.035469055 84.901123047 123.05799866 0.6087153554 43.650398254 0.4672999978 0.6725999713
 2906.5729980 3.3840000629 15.634000778 12.250000954 91.647407532 -0.005146565 0.3957524300 2.3356256485 10.369927406 85.312606812 121.98210144 0.6135243773 44.838001251 0.4702000022 0.6798999906
 2906.7253418 3.2284998894 15.478500366 12.250000954 90.890518188 -0.004875564 0.3929044306 2.3517258167 11.323127747 85.695312500 119.29930115 0.6287245154 45.746101379 0.4941000044 0.6747999787
 2906.8776855 3.0729999542 15.322999954 12.250000954 90.133041382 -0.004603325 0.3900555670 2.3678295612 12.275357246 86.076896667 116.61650085 0.6440132856 46.654300690 0.5180000067 0.6697000265
 2907.0302734 2.9277997017 15.177801132 12.250000954 89.004104614 -0.004179688 0.3866540790 2.3862891197 12.679224014 85.814178467 114.15730286 0.6522366405 47.020900726 0.5928999782 0.6845999956
 2907.1826172 2.8241996765 15.074199677 12.250000954 86.395416260 -0.003146343 0.3810620308 2.4141445160 10.877007484 82.966926575 112.61070251 0.6324682832 45.178199768 0.8758000135 0.7813000083
 2907.3349609 2.7205996513 14.970600128 12.250000954 83.782562256 -0.002112341 0.3754610419 2.4419448376 9.0720071793 80.115028381 111.06410217 0.6126680970 43.335498810 1.1586999893 0.8779000044
 2907.4873047 2.6171000004 14.867099762 12.250000954 81.173088074 -0.001083599 0.3698712587 2.4697568417 7.2687277794 77.268249512 109.51750183 0.5928482413 41.492801666 1.4416999817 0.9746000171
 2907.6396484 2.5724000931 14.822400093 12.250000954 80.673072815 -0.003954175 0.3712882996 2.4427490234 6.5996942520 77.551918030 111.98320007 0.6229556203 40.695800781 1.2417000532 0.8957999945
 2907.7922363 2.5331001282 14.783100128 12.250000954 80.365814209 -0.007188330 0.3733515739 2.4107980728 6.0336918831 78.123321533 114.81679535 0.6577110291 39.994598389 0.9975000024 0.8008999825
 2907.9445801 2.4937999249 14.743800163 12.250000954 80.059005737 -0.010411136 0.3753872812 2.3790178299 5.4704256058 78.692428589 117.65039825 0.6923363805 39.293498993 0.7531999946 0.7059999704
 2908.0969238 2.4723000526 14.722299576 12.250000954 79.409400940 -0.013616114 0.3649477959 2.3901574612 5.4871611595 78.895187378 115.60649872 0.7150256038 39.765899658 0.7742999792 0.7225999832
 2908.2492676 2.4610002041 14.711000443 12.250000954 78.563278198 -0.016807113 0.3473468125 2.4259574413 5.8372612000 78.887184143 110.76119995 0.7310254574 40.912300110 0.9477000237 0.8032000065
 2908.4018555 2.4497001171 14.699699402 12.250000954 77.717262268 -0.019993832 0.3297524452 2.4617278576 6.1875934601 78.879585266 105.91589355 0.7469240427 42.058799744 1.1210999489 0.8838000298
 2908.5541992 2.4865999222 14.736599922 12.250000954 77.330108643 -0.020558268 0.3230579197 2.4703347683 6.4348993301 78.998664856 104.07150269 0.7543871999 43.476001740 1.2467999458 0.9341999888
 2908.7065430 2.6112999916 14.861300468 12.250000954 77.774658203 -0.016358269 0.3361199200 2.4296345711 6.4968991280 79.348762512 107.69550323 0.7463871837 45.386600494 1.2857999802 0.9296000004
 2908.8588867 2.7360000610 14.986000061 12.250000954 78.219017029 -0.012159758 0.3491821289 2.3889367580 6.5590720177 79.699218750 111.31950378 0.7383816838 47.297298431 1.3246999979 0.9250000119
 2909.0114746 2.8485000134 15.098500252 12.250000954 78.746330261 -0.008270811 0.3623889685 2.3495213985 6.7332806587 80.213768005 115.05700684 0.7268258929 49.000598907 1.3402999640 0.9124000072
 2909.1638184 2.8057000637 15.055700302 12.250000954 80.262275696 -0.008211905 0.3770425022 2.3249607086 8.2559442520 82.699790955 120.22489929 0.6725127697 48.091400146 1.0607999563 0.8004999757
 2909.3161621 2.7630000114 15.012999535 12.250000954 81.780319214 -0.008152905 0.3917195201 2.3003606796 9.7810440063 85.189788818 125.39270020 0.6181128025 47.181999207 0.7813000083 0.6884999871
 2909.4685059 2.7202999592 14.970300674 12.250000954 83.296928406 -0.008093748 0.4063615501 2.2759225368 11.302853584 87.677764893 130.56050110 0.5637522340 46.272701263 0.5019000173 0.5766000152
 2909.6208496 2.8039999008 15.053999901 12.250000954 83.711166382 -0.007936707 0.3985871673 2.2900388241 10.773592949 88.906044006 130.18040466 0.5339623094 44.847000122 0.4417999983 0.5645999908
 2909.7734375 2.9207999706 15.170800209 12.250000954 83.837677002 -0.007753414 0.3849293590 2.3142774105 9.7063894272 89.806274414 128.34899902 0.5104247928 43.286098480 0.4390999973 0.5788000226
 2909.9257813 3.0376999378 15.287699699 12.250000954 83.962997437 -0.007572449 0.3713345826 2.3384082317 8.6434440613 90.701377869 126.51760101 0.4869844317 41.725200653 0.4363999963 0.5929999948
 2910.0781250 3.0931999683 15.343199730 12.250000954 83.594131470 -0.008478109 0.3698400855 2.3435792923 8.1723508835 90.186019897 125.51089478 0.4773054421 41.253398895 0.4508000016 0.6029999852
 2910.2304688 3.0901999474 15.340199471 12.250000954 82.754890442 -0.010418111 0.3798911273 2.3305792809 8.2663507462 88.326019287 125.29090118 0.4807054400 41.820400238 0.4814999998 0.6092000008
 2910.3830566 3.0873000622 15.337300301 12.250000954 81.914878845 -0.012360218 0.3899545074 2.3176622391 8.3608226776 86.464195251 125.07090759 0.4841032028 42.387298584 0.5121999979 0.6152999997
 2910.5354004 3.0792999268 15.329299927 12.250000954 81.255798340 -0.013672790 0.3985330462 2.3058874607 8.5557498932 84.966606140 124.98210144 0.4850892723 43.037300110 0.5317000151 0.6165000200
 2910.6877441 3.0548999310 15.304900169 12.250000954 81.186904907 -0.012917791 0.4023010433 2.2979876995 9.0857486725 84.656906128 125.33010101 0.4783892632 43.963199615 0.5141000152 0.6015999913
 2910.8400879 3.0304002762 15.280400276 12.250000954 81.118003845 -0.012162791 0.4060690403 2.2901875973 9.6156501770 84.347206116 125.67800140 0.4716892838 44.889099121 0.4964999855 0.5866000056
 2910.9926758 3.0060000420 15.256000519 12.250000954 81.052101135 -0.011402532 0.4097989202 2.2825095654 10.143793106 84.037574768 126.02590179 0.4650067091 45.815101624 0.4788999856 0.5716000199
 2911.1450195 2.9407999516 15.190799713 12.250000954 81.852409363 -0.009384654 0.3997917771 2.3167583942 9.8294239044 83.904800415 124.17079926 0.4671041667 44.748001099 0.4988000095 0.5781999826
 2911.2973633 2.8735001087 15.123499870 12.250000954 82.699523926 -0.007296654 0.3890447617 2.3532583714 9.4702253342 83.781105042 122.20010376 0.4697040021 43.576400757 0.5207999945 0.5857999921
 2911.4497070 2.8062999249 15.056300163 12.250000954 83.546401978 -0.005214309 0.3783133328 2.3897476196 9.1103906631 83.654266357 120.22940063 0.4722246826 42.404701233 0.5428000093 0.5935000181
 2911.6020508 2.7860999107 15.036100388 12.250000954 84.250358582 -0.006658103 0.3766685724 2.4194421768 8.2930278778 81.635368347 118.53810120 0.4876345992 41.711200714 0.5812000036 0.6082000136
 2911.7546387 2.7890999317 15.039100647 12.250000954 84.884254456 -0.009847188 0.3795150816 2.4457840919 7.2481617928 78.677650452 116.98490143 0.5092694163 41.254001617 0.6277999878 0.6263999939
 2911.9069824 2.7922000885 15.042200089 12.250000954 85.514953613 -0.013024360 0.3823464513 2.4720137119 6.2069959641 75.732620239 115.43160248 0.5309339762 40.796798706 0.6743999720 0.6445999742
