# LAS format log file from PETREL
# Project units are specified as depth units
#==================================================================
~Version information
VERS.   2.0:
WRAP.   NO:
#==================================================================
~Well
STRT .m      2126.7421875 :
STOP .m      3314.5480957 :
STEP .m     0.00000000 :
NULL .        -999.250000 :
COMP.           : COMPANY
WELL.  7/8-1   : WELL
FLD.            : FIELD
LOC.            : LOCATION
SRVC.           : SERVICE COMPANY
DATE.  2018-09-11 21:49:23   : Log Export Date {yyyy-MM-dd HH:mm:ss}
PROV.           : PROVINCE
UWI.   7/8-1   : UNIQUE WELL ID
API.            : API NUMBER
#==================================================================
~Curve
DEPT .m                   : DEPTH
CALI .in                  : CALI
DRHO .g/cm3               : DRHO
NPHI .m3/m3               : NPHI
RHOB .g/cm3               : RHOB
GR .gAPI                  : GR
DTC .us/ft                : DTC
RDEP .ohm.m               : RDEP
SP .mV                    : SP
RSHA .ohm.m               : RSHA
RMIC .ohm.m               : RMIC
RMED .ohm.m               : RMED
~Parameter
#==================================================================
~Ascii
# ...
 2359.9143066 9.6730003357 0.0080000004 0.3806999922 2.2320001125 57.744998932 138.88499451 0.3345000148 45.171199799 0.5849999785 0.4555000067 0.6464999914
 2360.0666504 9.6719999313 0.0010112000 0.3734999895 2.2200193405 57.810001373 139.33027649 0.3393999934 44.784198761 0.5830032229 0.4535031915 0.6477000117
 2360.2189941 9.6630001068 0.0029967949 0.3774999976 2.2130112648 57.715999603 139.15129089 0.3443000019 44.464401245 0.5810031891 0.4391230643 0.6488000154
 2360.3713379 9.6719999313 0.0069935899 0.3910000026 2.2120015621 58.525001526 138.38722229 0.3506000042 45.036998749 0.5750095844 0.3674150705 0.6511999965
 2360.5239258 9.6549997330 0.0080000004 0.3977000117 2.2219998837 60.443000793 137.53199768 0.3616000116 44.944900513 0.5619999766 0.3463999927 0.6539000273
 2360.6762695 9.6309995651 0.0070016002 0.3874999881 2.2399711609 62.285999298 136.84509277 0.3743000031 45.088100433 0.5550112128 0.3678656220 0.6560999751
 2360.8286133 9.6529998779 0.0060016024 0.3743000031 2.2509822845 62.693000793 136.72119141 0.3842999935 45.359798431 0.5569967628 0.4163222611 0.6559000015
 2360.9809570 9.6829996109 0.0069983979 0.3806000054 2.2490031719 61.445999146 137.01152039 0.3831000030 45.702499390 0.5579984188 0.4819947183 0.6542000175
 2361.1335449 9.6909999847 0.0170000009 0.3923999965 2.2590000629 60.175998688 136.96299744 0.3727000058 46.004199982 0.5540000200 0.4887999892 0.6516000032
 2361.2858887 9.7200002670 0.0299999993 0.3930999935 2.2690000534 59.650001526 137.14599609 0.3653999865 46.517101288 0.5529999733 0.4618000090 0.6489999890
 2361.4382324 9.7810001373 0.0250080004 0.3898000121 2.2650065422 60.290000916 138.01161194 0.3589000106 46.755199432 0.5490064025 0.4498192072 0.6455000043
 2361.5905762 9.8000001907 0.0080272444 0.3885999918 2.2470288277 61.827999115 138.89857483 0.3526999950 46.397098541 0.5460048318 0.3954871595 0.6420000196
 2361.7431641 9.8400001526 0.0010000000 0.3901999891 2.2360000610 63.064998627 139.47700500 0.3476000130 46.931701660 0.5429999828 0.3901999891 0.6377000213
 2361.8955078 9.8789997101 0.0060000001 0.3898999989 2.2339999676 63.660999298 139.32600403 0.3424000144 46.732498169 0.5339999795 0.3883000016 0.6309000254
 2362.0478516 9.8120002747 0.0060000001 0.3873000145 2.2250142097 64.892997742 138.24374390 0.3389999866 46.622501373 0.5240159631 0.3729246557 0.6226999760
 2362.2001953 9.7419996262 0.0050016022 0.3811999857 2.2269968987 66.422996521 137.14376831 0.3413999975 46.489799500 0.5140160322 0.4013543129 0.6148999929
 2362.3525391 9.6789999008 0.0179791655 0.3792000115 2.2489647865 67.245002747 136.87142944 0.3476000130 46.293498993 0.5040160418 0.3933129907 0.6100999713
 2362.5051270 9.6529998779 0.0299999993 0.3770999908 2.2550001144 67.163002014 136.79100037 0.3537999988 46.367099762 0.5189999938 0.4167999923 0.6072999835
 2362.6574707 9.6789999008 0.0270048007 0.3817000091 2.2490096092 66.932998657 136.73008728 0.3598000109 46.691699982 0.5469551682 0.4260851145 0.6089000106
 2362.8098145 9.7320003510 0.0070320517 0.3955999911 2.2290320396 66.385002136 136.42349243 0.3655999899 46.468399048 0.5689647198 0.4235041738 0.6169999838
 2362.9621582 9.7360000610 -0.004980769 0.4013999999 2.2230095863 64.545997620 135.69216919 0.3713999987 46.656398773 0.5809807181 0.3438278735 0.6247000098
 2363.1147461 9.7170000076 0.0020000001 0.3982000053 2.2330000401 63.624000549 135.57200623 0.3772000074 46.882999420 0.5929999948 0.4338999987 0.6323999763
 2363.2670898 9.7019996643 -0.002000000 0.4007999897 2.2339999676 64.557998657 136.07899475 0.3835999966 46.494998932 0.6069999933 0.4618999958 0.6391000152
 2363.4194336 9.7080001831 0.0019936000 0.4009000063 2.2459807396 65.747001648 136.04406738 0.3916000128 46.305400848 0.6050032377 0.4612011313 0.6437000036
 2363.5717773 9.7209997177 0.0079903854 0.3871000111 2.2450015545 65.356002808 136.08193970 0.3993999958 46.314300537 0.5980111957 0.3746389449 0.6480000019
 2363.7243652 9.7010002136 0.0000000000 0.3754000068 2.2400000095 64.804000854 136.85800171 0.4041000009 46.124698639 0.5929999948 0.3474000096 0.6521000266
 2363.8767090 9.6909999847 -0.004000000 0.3718000054 2.2379999161 64.464996338 137.89799500 0.3993999958 46.927398682 0.5960000157 0.3925999999 0.6529999971
 2364.0290527 9.7150001526 0.0039872001 0.3786999881 2.2379999161 62.868999481 139.00222778 0.3820999861 46.970100403 0.5989951491 0.4724720120 0.6484000087
 2364.1813965 9.7379999161 0.0000064103 0.3781000078 2.2350046635 60.271999359 139.62899780 0.3609000146 46.824298859 0.6019951701 0.4799881279 0.6437000036
 2364.3339844 9.7460002899 -0.003000000 0.3794000149 2.2219998837 59.083000183 139.36700439 0.3476999998 46.404998779 0.6060000062 0.4666999876 0.6391000152
 2364.4863281 9.7650003433 -0.006000000 0.3876999915 2.2139999866 60.356998444 138.63999939 0.3467000127 46.764400482 0.6050000191 0.4584999979 0.6345000267
 2364.6386719 9.7100000381 -0.002006400 0.3916999996 2.2199904919 61.219001770 137.72146606 0.3429000080 46.574798584 0.6059983969 0.3985959888 0.6305999756
 2364.7910156 9.7159996033 -0.003996795 0.3957000077 2.2239935398 61.623001099 136.69464111 0.3391000032 46.514301300 0.6040031910 0.3923099339 0.6276999712
 2364.9433594 9.7639999390 -0.008991987 0.3991999924 2.2230017185 63.046001434 136.57119751 0.3352999985 45.504600525 0.5950144529 0.4277431071 0.6258000135
 2365.0959473 9.7170000076 -0.014000000 0.4002999961 2.2219998837 63.855998993 136.44799805 0.3353999853 44.974201202 0.5759999752 0.4339999855 0.6272000074
 2365.2482910 9.6999998093 0.0079648001 0.3984000087 2.2389729023 62.280998230 137.34455872 0.3434999883 45.507801056 0.5650175810 0.4684447944 0.6324999928
 2365.4006348 9.7690000534 0.0309631396 0.3962999880 2.2519793510 60.388999939 137.78927612 0.3542999923 45.471900940 0.5719888210 0.5631480813 0.6395000219
 2365.5529785 9.7530002594 0.0429807715 0.4013999999 2.2559936047 58.063999176 138.23327637 0.3650000095 45.430198669 0.5799871683 0.5943501592 0.6463999748
 2365.7055664 9.6470003128 0.0250000004 0.4084999859 2.2460000515 57.047000885 136.31300354 0.3804000020 45.212898254 0.5989999771 0.5149000287 0.6539000273
 2365.8579102 9.5930004120 0.0260000005 0.4013000131 2.2509999275 58.904998779 130.92599487 0.4050000012 45.831798553 0.6119999886 0.4401000142 0.6625000238
 2366.0102539 9.5430002213 0.0190111995 0.3907000124 2.2500016689 59.548999786 131.06576538 0.4323000014 46.058998108 0.6119999886 0.4643611014 0.6678000093
 2366.1625977 9.4409999847 0.0050224359 0.3908999860 2.2460064888 59.789001465 131.20576477 0.4593999982 46.067901611 0.6149951816 0.4521197081 0.6678000093
 2366.3151855 9.3170003891 -0.004000000 0.3944999874 2.2409999371 60.298000336 133.07800293 0.4859000146 46.942901611 0.6399999857 0.3869000077 0.6690999866
 2366.4675293 9.3479995728 -0.004000000 0.4014999866 2.2469999790 61.111999512 139.29699707 0.5027999878 46.879699707 0.6669999957 0.4106999934 0.6725999713
 2366.6198730 9.4759998322 -0.000006400 0.3966000080 2.2430064678 61.317001343 141.65521240 0.4918000102 47.323001862 0.6580144167 0.3698654473 0.6775000095
 2366.7722168 9.5629997253 0.0089855762 0.3869000077 2.2509870529 61.060001373 141.41139221 0.4609000087 47.096000671 0.6460192800 0.3526275754 0.6823999882
 2366.9245605 9.6059999466 0.0129935900 0.3828000128 2.2529969215 59.715999603 141.16439819 0.4370999932 47.104801178 0.6350176334 0.4112059474 0.6855000257
 2367.0771484 9.6120004654 0.0080000004 0.3932999969 2.2509999275 57.720001221 136.55900574 0.4242999852 47.113700867 0.6280000210 0.4478000104 0.6869999766
 2367.2294922 9.6219997406 0.0050047999 0.3955000043 2.2410159111 57.754001617 135.74331665 0.4126000106 46.735099792 0.6240063906 0.4643734396 0.6844999790
 2367.3818359 9.6639995575 0.0079951929 0.3842999935 2.2400016785 60.603000641 135.73501587 0.4047999978 46.538700104 0.6190080047 0.4911570549 0.6808999777
 2367.5341797 9.6689996719 0.0129919872 0.3767000139 2.2489857674 63.500000000 135.72901917 0.4036999941 46.748100281 0.6209967732 0.4707328379 0.6790000200
