# LAS format log file from PETREL
# Project units are specified as depth units
#==================================================================
~Version information
VERS.   2.0:
WRAP.   NO:
#==================================================================
~Well
STRT .m      2127.0468750 :
STOP .m      3314.3952637 :
STEP .m     0.00000000 :
NULL .        -999.250000 :
COMP.           : COMPANY
WELL.  7/8-1 T2   : WELL
FLD.            : FIELD
LOC.            : LOCATION
SRVC.           : SERVICE COMPANY
DATE.  2018-09-11 21:49:23   : Log Export Date {yyyy-MM-dd HH:mm:ss}
PROV.           : PROVINCE
UWI.   7/8-1 T2   : UNIQUE WELL ID
API.            : API NUMBER
#==================================================================
~Curve
DEPT .m                   : DEPTH
CALI .in                  : CALI
BS .in                    : BS
DRHO .g/cm3               : DRHO
NPHI .m3/m3               : NPHI
RHOB .g/cm3               : RHOB
GR .gAPI                  : GR
DTC .us/ft                : DTC
RDEP .ohm.m               : RDEP
SP .mV                    : SP
RSHA .ohm.m               : RSHA
RMIC .ohm.m               : RMIC
RMED .ohm.m               : RMED
~Parameter
#==================================================================
~Ascii
# ...
 2748.8388672 9.3283996582 8.5000000000 -0.007423077 0.0363042131 2.6207332611 8.6307020187 65.602394104 7.3314123154 73.329299927 5.7321882248 17.086900711 3.8907449245
 2748.9914551 9.3034000397 8.5000000000 -0.009899038 0.0339427479 2.6414978504 8.4559564590 64.436927795 7.5876069069 73.576408386 5.7244582176 17.224899292 3.9185969830
 2749.1437988 9.3248996735 8.5000000000 -0.003246400 0.0332400352 2.6407968998 8.5628824234 63.246177673 7.3712062836 74.079132080 5.6490721703 20.253200531 3.9175953865
 2749.2961426 9.3492002487 8.5000000000 0.0211185887 0.0326390341 2.6387968063 8.6133079529 62.876956940 7.1254062653 74.598533630 5.5693721771 23.458700180 3.9147953987
 2749.4484863 9.3736000061 8.5000000000 0.0162115395 0.0320446454 2.6367795467 8.4770421982 63.652523041 6.8794832230 75.117462158 5.4895839691 26.664100647 3.9119272232
 2749.6008301 9.3881998062 8.5000000000 -0.002330128 0.0361955389 2.6239705086 8.6138181686 65.291938782 6.5568199158 75.341117859 5.3546385765 23.331300735 3.8664925098
 2749.7534180 9.3978996277 8.5000000000 0.0095424000 0.0427820496 2.6055414677 8.5794429779 67.191741943 6.1942420006 75.413925171 5.1911778450 16.651399612 3.7992849350
 2749.9057617 9.4076004028 8.5000000000 0.0003525641 0.0493473113 2.5872712135 8.2934007645 67.949180603 5.8327217102 75.486671448 5.0282077789 9.9715003967 3.7321679592
 2750.0581055 9.4319000244 8.5000000000 0.0038589744 0.0551543012 2.5692718029 8.0524263382 67.639732361 5.3467988968 75.656127930 4.8457570076 5.6749000549 3.6497280598
 2750.2104492 9.4801998138 8.5000000000 -0.000823718 0.0597103015 2.5516719818 8.5620679855 67.501983643 4.6598992348 75.982528687 4.6318569183 5.2572999001 3.5424280167
 2750.3630371 9.5284004211 8.5000000000 -0.006788800 0.0642765835 2.5341472626 9.3663473129 67.957611084 3.9721484184 76.309425354 4.4176125526 4.8396000862 3.4350502491
 2750.5153809 9.5740995407 8.5000000000 -0.011823718 0.0694593564 2.5176885128 8.9135932922 69.124855042 3.3327341080 76.663063049 4.2030405998 4.3916997910 3.3258948326
 2750.6677246 9.5972003937 8.5000000000 -0.011035256 0.0802913606 2.5105886459 8.2023496628 70.438529968 3.1043341160 77.264564514 3.9786405563 3.6705000401 3.1977949142
 2750.8200684 9.6204004288 8.5000000000 -0.005211538 0.0911243632 2.5033886433 7.8094325066 71.514381409 2.8760340214 77.865959167 3.7542405128 2.9491999149 3.0697946548
 2750.9726563 9.6435003281 8.5000000000 -0.004033654 0.1019501686 2.4963071346 7.6935672760 71.552001953 2.6478197575 78.467376709 3.5297355652 2.2279000282 2.9414846897
 2751.1250000 9.6890001297 8.5000000000 -0.004964800 0.1054309905 2.4985070229 7.7237677574 71.782104492 2.5916707516 78.772789001 3.3848955631 2.2323999405 2.8118915558
 2751.2773438 9.7395000458 8.5000000000 -0.000176282 0.1072959900 2.5028071404 7.9584679604 71.679649353 2.5733706951 79.013488770 3.2573957443 2.3973999023 2.6817913055
 2751.4296875 9.7898998260 8.5000000000 -0.002894231 0.1091563404 2.5072066784 7.5772438049 71.556358337 2.5551126003 79.254234314 3.1299245358 2.5624001026 2.5516169071
 2751.5820313 9.8485002518 8.5000000000 0.0076121800 0.1081163436 2.5113065243 7.2755064964 71.321907043 2.5630486012 79.523574829 3.0204491615 2.8519001007 2.4374387264
 2751.7346191 9.9139995575 8.5000000000 0.0099296002 0.1045837104 2.5153129101 7.5959262848 70.853294373 2.5934972763 79.817939758 2.9261989594 3.2481999397 2.3366775513
 2751.8869629 9.9795999527 8.5000000000 0.0022820514 0.1010652706 2.5192937851 8.3035802841 70.146133423 2.6237263680 80.111320496 2.8322346210 3.6445000172 2.2361466885
 2752.0393066 10.047499657 8.5000000000 -0.001858974 0.0993717238 2.5153572559 9.6526288986 69.553245544 2.5774731636 80.370758057 2.7288918495 3.8719999790 2.1404695511
 2752.1916504 10.122400284 8.5000000000 -0.002964744 0.1029407233 2.4887576103 10.338695526 69.639968872 2.3111732006 80.531257629 2.5989918709 3.6120998859 2.0590696335
 2752.3442383 10.197299957 8.5000000000 0.0018240000 0.1065154225 2.4622149467 9.5641098022 70.564315796 2.0444478989 80.691909790 2.4688847065 3.3522000313 1.9775395393
 2752.4965820 10.272299767 8.5000000000 -0.009576923 0.1100973040 2.4356732368 8.5017595291 72.668815613 1.7786797285 80.851821899 2.3392398357 3.0922999382 1.8962678909
 2752.6489258 10.353598595 8.5000000000 -0.014823718 0.1252617538 2.4189734459 7.6333560944 75.159248352 1.5787822008 80.865913391 2.1769387722 2.5055999756 1.8138679266
 2752.8012695 10.435000420 8.5000000000 -0.016929489 0.1407057494 2.4024736881 7.7110514641 78.125045776 1.3804821968 80.876419067 2.0139386654 1.9111000299 1.7314682007
 2752.9538574 10.516500473 8.5000000000 -0.012168270 0.1561555862 2.3860988617 8.3295955658 80.765403748 1.1821770668 80.887100220 1.8507454395 1.3164999485 1.6490148306
 2753.1062012 10.598199844 8.5000000000 -0.003316800 0.1656981856 2.3857104778 9.5203371048 82.004325867 1.0815067291 80.949035645 1.7401589155 1.0917999744 1.5600527525
 2753.2585449 10.680000305 8.5000000000 -0.003000000 0.1726841927 2.3923106194 10.684032440 81.689926147 1.0233064890 81.033638000 1.6520589590 1.0289000273 1.4681525230
 2753.4108887 10.761798859 8.5000000000 0.0008589744 0.1796639264 2.3990111351 11.882692337 79.732269287 0.9650387764 81.118240356 1.5640963316 0.9660000205 1.3761811256
 2753.5632324 10.847399712 8.5000000000 -0.003823718 0.1820946336 2.4060118198 11.374131203 77.820373535 0.9268841743 81.204444885 1.4994487762 1.0792000294 1.3020209074
 2753.7158203 10.938400269 8.5000000000 -0.009788800 0.1781152934 2.4135241508 10.266670227 76.372474670 0.9169686437 81.292984009 1.4673979282 1.4407999516 1.2526422739
 2753.8681641 11.029299736 8.5000000000 -0.008070514 0.1741507500 2.4210076332 9.6635894775 76.782287598 0.9071828127 81.381156921 1.4355455637 1.8023999929 1.2034255266
 2754.0205078 11.120900154 8.5000000000 -0.000282051 0.1715154946 2.4256782532 9.2233371735 78.518371582 0.8964748383 81.482391357 1.4015241861 2.0708999634 1.1569530964
 2754.1728516 11.216799736 8.5000000000 0.0067532053 0.1774364859 2.4120783806 9.2070350647 80.083305359 0.8807750344 81.665489197 1.3542242050 1.7373000383 1.1277531385
 2754.3254395 11.312700272 8.5000000000 0.0137536004 0.1833669543 2.3985569477 9.4443407059 81.058624268 0.8651497364 81.848983765 1.3068486452 1.4036999941 1.0985065699
 2754.4777832 11.408599854 8.5000000000 0.0168942325 0.1892803460 2.3850758076 9.7887306213 82.012664795 0.8493829966 82.031250000 1.2596166134 1.0700999498 1.0693347454
 2754.6301270 11.455699921 8.5000000000 -0.000365385 0.1963596642 2.3700757027 10.416506767 83.068252563 0.7763671279 81.812744141 1.2076156139 0.9462000132 1.0286315680
 2754.7824707 11.494500160 8.5000000000 0.0038237181 0.2036396712 2.3548755646 9.6459808350 84.154472351 0.6934671402 81.525138855 1.1549153328 0.8585000038 0.9859315753
 2754.9350586 11.533201218 8.5000000000 0.0059296000 0.2109224200 2.3396623135 10.152463913 85.573524475 0.6105278730 81.237144470 1.1020864248 0.7706999779 0.9431787133
 2755.0874023 11.594499588 8.5000000000 0.0031057692 0.2157307714 2.3278849125 10.618676186 86.314178467 0.5568488836 80.970993042 1.0666639805 0.7052000165 0.9053446651
 2755.2397461 11.672599792 8.5000000000 0.0001057692 0.2187097669 2.3185849190 10.701567650 86.895286560 0.5249488354 80.720092773 1.0441637039 0.6563000083 0.8708446622
 2755.3920898 11.750800133 8.5000000000 0.0028942309 0.2216882408 2.3092873096 10.387564659 88.200447083 0.4930607378 80.469284058 1.0215612650 0.6074000001 0.8363518715
 2755.5444336 11.824800491 8.5000000000 0.0087884609 0.2249664068 2.3013927937 9.7865419388 89.397956848 0.4685896039 80.335334778 0.9973543882 0.5730999708 0.8063693047
 2755.6970215 11.888899803 8.5000000000 0.0089999996 0.2289704233 2.2968928814 9.4572286606 90.130317688 0.4620894194 80.484237671 0.9688544869 0.5740000010 0.7871693373
 2755.8493652 11.952899933 8.5000000000 0.0070705130 0.2329733670 2.2923927307 9.3302307129 90.385589600 0.4554895759 80.633033752 0.9404544830 0.5749999881 0.7680695653
 2756.0017090 12.016799927 8.5000000000 0.0021762822 0.2369416505 2.2879979610 9.3655538559 89.794990540 0.4489996731 80.782859802 0.9120646119 0.5762000084 0.7490832210
