# LAS format log file from PETREL
# Project units are specified as depth units
#==================================================================
~Version information
VERS.   2.0:
WRAP.   NO:
#==================================================================
~Well
STRT .m      1216.1519775 :
STOP .m      3001.3652344 :
STEP .m     0.00000000 :
NULL .        -999.250000 :
COMP.           : COMPANY
WELL.  7/8-2 Cero   : WELL
FLD.            : FIELD
LOC.            : LOCATION
SRVC.           : SERVICE COMPANY
DATE.  2018-09-11 21:49:23   : Log Export Date {yyyy-MM-dd HH:mm:ss}
PROV.           : PROVINCE
UWI.   7/8-2   : UNIQUE WELL ID
API.            : API NUMBER
#==================================================================
~Curve
DEPT .m                   : DEPTH
CALI .in                  : CALI
BS .in                    : BS
DRHO .g/cm3               : DRHO
RHOB .g/cm3               : RHOB
GR .gAPI                  : GR
DTC .us/ft                : DTC
RDEP .ohm.m               : RDEP
SP .mV                    : SP
RSHA .ohm.m               : RSHA
RMED .ohm.m               : RMED
~Parameter
#==================================================================
~Ascii
# ...
 2282.9519043 9.3269996643 8.5000000000  -999.250000  -999.250000 76.939102173 122.20374298 0.6880000234 -16.13549995 0.8867999911 1.0085999966
 2283.1042480 9.3320999146 8.5000000000  -999.250000  -999.250000 76.841201782 122.48425293 0.6883999705 -16.17510033 0.8873999715 1.0048999786
 2283.2568359 9.3395004272 8.5000000000  -999.250000  -999.250000 77.125701904 122.62000275 0.6899999976 -16.19709969 0.8901000023 1.0012999773
 2283.4091797 9.3470001221 8.5000000000  -999.250000  -999.250000 77.410301208 122.75508881 0.6916000247 -16.21920013 0.8928999901 0.9976999760
 2283.5615234 9.3535003662 8.5000000000  -999.250000  -999.250000 77.914802551 122.72006226 0.6924999952 -16.25040054 0.8956000209 0.9963999987
 2283.7138672 9.3584995270 8.5000000000  -999.250000  -999.250000 78.743698120 122.43395996 0.6922000051 -16.29529953 0.8981999755 0.9983000159
 2283.8664551 9.3635997772 8.5000000000  -999.250000  -999.250000 79.572601318 122.14689636 0.6919000149 -16.34009933 0.9009000063 1.0003000498
 2284.0187988 9.3725996017 8.5000000000  -999.250000  -999.250000 80.352798462 121.89949799 0.6909000278 -16.36720085 0.9035000205 1.0026999712
 2284.1711426 9.4093999863 8.5000000000  -999.250000  -999.250000 80.786796570 121.93044281 0.6851999760 -16.26869965 0.9057000279 1.0085999966
 2284.3234863 9.4462995529 8.5000000000  -999.250000  -999.250000 81.220901489 121.96154785 0.6796000004 -16.17009926 0.9079999924 1.0144000053
 2284.4760742 9.4832000732 8.5000000000  -999.250000  -999.250000 81.654998779 121.99269867 0.6739000082 -16.07159996 0.9101999998 1.0203000307
 2284.6284180 9.4995002747 8.5000000000  -999.250000  -999.250000 82.838798523 122.15140533 0.6757000089 -16.08690071 0.9100999832 1.0217000246
 2284.7807617 9.5120000839 8.5000000000  -999.250000  -999.250000 84.162803650 122.33370972 0.6787999868 -16.12350082 0.9096000195 1.0224000216
 2284.9331055 9.5244998932 8.5000000000  -999.250000  -999.250000 85.486701965 122.51631927 0.6819999814 -16.16010094 0.9090999961 1.0230000019
 2285.0854492 9.5299997330 8.5000000000  -999.250000  -999.250000 86.257698059 122.62941742 0.6847000122 -16.21759987 0.9093000293 1.0235999823
 2285.2380371 9.5299997330 8.5000000000  -999.250000  -999.250000 86.597000122 122.68820190 0.6869999766 -16.29140091 0.9100000262 1.0240000486
 2285.3903809 9.5299997330 8.5000000000  -999.250000  -999.250000 86.936401367 122.74681091 0.6894000173 -16.36520004 0.9107999802 1.0245000124
 2285.5427246 9.5299997330 8.5000000000  -999.250000  -999.250000 87.065597534 122.75927734 0.6919000149 -16.40239906 0.9114000201 1.0253000259
 2285.6950684 9.5299997330 8.5000000000  -999.250000  -999.250000 86.656402588 122.65336609 0.6948999763 -16.34589958 0.9120000005 1.0268000364
 2285.8476563 9.5299997330 8.5000000000  -999.250000  -999.250000 86.247200012 122.54709625 0.6980000138 -16.28949928 0.9125000238 1.0283000469
 2286.0000000 9.5299997330 8.5000000000  -999.250000  -999.250000 85.837997437 122.44100189 0.7009999752 -16.23299980 0.9129999876 1.0298000574
 2286.1523438 9.5300998688 8.5000000000  -999.250000  -999.250000 88.443298340 122.49920654 0.7009999752 -16.15670013 0.9169999957 1.0298000574
 2286.3046875 9.5302000046 8.5000000000  -999.250000  -999.250000 91.048698425 122.55750275 0.7009000182 -16.08049965 0.9211000204 1.0298999548
 2286.4572754 9.5303001404 8.5000000000  -999.250000  -999.250000 93.653999329 122.61589813 0.7009000182 -16.00419998 0.9251000285 1.0299999714
 2286.6096191 9.5304002762 8.5000000000  -999.250000  -999.250000 94.751296997 122.66950226 0.7006000280 -15.93670082 0.9251000285 1.0305000544
 2286.7619629 9.5306997299 8.5000000000  -999.250000  -999.250000 95.259696960 122.72112274 0.7003999949 -15.87259960 0.9233999848 1.0311000347
 2286.9143066 9.5309000015 8.5000000000  -999.250000  -999.250000 95.767997742 122.77281952 0.7001000047 -15.80850029 0.9217000008 1.0318000317
 2287.0666504 9.5310001373 8.5000000000  -999.250000  -999.250000 95.126701355 122.71299744 0.6974999905 -15.71450043 0.9189000130 1.0302000046
 2287.2192383 9.5310001373 8.5000000000  -999.250000  -999.250000 93.012298584 122.50980377 0.6917999983 -15.58230019 0.9146000147 1.0257999897
 2287.3715820 9.5310001373 8.5000000000  -999.250000  -999.250000 90.897903442 122.30693054 0.6862000227 -15.45009995 0.9103999734 1.0213999748
 2287.5239258 9.5307998657 8.5000000000  -999.250000  -999.250000 89.021896362 122.18919373 0.6809999943 -15.35659981 0.9057000279 1.0166000128
 2287.6762695 9.5292997360 8.5000000000  -999.250000  -999.250000 88.421699524 122.52825928 0.6779999733 -15.47080040 0.8991000056 1.0098999739
 2287.8288574 9.5277996063 8.5000000000  -999.250000  -999.250000 87.821502686 122.86859894 0.6751000285 -15.58489990 0.8924000263 1.0032000542
 2287.9812012 9.5263004303 8.5000000000  -999.250000  -999.250000 87.221298218 123.20839691 0.6721000075 -15.69900131 0.8856999874 0.9963999987
 2288.1335449 9.5017004013 8.5000000000  -999.250000  -999.250000 86.301902771 123.33789063 0.6703000069 -15.76739883 0.8820999861 0.9901999831
 2288.2858887 9.4738998413 8.5000000000  -999.250000  -999.250000 85.337600708 123.43804169 0.6686999798 -15.82939911 0.8790000081 0.9840000272
 2288.4384766 9.4461002350 8.5000000000  -999.250000  -999.250000 84.373298645 123.53829956 0.6669999957 -15.89140129 0.8758999705 0.9776999950
 2288.5908203 9.4418001175 8.5000000000  -999.250000  -999.250000 84.172096252 123.42920685 0.6672999859 -16.02669907 0.8744999766 0.9735000134
 2288.7431641 9.4535999298 8.5000000000  -999.250000  -999.250000 84.488601685 123.17851257 0.6690000296 -16.21170044 0.8743000031 0.9706000090
 2288.8955078 9.4652996063 8.5000000000  -999.250000  -999.250000 84.805198669 122.92750549 0.6705999970 -16.39660072 0.8741000295 0.9677000046
 2289.0478516 9.4867000580 8.5000000000  -999.250000  -999.250000 84.747901917 122.87787628 0.6707999706 -16.49110031 0.8708999753 0.9638000131
 2289.2004395 9.5292997360 8.5000000000  -999.250000  -999.250000 83.877700806 123.26760101 0.6679000258 -16.38870049 0.8610000014 0.9575999975
 2289.3527832 9.5719003677 8.5000000000  -999.250000  -999.250000 83.007400513 123.65667725 0.6649000049 -16.28630066 0.8511000276 0.9514999986
 2289.5051270 9.6156997681 8.5000000000  -999.250000  -999.250000 82.157501221 124.03618622 0.6618000269 -16.18759918 0.8414000273 0.9453999996
 2289.6574707 9.6939001083 8.5000000000  -999.250000  -999.250000 81.884399414 124.12505341 0.6504999995 -16.19239998 0.8377000093 0.9375000000
 2289.8100586 9.7721996307 8.5000000000  -999.250000  -999.250000 81.611297607 124.21369934 0.6392999887 -16.19720078 0.8339999914 0.9294999838
 2289.9624023 9.8505010605 8.5000000000  -999.250000  -999.250000 81.338203430 124.30210114 0.6280999780 -16.20199966 0.8303999901 0.9215999842
 2290.1147461 10.029500008 8.5000000000  -999.250000  -999.250000 80.888603210 124.54711151 0.6233999729 -16.22369957 0.8327000141 0.9218000174
 2290.2670898 10.241499901 8.5000000000  -999.250000  -999.250000 80.381202698 124.84382629 0.6208999753 -16.25099945 0.8370000124 0.9247000217
 2290.4196777 10.453499794 8.5000000000  -999.250000  -999.250000 79.873802185 125.14109802 0.6183000207 -16.27829933 0.8413000107 0.9276000261
 2290.5720215 10.468999863 8.5000000000  -999.250000  -999.250000 79.215202332 125.12550354 0.6169999838 -16.29910088 0.8406999707 0.9254000187
 2290.7243652 10.264901161 8.5000000000  -999.250000  -999.250000 78.387702942 124.76177979 0.6169000268 -16.31259918 0.8346999884 0.9174000025
 2290.8767090 10.060900688 8.5000000000  -999.250000  -999.250000 77.560203552 124.39748383 0.6169000268 -16.32620049 0.8285999894 0.9095000029
 2291.0290527 9.9095001221 8.5000000000  -999.250000  -999.250000 77.156402588 124.03218842 0.6177999973 -16.34880066 0.8216999769 0.9057000279
 2291.1816406 9.9799003601 8.5000000000  -999.250000  -999.250000 78.540298462 123.66220856 0.6231999993 -16.40950012 0.8116000295 0.9193000197
 2291.3339844 10.050299644 8.5000000000  -999.250000  -999.250000 79.924301147 123.29328918 0.6284999847 -16.47010040 0.8015000224 0.9329000115
