# LAS format log file from PETREL
# Project units are specified as depth units
#==================================================================
~Version information
VERS.   2.0:
WRAP.   NO:
#==================================================================
~Well
STRT .m      1216.1519775 :
STOP .m      3001.3652344 :
STEP .m     0.00000000 :
NULL .        -999.250000 :
COMP.           : COMPANY
WELL.  7/8-2 Cero   : WELL
FLD.            : FIELD
LOC.            : LOCATION
SRVC.           : SERVICE COMPANY
DATE.  2018-09-11 21:49:23   : Log Export Date {yyyy-MM-dd HH:mm:ss}
PROV.           : PROVINCE
UWI.   7/8-2   : UNIQUE WELL ID
API.            : API NUMBER
#==================================================================
~Curve
DEPT .m                   : DEPTH
CALI .in                  : CALI
BS .in                    : BS
DRHO .g/cm3               : DRHO
RHOB .g/cm3               : RHOB
GR .gAPI                  : GR
DTC .us/ft                : DTC
RDEP .ohm.m               : RDEP
SP .mV                    : SP
RSHA .ohm.m               : RSHA
RMED .ohm.m               : RMED
~Parameter
#==================================================================
~Ascii
# ...
 2871.8254395 8.9532003403 8.5000000000 -0.032997999 2.9098999500 71.616081238 103.65576935 0.4015983939 -16.39497757 0.5307974219 0.5776006579
 2871.9777832 8.9558000565 8.5000000000 -0.032251999 2.9109001160 70.940086365 103.05336761 0.4026982486 -16.09777641 0.5322976112 0.5771007538
 2872.1301270 8.9472999573 8.5000000000 -0.032595001 2.9075000286 70.404159546 102.83386230 0.3940139413 -16.41848564 0.5272081494 0.5738053322
 2872.2824707 8.9369001389 8.5000000000 -0.033123001 2.9033999443 69.892837524 102.67979431 0.3837329745 -16.84363556 0.5210198760 0.5699124336
 2872.4350586 8.9264001846 8.5000000000 -0.033650003 2.8993999958 69.379920959 102.52534485 0.3734165132 -17.27041626 0.5148099661 0.5661060810
 2872.5874023 8.9230003357 8.5000000000 -0.031030999 2.9151999950 69.442497253 102.45629883 0.3668105900 -17.38661575 0.5060141087 0.5610081553
 2872.7397461 8.9246997833 8.5000000000 -0.026086001 2.9456999302 69.931015015 102.45040894 0.3628064096 -17.27308273 0.4953171313 0.5549097657
 2872.8920898 8.9264001846 8.5000000000 -0.021140000 2.9762001038 70.419433594 102.44461823 0.3588127792 -17.15936470 0.4847339094 0.5487198234
 2873.0446777 8.9272003174 8.5000000000 -0.018670000  -999.250000 70.843223572 102.49011993 0.3565036952 -16.86457253 0.4749157131 0.5420107245
 2873.1970215 8.9258003235 8.5000000000 -0.022146000  -999.250000 71.106880188 102.65893555 0.3582971096 -16.13556862 0.4676117003 0.5340127945
 2873.3493652 8.9244003296 8.5000000000 -0.025622001  -999.250000 71.370277405 102.82793427 0.3601969481 -15.40596962 0.4602118731 0.5261126161
 2873.5017090 8.9230003357 8.5000000000 -0.029041000  -999.250000 71.614219666 103.00353241 0.3619942367 -14.69667339 0.4530230463 0.5182252526
 2873.6542969 8.9230003357 8.5000000000 -0.028170999  -999.250000 70.426506042 103.70117950 0.3663929403 -15.43071842 0.4632834792 0.5199971199
 2873.8066406 8.9230003357 8.5000000000 -0.027299998  -999.250000 69.236007690 104.39947510 0.3707929254 -16.16821671 0.4734836817 0.5218969584
 2873.9589844 8.9230003357 8.5000000000 -0.026430000  -999.250000 68.045608521 105.09767914 0.3751929402 -16.90581703 0.4837834835 0.5236971378
 2874.1113281 8.9230003357 8.5000000000 -0.029277999  -999.250000 67.117485046 105.00344849 0.3774963021 -17.13583183 0.4920867085 0.5289915204
 2874.2639160 8.9230003357 8.5000000000 -0.033484999  -999.250000 66.285530090 104.61811829 0.3791972995 -17.17943192 0.4996878505 0.5354896188
 2874.4162598 8.9230003357 8.5000000000 -0.037691999  -999.250000 65.453834534 104.23231506 0.3807974458 -17.22273064 0.5073876381 0.5419895649
 2874.5686035 8.9285001755 8.5000000000 -0.036060002 2.9853999615 64.687126160 103.74688721 0.3826969564 -17.22829056 0.5051037073 0.5449951887
 2874.7209473 8.9406995773 8.5000000000 -0.027332000 2.9916999340 63.999603271 103.13997650 0.3846967816 -17.18776512 0.4907230735 0.5439018011
 2874.8732910 8.9528999329 8.5000000000 -0.018603999 2.9981000423 63.313201904 102.53384399 0.3867932856 -17.14723015 0.4763460755 0.5428035259
 2875.0258789 8.9672002792 8.5000000000 -0.012033000 3.0020000935 62.817691803 102.19803619 0.3875987232 -17.14130974 0.4645189345 0.5405036807
 2875.1782227 8.9920997620 8.5000000000 -0.015952000 2.9939000607 63.262084961 103.18691254 0.3825081587 -17.30443954 0.4651988745 0.5330120325
 2875.3305664 9.0169000626 8.5000000000 -0.019870000 2.9858999252 63.707984924 104.17801666 0.3774081767 -17.46783829 0.4659987092 0.5254121423
 2875.4829102 9.0417995453 8.5000000000 -0.023789000 2.9777998924 64.153175354 105.16752625 0.3723163307 -17.63107681 0.4666977525 0.5178242922
 2875.6354980 9.0396003723 8.5000000000 -0.026944000 2.9783999920 63.523414612 105.08892822 0.3690052629 -17.55661964 0.4662007987 0.5161027312
 2875.7878418 9.0340003967 8.5000000000 -0.030005001 2.9800999165 62.757827759 104.87424469 0.3658051193 -17.45206833 0.4656009674 0.5151016116
 2875.9401855 9.0284004211 8.5000000000 -0.033064999 2.9818000793 61.992027283 104.65933990 0.3627049625 -17.34736824 0.4649011195 0.5141016245
 2876.0925293 9.0441999435 8.5000000000 -0.033854000 2.9862000942 61.754760742 105.08344269 0.3571179211 -17.32267761 0.4610124826 0.5106111765
 2876.2451172 9.0736999512 8.5000000000 -0.033183999 2.9923999310 61.856735229 105.92075348 0.3498117030 -17.34915733 0.4549097717 0.5055081844
 2876.3974609 9.1031999588 8.5000000000 -0.032513000 2.9985001087 61.959735870 106.75805664 0.3425117135 -17.37585831 0.4488097727 0.5003083348
 2876.5498047 9.1231002808 8.5000000000 -0.029561000 3.0002000332 62.245643616 107.19090271 0.3391054571 -17.34954262 0.4540915191 0.4980036914
 2876.7021484 9.1233997345 8.5000000000 -0.021933001 2.9925999641 62.906639099 106.79483032 0.3436926305 -17.21471596 0.4826541543 0.5014944077
 2876.8544922 9.1237001419 8.5000000000 -0.014306000 2.9849998951 63.567184448 106.39816284 0.3481855989 -17.08003044 0.5112085342 0.5049887896
 2877.0070801 9.1246995926 8.5000000000 -0.006970000 2.9769001007 64.171531677 105.87104797 0.3531919718 -16.93353462 0.5387559533 0.5098921061
 2877.1594238 9.1398000717 8.5000000000 -0.005505000 2.9588000774 63.599517822 102.73873138 0.3665785193 -16.56039810 0.5463878512 0.5445443988
 2877.3117676 9.1548004150 8.5000000000 -0.004041000 2.9405999184 63.025520325 99.602325439 0.3798786998 -16.18689919 0.5539878607 0.5792443752
 2877.4641113 9.1697998047 8.5000000000 -0.002576000 2.9224998951 62.452438354 96.470840454 0.3932571113 -15.81399632 0.5614759922 0.6138889790
 2877.6166992 9.2368001938 8.5000000000 0.0037350000 2.9163999557 60.851367950 95.603576660 0.3937991858 -15.67342377 0.5581054091 0.6208888888
 2877.7690430 9.3197002411 8.5000000000 0.0115230000 2.9140000343 58.936866760 95.438163757 0.3902057707 -15.60490990 0.5512110591 0.6193025708
 2877.9213867 9.4025001526 8.5000000000 0.0193109997 2.9116001129 57.018699646 95.273864746 0.3867056072 -15.53640938 0.5444108844 0.6177025437
 2878.0737305 9.4218997955 8.5000000000 0.0262710005 2.9135000706 56.957199097 95.435379028 0.3841083050 -15.49204254 0.5413098931 0.6137127876
 2878.2263184 9.3741998672 8.5000000000 0.0323549993 2.9200000763 58.859401703 95.943481445 0.3824027181 -15.47303009 0.5421985984 0.6072104573
 2878.3786621 9.3263998032 8.5000000000 0.0384379998 2.9265000820 60.761699677 96.451881409 0.3807027042 -15.45413017 0.5430985689 0.6007104516
 2878.5310059 9.2735004425 8.5000000000 0.0400709994 2.9260001183 62.200099945 97.157569885 0.3876887858 -15.44411659 0.5535832047 0.5978046656
 2878.6833496 9.2010002136 8.5000000000 0.0244190004 2.8986001015 61.836601257 98.630531311 0.4283347726 -15.46875954 0.6016229391 0.6089820862
 2878.8356934 9.1286001205 8.5000000000 0.0087670004 2.8712000847 61.473098755 100.10237885 0.4690694213 -15.49352074 0.6496461034 0.6200644970
 2878.9882813 9.0560998917 8.5000000000 -0.006885000 2.8438000679 61.109699249 101.57893372 0.5098347664 -15.51826000 0.6978229284 0.6312820315
 2879.1406250 8.8760004044 8.5000000000 -0.011836000 2.8210000992 61.576599121 99.170364380 0.6111375093 -15.21758270 0.8106191158 0.6984921694
 2879.2929688 8.6871004105 8.5000000000 -0.015906001 2.7985000610 62.111900330 96.435585022 0.7174296379 -14.88942623 0.9289103746 0.7703847885
 2879.4453125 8.4982004166 8.5000000000 -0.019974999 2.7760999203 62.647300720 93.704750061 0.8236595392 -14.56175041 1.0469217300 0.8421699405
 2879.5979004 8.4228000641 8.5000000000 -0.020417999 2.7623000145 61.209999084 90.849670410 0.9547900558 -14.19538689 1.1592203379 0.9663010836
 2879.7502441 8.4105997086 8.5000000000 -0.018848000 2.7532999516 58.677600861 87.934867859 1.0993682146 -13.80852032 1.2678259611 1.1193547249
 2879.9025879 8.3983001709 8.5000000000 -0.017277000 2.7442998886 56.145301819 85.019866943 1.2439682484 -13.42161942 1.3765258789 1.2723548412
 2880.0549316 8.3877000809 8.5000000000 -0.016991001 2.7353000641 54.120498657 82.933982849 1.3720893860 -13.26151180 1.4725922346 1.4112548828
 2880.2075195 8.3798999786 8.5000000000 -0.018966001 2.7265000343 52.989398956 82.296813965 1.4721400738 -13.50011635 1.5473804474 1.5261162519
