# LAS format log file from PETREL
# Project units are specified as depth units
#==================================================================
~Version information
VERS.   2.0:
WRAP.   NO:
#==================================================================
~Well
STRT .m      2127.0468750 :
STOP .m      3314.3952637 :
STEP .m     0.00000000 :
NULL .        -999.250000 :
COMP.           : COMPANY
WELL.  7/8-1 T2   : WELL
FLD.            : FIELD
LOC.            : LOCATION
SRVC.           : SERVICE COMPANY
DATE.  2018-09-11 21:49:23   : Log Export Date {yyyy-MM-dd HH:mm:ss}
PROV.           : PROVINCE
UWI.   7/8-1 T2   : UNIQUE WELL ID
API.            : API NUMBER
#==================================================================
~Curve
DEPT .m                   : DEPTH
CALI .in                  : CALI
BS .in                    : BS
DRHO .g/cm3               : DRHO
NPHI .m3/m3               : NPHI
RHOB .g/cm3               : RHOB
GR .gAPI                  : GR
DTC .us/ft                : DTC
RDEP .ohm.m               : RDEP
SP .mV                    : SP
RSHA .ohm.m               : RSHA
RMIC .ohm.m               : RMIC
RMED .ohm.m               : RMED
~Parameter
#==================================================================
~Ascii
# ...
 3217.0117188 8.8452997208 8.5000000000  -999.250000  -999.250000  -999.250000 198.03428650 120.22136688 1.0171748400 59.723438263 1.3219962120  -999.250000 1.6589202881
 3217.1640625 8.8781003952 8.5000000000  -999.250000  -999.250000  -999.250000 192.26974487 118.60927582 1.0014750957 59.870937347 1.3195959330  -999.250000 1.6091201305
 3217.3166504 8.9107999802 8.5000000000  -999.250000  -999.250000  -999.250000 175.56369019 113.50083160 0.9858748317 60.018436432 1.3170962334  -999.250000 1.5592201948
 3217.4689941 8.9435997009 8.5000000000  -999.250000  -999.250000  -999.250000 145.60556030 107.80461884 0.9702144265 60.166976929 1.3146712780  -999.250000 1.5094609261
 3217.6213379 8.9407997131 8.5000000000  -999.250000  -999.250000  -999.250000 124.84250641 103.06568909 0.9792248607 60.965549469 1.2967650890  -999.250000 1.4850715399
 3217.7736816 8.9287996292 8.5000000000  -999.250000  -999.250000  -999.250000 116.44908905 98.913711548 0.9947246909 61.931549072 1.2749650478  -999.250000 1.4672715664
 3217.9262695 8.9167003632 8.5000000000  -999.250000  -999.250000  -999.250000 107.38654327 98.054862976 1.0100612640 62.897647858 1.2531265020  -999.250000 1.4494606256
 3218.0786133 8.9133996964 8.5000000000  -999.250000  -999.250000  -999.250000 107.65939331 99.171020508 0.9979391098 63.442642212 1.2301613092  -999.250000 1.4371887445
 3218.2309570 8.9182996750 8.5000000000  -999.250000  -999.250000  -999.250000 108.31854248 98.610115051 0.9599390626 63.593135834 1.2059612274  -999.250000 1.4301887751
 3218.3833008 8.9231996536 8.5000000000  -999.250000  -999.250000  -999.250000 109.91479492 98.277992249 0.9219432473 63.743629456 1.1817591190  -999.250000 1.4231824875
 3218.5358887 8.9263000488 8.5000000000  -999.250000  -999.250000  -999.250000 115.06585693 98.722587585 0.8865146041 63.820690155 1.1562049389  -999.250000 1.4122251272
 3218.6882324 8.9231004715 8.5000000000  -999.250000  -999.250000  -999.250000 117.41193390 98.970649719 0.8598572016 63.659938812 1.1265522242  -999.250000 1.3888623714
 3218.8405762 8.9198999405 8.5000000000  -999.250000  -999.250000  -999.250000 120.02734375 98.980201721 0.8331571817 63.498939514 1.0967521667  -999.250000 1.3653624058
 3218.9929199 8.9167003632 8.5000000000  -999.250000  -999.250000  -999.250000 120.58550262 99.284858704 0.8064870238 63.338661194 1.0669747591  -999.250000 1.3419480324
 3219.1455078 8.9120998383 8.5000000000  -999.250000  -999.250000  -999.250000 119.69689941 99.908813477 0.7983772755 63.627590179 1.0511517525  -999.250000 1.3094947338
 3219.2978516 8.9075002670 8.5000000000  -999.250000  -999.250000  -999.250000 121.58847046 100.85007477 0.7912884355 63.937797546 1.0360758305  -999.250000 1.2766474485
 3219.4501953 8.9028997421 8.5000000000  -999.250000  -999.250000  -999.250000 77.216491699 102.25976563 0.7841174603 64.247787476 1.0209908485  -999.250000 1.2438714504
 3219.6025391 8.8992004395 8.5000000000  -999.250000  -999.250000  -999.250000 73.073249817 102.61887360 0.7950316072 64.114746094 1.0152982473  -999.250000 1.2260831594
 3219.7548828 8.8958997726 8.5000000000  -999.250000  -999.250000  -999.250000 70.809249878 103.01810455 0.8147315979 63.765537262 1.0141981840  -999.250000 1.2155832052
 3219.9074707 8.8926000595 8.5000000000  -999.250000  -999.250000  -999.250000 69.630271912 103.03489685 0.8344761729 63.415531158 1.0131186247  -999.250000 1.2050859928
 3220.0598145 8.8907003403 8.5000000000  -999.250000  -999.250000  -999.250000 70.389099121 103.03489685 0.8582484126 63.018646240 1.0189266205  -999.250000 1.2007082701
 3220.2121582 8.8908004761 8.5000000000  -999.250000  -999.250000  -999.250000 73.052711487 102.87687683 0.8884482384 62.546348572 1.0355266333  -999.250000 1.2058082819
 3220.3645020 8.8908996582 8.5000000000  -999.250000  -999.250000  -999.250000 74.973457336 103.25649261 0.9185431004 62.074169159 1.0521265268  -999.250000 1.2109087706
 3220.5170898 8.8923997879 8.5000000000  -999.250000  -999.250000  -999.250000 74.989601135 103.96022797 0.9454022646 61.682487488 1.0687518120  -999.250000 1.2164298296
 3220.6694336 8.9049997330 8.5000000000  -999.250000  -999.250000  -999.250000 76.662086487 103.98889923 0.9461011291 61.928192139 1.0849260092  -999.250000 1.2257149220
 3220.8217773 8.9175996780 8.5000000000  -999.250000  -999.250000  -999.250000 75.869438171 104.44605255 0.9468011260 62.174293518 1.1011257172  -999.250000 1.2350149155
 3220.9741211 8.9301996231 8.5000000000  -999.250000  -999.250000  -999.250000 76.591957092 104.53394318 0.9475974441 62.420757294 1.1172698736  -999.250000 1.2443113327
 3221.1267090 8.9324998856 8.5000000000  -999.250000  -999.250000  -999.250000 77.963150024 104.69768524 1.0085345507 62.958202362 1.1609574556  -999.250000 1.2514214516
 3221.2790527 8.9327001572 8.5000000000  -999.250000  -999.250000  -999.250000 77.215530396 104.47544861 1.0817173719 63.553253174 1.2100788355  -999.250000 1.2581107616
 3221.4313965 8.9329004288 8.5000000000  -999.250000  -999.250000  -999.250000 74.898139954 104.46589661 1.1549848318 64.148178101 1.2592800856  -999.250000 1.2648282051
 3221.5837402 8.9210996628 8.5000000000  -999.250000  -999.250000  -999.250000 72.837287903 104.76212311 1.2079581022 64.070388794 1.3092809916  -999.250000 1.2824423313
 3221.7360840 8.8994998932 8.5000000000  -999.250000  -999.250000  -999.250000 72.188499451 104.93590546 1.2441581488 63.439491272 1.3597810268  -999.250000 1.3088424206
 3221.8886719 8.8779001236 8.5000000000  -999.250000  -999.250000  -999.250000 71.573646545 103.56924438 1.2804653645 62.808452606 1.4103879929  -999.250000 1.3353995085
 3222.0410156 8.8648996353 8.5000000000  -999.250000  -999.250000  -999.250000 68.049880981 100.08312988 1.3007631302 62.420230865 1.4377428293  -999.250000 1.3664705753
 3222.1933594 8.8753004074 8.5000000000  -999.250000  -999.250000  -999.250000 61.424461365 96.129814148 1.2777631283 62.689430237 1.4020427465  -999.250000 1.4104706049
 3222.3457031 8.8856000900 8.5000000000  -999.250000  -999.250000  -999.250000 59.902915955 90.854660034 1.2547631264 62.958530426 1.3663429022  -999.250000 1.4544705153
 3222.4982910 8.8959999084 8.5000000000  -999.250000  -999.250000  -999.250000 64.898262024 86.511398315 1.2316575050 63.227485657 1.3307799101  -999.250000 1.4983868599
 3222.6506348 8.9119997025 8.5000000000  -999.250000  -999.250000  -999.250000 69.673492432 85.194664001 1.1872282028 63.287090302 1.3244906664  -999.250000 1.4942922592
 3222.8029785 8.9280996323 8.5000000000  -999.250000  -999.250000  -999.250000 71.479866028 87.889846802 1.1424282789 63.344093323 1.3186905384  -999.250000 1.4894925356
 3222.9553223 8.9441995621 8.5000000000  -999.250000  -999.250000  -999.250000 73.628623962 92.209854126 1.0976747274 63.400215149 1.3127697706  -999.250000 1.4847707748
 3223.1079102 8.9483003616 8.5000000000  -999.250000  -999.250000  -999.250000 76.045883179 95.739997864 1.0818878412 62.909912109 1.2938219309  -999.250000 1.4665237665
 3223.2602539 8.9474000931 8.5000000000  -999.250000  -999.250000  -999.250000 76.901344299 98.169151306 1.0780940056 62.194950104 1.2694609165  -999.250000 1.4427618980
 3223.4125977 8.9464998245 8.5000000000  -999.250000  -999.250000  -999.250000 76.651229858 100.09342194 1.0744293928 61.479412079 1.2451014519  -999.250000 1.4189790487
 3223.5649414 8.9503002167 8.5000000000  -999.250000  -999.250000  -999.250000 74.070663452 101.61663055 1.0928776264 61.175804138 1.2460564375  -999.250000 1.4059023857
 3223.7172852 8.9603004456 8.5000000000  -999.250000  -999.250000  -999.250000 76.097045898 100.69270325 1.1412775517 61.427803040 1.2812564373  -999.250000 1.4074023962
 3223.8698730 8.9702997208 8.5000000000  -999.250000  -999.250000  -999.250000 78.670478821 98.360260010 1.1897433996 61.680370331 1.3165043592  -999.250000 1.4089064598
 3224.0222168 8.9765996933 8.5000000000  -999.250000  -999.250000  -999.250000 79.008804321 96.436073303 1.2344381809 61.983169556 1.3490275145  -999.250000 1.4109073877
 3224.1745605 8.9608001709 8.5000000000  -999.250000  -999.250000  -999.250000 79.157005310 95.980743408 1.2582381964 62.587268829 1.3662275076  -999.250000 1.4155074358
