# LAS format log file from PETREL
# Project units are specified as depth units
#==================================================================
~Version information
VERS.   2.0:
WRAP.   NO:
#==================================================================
~Well
STRT .m      2126.7421875 :
STOP .m      3314.5480957 :
STEP .m     0.00000000 :
NULL .        -999.250000 :
COMP.           : COMPANY
WELL.  7/8-1   : WELL
FLD.            : FIELD
LOC.            : LOCATION
SRVC.           : SERVICE COMPANY
DATE.  2018-09-11 21:49:23   : Log Export Date {yyyy-MM-dd HH:mm:ss}
PROV.           : PROVINCE
UWI.   7/8-1   : UNIQUE WELL ID
API.            : API NUMBER
#==================================================================
~Curve
DEPT .m                   : DEPTH
CALI .in                  : CALI
DRHO .g/cm3               : DRHO
NPHI .m3/m3               : NPHI
RHOB .g/cm3               : RHOB
GR .gAPI                  : GR
DTC .us/ft                : DTC
RDEP .ohm.m               : RDEP
SP .mV                    : SP
RSHA .ohm.m               : RSHA
RMIC .ohm.m               : RMIC
RMED .ohm.m               : RMED
~Parameter
#==================================================================
~Ascii
# ...
 2989.4787598 8.8059997559  -999.250000  -999.250000  -999.250000 14.741999626 64.546997070 4.8406000137 68.536697388 3.9839999676  -999.250000 2.8738000393
 2989.6311035 8.8070001602  -999.250000  -999.250000  -999.250000 16.695999146 64.609001160 4.8373999596 69.271102905 3.9049999714  -999.250000 2.8664000034
 2989.7834473 8.8050003052  -999.250000  -999.250000  -999.250000 16.851999283 64.245002747 4.9365000725 69.763099670 3.8269999027  -999.250000 2.8591001034
 2989.9360352 8.7989997864  -999.250000  -999.250000  -999.250000 15.678999901 63.925998688 5.0645999908 69.589698792 3.8280000687  -999.250000 2.8517999649
 2990.0883789 8.7899999619  -999.250000  -999.250000  -999.250000 14.954999924 63.902999878 5.0957999229 66.538101196 3.7500000000  -999.250000 2.8443999290
 2990.2407227 8.7799997330  -999.250000  -999.250000  -999.250000 15.350999832 63.708999634 5.0511999130 64.322502136 3.6760001183  -999.250000 2.8373999596
 2990.3930664 8.7720003128  -999.250000  -999.250000  -999.250000 14.836999893 64.485000610 4.9713001251 66.346496582 3.6089999676  -999.250000 2.8304998875
 2990.5454102 8.7690000534  -999.250000  -999.250000  -999.250000 13.135999680 64.667999268 4.9498000145 65.927902222 3.5420000553  -999.250000 2.8236000538
 2990.6979980 8.7690000534  -999.250000  -999.250000  -999.250000 14.057000160 65.646003723 4.9760999680 67.085998535 3.4560000896  -999.250000 2.7969999313
 2990.8503418 8.7700004578  -999.250000  -999.250000  -999.250000 14.800000191 66.620002747 4.8628001213 69.702201843 3.3210000992  -999.250000 2.7643001080
 2991.0026855 8.7700004578  -999.250000  -999.250000  -999.250000 14.807999611 66.421997070 4.5687999725 68.789596558 3.2479999065  -999.250000 2.7219998837
 2991.1550293 8.7700004578  -999.250000  -999.250000  -999.250000 14.833999634 66.157997131 4.2189002037 66.349403381 3.1770000458  -999.250000 2.6791999340
 2991.3076172 8.7700004578  -999.250000  -999.250000  -999.250000 14.909999847 65.661003113 3.8680999279 65.177696228 3.0680000782  -999.250000 2.6289999485
 2991.4599609 8.7580003738  -999.250000  -999.250000  -999.250000 14.689999580 65.551002502 3.6185998917 70.273498535 3.0350000858  -999.250000 2.5741999149
 2991.6123047 8.7309999466  -999.250000  -999.250000  -999.250000 13.788999557 64.972000122 3.4892001152 65.989196777 3.0369999409  -999.250000 2.5211000443
 2991.7646484 8.7320003510  -999.250000  -999.250000  -999.250000 12.767000198 65.148002625 3.3206000328 65.208503723 2.9670000076  -999.250000 2.4684000015
 2991.9172363 8.7320003510  -999.250000  -999.250000  -999.250000 11.119000435 64.441001892 3.1740000248 70.510398865 3.0409998894  -999.250000 2.4158000946
 2992.0695801 8.7329998016  -999.250000  -999.250000  -999.250000 10.597999573 64.105003357 3.1226999760 72.053001404 3.0429999828  -999.250000 2.3627998829
 2992.2219238 8.7329998016  -999.250000  -999.250000  -999.250000 10.605999947 62.854999542 3.0559999943 72.632202148 3.1180000305  -999.250000 2.3355998993
 2992.3742676 8.7329998016  -999.250000  -999.250000  -999.250000 10.678000450 62.841999054 3.0113000870 72.860099792 3.1940000057  -999.250000 2.3185999393
 2992.5266113 8.7340002060  -999.250000  -999.250000  -999.250000 11.354000092 63.671001434 3.0383999348 73.020797729 3.2709999084  -999.250000 2.3087000847
 2992.6791992 8.7390003204  -999.250000  -999.250000  -999.250000 12.635000229 64.275001526 3.0855000019 73.103996277 3.3510000706  -999.250000 2.3087999821
 2992.8315430 8.7559995651  -999.250000  -999.250000  -999.250000 14.494999886 64.464996338 3.1356000900 72.192298889 3.4270000458  -999.250000 2.3396000862
 2992.9838867 8.7709999084  -999.250000  -999.250000  -999.250000 15.527000427 64.543998718 3.1967000961 72.094703674 3.5060000420  -999.250000 2.3798999786
 2993.1362305 8.7779998779  -999.250000  -999.250000  -999.250000 15.569000244 63.777004242 3.2655999660 73.665603638 3.8229999542  -999.250000 2.4203000069
 2993.2888184 8.7810001373  -999.250000  -999.250000  -999.250000 15.949000359 62.676998138 3.3993999958 74.486602783 3.9059998989  -999.250000 2.4572999477
 2993.4411621 8.7840003967  -999.250000  -999.250000  -999.250000 14.331000328 62.863998413 3.6598000526 72.273399353 4.1539998055  -999.250000 2.4974000454
 2993.5935059 8.7869997025  -999.250000  -999.250000  -999.250000 14.369000435 62.875000000 3.9307000637 71.032897949 4.2410001755  -999.250000 2.5578000546
 2993.7458496 8.7910003662  -999.250000  -999.250000  -999.250000 15.083999634 63.256996155 4.1493000984 67.666397095 4.2230000496  -999.250000 2.6122000217
 2993.8984375 8.7939996719  -999.250000  -999.250000  -999.250000 15.793000221 63.303001404 4.4323000908 66.552398682 4.3070001602  -999.250000 2.6830000877
 2994.0507813 8.7969999313  -999.250000  -999.250000  -999.250000 16.600000381 63.055000305 4.9340000153 67.765701294 4.3949999809  -999.250000 2.7651000023
 2994.2031250 8.8000001907  -999.250000  -999.250000  -999.250000 17.298000336 63.169998169 5.6059999466 67.151496887 4.4019999504  -999.250000 2.8471000195
 2994.3554688 8.8030004501  -999.250000  -999.250000  -999.250000 16.406000137 63.050998688 6.2933001518 68.217399597 4.4310002327  -999.250000 2.9289999008
 2994.5078125 8.8059997559  -999.250000  -999.250000  -999.250000 15.515999794 64.609001160 6.7342000008 69.269401550 4.4200000763  -999.250000 3.0081999302
 2994.6604004 8.8100004196  -999.250000  -999.250000  -999.250000 15.520999908 64.361999512 6.7512998581 68.270896912 4.4720001221  -999.250000 3.0524001122
 2994.8127441 8.8129997253  -999.250000  -999.250000  -999.250000 15.532999992 63.993000031 6.4572000504 65.209503174 4.4279999733  -999.250000 3.0878000259
 2994.9650879 8.8159999847  -999.250000  -999.250000  -999.250000 14.371000290 63.460994720 6.1019001007 64.005798340 4.4340000153  -999.250000 3.0971999168
 2995.1174316 8.8190002441  -999.250000  -999.250000  -999.250000 12.592000008 62.682994843 5.7941999435 63.451805115 4.5250000954  -999.250000 3.1057000160
 2995.2700195 8.8219995499  -999.250000  -999.250000  -999.250000 13.395000458 63.388004303 5.4871997833 64.108398438 4.6329998970  -999.250000 3.1082000732
 2995.4223633 8.8260002136  -999.250000  -999.250000  -999.250000 14.217000008 63.604000092 5.1838002205 64.595397949 4.7119998932  -999.250000 3.1120998859
 2995.5747070 8.8290004730  -999.250000  -999.250000  -999.250000 15.032999992 63.262001038 5.0307998657 64.734596252 4.7909998894  -999.250000 3.1161000729
 2995.7270508 8.8319997787  -999.250000  -999.250000  -999.250000 15.562999725 63.050003052 5.0915999413 64.499603271 4.9320001602  -999.250000 3.1201000214
 2995.8796387 8.8350000381  -999.250000  -999.250000  -999.250000 16.639999390 62.115001678 5.2077999115 65.778297424 4.9939999580  -999.250000 3.1240000725
 2996.0319824 8.8339996338  -999.250000  -999.250000  -999.250000 17.389999390 60.804996490 5.3428001404 66.205001831 5.0650000572  -999.250000 3.1382999420
 2996.1843262 8.7030000687  -999.250000  -999.250000  -999.250000 17.745000839 59.484001160 5.5612001419 67.029098511 5.1250000000  -999.250000 3.1723001003
 2996.3366699 8.7030000687  -999.250000  -999.250000  -999.250000 18.058000565 59.798999786 6.0591998100 66.805496216 5.1469998360  -999.250000 3.2061998844
 2996.4892578 8.7089996338  -999.250000  -999.250000  -999.250000 16.483999252 60.203998566 6.8301000595 66.429702759 5.1849999428  -999.250000 3.2400000095
 2996.6416016 8.7170000076  -999.250000  -999.250000  -999.250000 16.819999695 60.900001526 7.6497998238 65.401000977 5.1859998703  -999.250000 3.2776999474
 2996.7939453 8.7250003815  -999.250000  -999.250000  -999.250000 17.962999344 62.597999573 8.1677999496 64.963203430 5.1269998550  -999.250000 3.3280999660
 2996.9462891 8.7329998016  -999.250000  -999.250000  -999.250000 18.660999298 63.937999725 8.4086999893 64.363197327 5.1269998550  -999.250000 3.3682999611
 2997.0986328 8.7399997711  -999.250000  -999.250000  -999.250000 16.933000565 63.062999725 8.7067003250 63.956699371 5.0679998398  -999.250000 3.3777000904
