# LAS format log file from PETREL
# Project units are specified as depth units
#==================================================================
~Version information
VERS.   2.0:
WRAP.   NO:
#==================================================================
~Well
STRT .m      1216.1519775 :
STOP .m      3001.3652344 :
STEP .m     0.00000000 :
NULL .        -999.250000 :
COMP.           : COMPANY
WELL.  7/8-2 Cero   : WELL
FLD.            : FIELD
LOC.            : LOCATION
SRVC.           : SERVICE COMPANY
DATE.  2018-09-11 21:49:23   : Log Export Date {yyyy-MM-dd HH:mm:ss}
PROV.           : PROVINCE
UWI.   7/8-2   : UNIQUE WELL ID
API.            : API NUMBER
#==================================================================
~Curve
DEPT .m                   : DEPTH
CALI .in                  : CALI
BS .in                    : BS
DRHO .g/cm3               : DRHO
RHOB .g/cm3               : RHOB
GR .gAPI                  : GR
DTC .us/ft                : DTC
RDEP .ohm.m               : RDEP
SP .mV                    : SP
RSHA .ohm.m               : RSHA
RMED .ohm.m               : RMED
~Parameter
#==================================================================
~Ascii
# ...
 1335.6335449 12.351799965 12.250000954  -999.250000  -999.250000 77.715896606 161.90089417 0.8368999958 -39.51110077 1.0155999660 0.9519000053
 1335.7860107 12.322500229 12.250000954  -999.250000  -999.250000 77.567298889 161.68240356 0.8379999995 -39.63619995 1.0078999996 0.9535999894
 1335.9383545 12.293199539 12.250000954  -999.250000  -999.250000 77.418701172 161.46389771 0.8392000198 -39.76129913 1.0001000166 0.9552999735
 1336.0908203 12.289600372 12.250000954  -999.250000  -999.250000 77.601997375 161.12139893 0.8434000015 -39.78760147 0.9987999797 0.9556999803
 1336.2431641 12.303500175 12.250000954  -999.250000  -999.250000 78.010398865 160.69471741 0.8496999741 -39.74689865 1.0018999577 0.9552999735
 1336.3956299 12.317500114 12.250000954  -999.250000  -999.250000 78.418899536 160.26809692 0.8561000228 -39.70619965 1.0048999786 0.9548000097
 1336.5479736 12.326800346 12.250000954  -999.250000  -999.250000 79.030899048 160.01960754 0.8600000143 -39.63330078 1.0058000088 0.9545999765
 1336.7004395 12.326199532 12.250000954  -999.250000  -999.250000 80.085800171 160.15840149 0.8586999774 -39.49020004 1.0017999411 0.9549999833
 1336.8527832 12.325599670 12.250000954  -999.250000  -999.250000 81.140701294 160.29719543 0.8574000001 -39.34709930 0.9979000092 0.9552999735
 1337.0052490 12.325200081 12.250000954  -999.250000  -999.250000 82.143096924 160.43440247 0.8560000062 -39.20640182 0.9940000176 0.9556999803
 1337.1575928 12.331899643 12.250000954  -999.250000  -999.250000 81.658699036 160.52780151 0.8493999839 -39.13309860 0.9930999875 0.9575999975
 1337.3099365 12.338600159 12.250000954  -999.250000  -999.250000 81.174201965 160.62130737 0.8428999782 -39.05979919 0.9922000170 0.9595999718
 1337.4624023 12.345299721 12.250000954  -999.250000  -999.250000 80.689796448 160.71470642 0.8363999724 -38.98640060 0.9912999868 0.9614999890
 1337.6147461 12.336000443 12.250000954  -999.250000  -999.250000 80.269599915 161.33399963 0.8337000012 -38.87509918 0.9843999743 0.9603999853
 1337.7672119 12.321500778 12.250000954  -999.250000  -999.250000 79.870498657 162.12539673 0.8324000239 -38.75130081 0.9757000208 0.9582999945
 1337.9195557 12.307000160 12.250000954  -999.250000  -999.250000 79.471397400 162.91690063 0.8310999870 -38.62739944 0.9670000076 0.9560999870
 1338.0720215 12.280099869 12.250000954  -999.250000  -999.250000 79.780097961 163.43621826 0.8299000263 -38.67929840 0.9624000192 0.9534999728
 1338.2243652 12.239399910 12.250000954  -999.250000  -999.250000 80.879402161 163.65170288 0.8288000226 -38.92739868 0.9624000192 0.9502999783
 1338.3768311 12.198800087 12.250000954  -999.250000  -999.250000 81.978599548 163.86709595 0.8277000189 -39.17549896 0.9624000192 0.9470999837
 1338.5291748 12.174900055 12.250000954  -999.250000  -999.250000 82.549598694 164.05920410 0.8263999820 -39.38869858 0.9639000297 0.9441000223
 1338.6816406 12.222000122 12.250000954  -999.250000  -999.250000 80.892196655 164.15289307 0.8240000010 -39.45439911 0.9713000059 0.9416999817
 1338.8339844 12.269100189 12.250000954  -999.250000  -999.250000 79.234802246 164.24670410 0.8216999769 -39.52009964 0.9787999988 0.9393000007
 1338.9864502 12.316300392 12.250000954  -999.250000  -999.250000 77.577499390 164.34039307 0.8194000125 -39.58589935 0.9862999916 0.9369999766
 1339.1387939 12.306300163 12.250000954  -999.250000  -999.250000 78.058998108 164.07499695 0.8162999749 -39.62670135 0.9922000170 0.9373000264
 1339.2912598 12.290800095 12.250000954  -999.250000  -999.250000 78.750198364 163.77450562 0.8130000234 -39.66500092 0.9977999926 0.9377999902
 1339.4436035 12.275300026 12.250000954  -999.250000  -999.250000 79.441299438 163.47390747 0.8098000288 -39.70330048 1.0034999847 0.9383000135
 1339.5959473 12.272600174 12.250000954  -999.250000  -999.250000 80.153900146 163.18069458 0.8098000288 -39.72370148 1.0020999908 0.9404000044
 1339.7484131 12.277400017 12.250000954  -999.250000  -999.250000 80.878997803 162.89190674 0.8116999865 -39.73350143 0.9963999987 0.9434000254
 1339.9007568 12.282199860 12.250000954  -999.250000  -999.250000 81.604103088 162.60310364 0.8136000037 -39.74319839 0.9907000065 0.9463999867
 1340.0532227 12.279400826 12.250000954  -999.250000  -999.250000 81.788597107 162.40278625 0.8111000061 -39.68550110 0.9825999737 0.9477000237
 1340.2055664 12.262400627 12.250000954  -999.250000  -999.250000 80.964897156 162.36759949 0.8003000021 -39.50210190 0.9700000286 0.9456999898
 1340.3580322 12.245300293 12.250000954  -999.250000  -999.250000 80.141296387 162.33250427 0.7894999981 -39.31859970 0.9573000073 0.9437000155
 1340.5103760 12.232099533 12.250000954  -999.250000  -999.250000 79.504096985 162.30139160 0.7799000144 -39.13800049 0.9451000094 0.9419000149
 1340.6628418 12.270499229 12.250000954  -999.250000  -999.250000 81.413200378 162.32640076 0.7857999802 -38.99729919 0.9388999939 0.9416000247
 1340.8151855 12.308899879 12.250000954  -999.250000  -999.250000 83.322402954 162.35150146 0.7917000055 -38.85649872 0.9326000214 0.9413999915
 1340.9676514 12.347299576 12.250000954  -999.250000  -999.250000 85.231498718 162.37649536 0.7975999713 -38.71569824 0.9264000058 0.9411000013
 1341.1199951 12.362700462 12.250000954  -999.250000  -999.250000 85.166000366 162.50520325 0.7990999818 -38.71039963 0.9284999967 0.9394000173
 1341.2724609 12.371898651 12.250000954  -999.250000  -999.250000 84.567398071 162.66189575 0.7994999886 -38.74160004 0.9329000115 0.9373000264
 1341.4248047 12.380999565 12.250000954  -999.250000  -999.250000 83.968803406 162.81849670 0.7998999953 -38.77280045 0.9373000264 0.9351999760
 1341.5771484 12.398098946 12.250000954  -999.250000  -999.250000 83.065597534 162.92590332 0.7996000051 -38.97019958 0.9416000247 0.9343000054
 1341.7296143 12.422900200 12.250000954  -999.250000  -999.250000 81.865898132 162.98519897 0.7986000180 -39.32949829 0.9459000230 0.9348000288
 1341.8819580 12.447699547 12.250000954  -999.250000  -999.250000 80.666099548 163.04449463 0.7976999879 -39.68870163 0.9501000047 0.9351999760
 1342.0344238 12.455599785 12.250000954  -999.250000  -999.250000 79.633697510 163.01950073 0.7989000082 -40.00820160 0.9555000067 0.9351000190
 1342.1867676 12.405500412 12.250000954  -999.250000  -999.250000 79.175399780 162.70570374 0.8076000214 -40.19110107 0.9646000266 0.9332000017
 1342.3392334 12.355501175 12.250000954  -999.250000  -999.250000 78.717102051 162.39179993 0.8162000179 -40.37400055 0.9736999869 0.9312999845
 1342.4915771 12.305399895 12.250000954  -999.250000  -999.250000 78.258796692 162.07800293 0.8248999715 -40.55690002 0.9828000069 0.9294000268
 1342.6440430 12.328399658 12.250000954  -999.250000  -999.250000 79.425598145 162.62910461 0.8314999938 -40.41450119 0.9839000106 0.9290000200
 1342.7963867 12.355699539 12.250000954  -999.250000  -999.250000 80.687202454 163.23080444 0.8379999995 -40.25299835 0.9844999909 0.9286999702
 1342.9488525 12.382999420 12.250000954  -999.250000  -999.250000 81.948799133 163.83239746 0.8445000052 -40.09149933 0.9850999713 0.9283999801
 1343.1011963 12.362099648 12.250000954  -999.250000  -999.250000 81.822196960 163.63330078 0.8461999893 -39.98649979 0.9843999743 0.9284999967
 1343.2536621 12.316800117 12.250000954  -999.250000  -999.250000 80.993202209 163.02909851 0.8453999758 -39.91009903 0.9829999804 0.9289000034
 1343.4060059 12.271499634 12.250000954  -999.250000  -999.250000 80.164199829 162.42489624 0.8446000218 -39.83369827 0.9815999866 0.9293000102
 1343.5583496 12.240500450 12.250000954  -999.250000  -999.250000 79.385101318 159.93768311 0.8427000046 -39.66090012 0.9793999791 0.9297999740
 1343.7108154 12.232299805 12.250000954  -999.250000  -999.250000 78.686302185 154.41949463 0.8389000297 -39.33290100 0.9757000208 0.9304999709
 1343.8631592 12.224099159 12.250000954  -999.250000  -999.250000 77.987396240 148.90139771 0.8349999785 -39.00500107 0.9720000029 0.9312000275
 1344.0156250 12.222800255 12.250000954  -999.250000  -999.250000 77.481597900 144.59559631 0.8307999969 -38.72380066 0.9679999948 0.9314000010
