# LAS format log file from PETREL
# Project units are specified as depth units
#==================================================================
~Version information
VERS.   2.0:
WRAP.   NO:
#==================================================================
~Well
STRT .m      2127.0468750 :
STOP .m      3314.3952637 :
STEP .m     0.00000000 :
NULL .        -999.250000 :
COMP.           : COMPANY
WELL.  7/8-1 T2   : WELL
FLD.            : FIELD
LOC.            : LOCATION
SRVC.           : SERVICE COMPANY
DATE.  2018-09-11 21:49:23   : Log Export Date {yyyy-MM-dd HH:mm:ss}
PROV.           : PROVINCE
UWI.   7/8-1 T2   : UNIQUE WELL ID
API.            : API NUMBER
#==================================================================
~Curve
DEPT .m                   : DEPTH
CALI .in                  : CALI
BS .in                    : BS
DRHO .g/cm3               : DRHO
NPHI .m3/m3               : NPHI
RHOB .g/cm3               : RHOB
GR .gAPI                  : GR
DTC .us/ft                : DTC
RDEP .ohm.m               : RDEP
SP .mV                    : SP
RSHA .ohm.m               : RSHA
RMIC .ohm.m               : RMIC
RMED .ohm.m               : RMED
~Parameter
#==================================================================
~Ascii
# ...
 2280.6660156 9.2783002853 8.5000000000 0.0100608002 0.3641529977 2.2802999020 92.003494263 130.07310486 0.4724000096 52.895900726 0.8644000292 0.5303999782 0.9003000259
 2280.8186035 9.2735996246 8.5000000000 -0.004567307 0.3632635772 2.2841062546 90.670982361 128.82791138 0.4758052826 52.624965668 0.8793240190 0.6205000281 0.9100157022
 2280.9709473 9.2690000534 8.5000000000 -0.003057692 0.3623785675 2.2878963947 92.877365112 129.98094177 0.4791072011 52.354892731 0.8943073750 0.7106999755 0.9198014140
 2281.1232910 9.2412996292 8.5000000000 -0.003971154 0.3639704883 2.2856945992 97.464721680 131.83993530 0.4836075008 52.287868500 0.8989034891 0.6906999946 0.9206981063
 2281.2756348 9.2081003189 8.5000000000 -0.009817600 0.3661459982 2.2822000980 99.835868835 132.35668945 0.4882999957 52.269001007 0.9010999799 0.6446999907 0.9194999933
 2281.4279785 9.1749000549 8.5000000000 -0.007091346 0.3683240116 2.2786002159 97.909690857 133.06491089 0.4930999875 52.250000000 0.9032999873 0.5986999869 0.9183999896
 2281.5805664 9.1500997543 8.5000000000 -0.000201923 0.3665224314 2.2787058353 91.724845886 134.70803833 0.5027222633 52.377010345 0.9031966329 0.5514000058 0.9199064374
 2281.7329102 9.1328001022 8.5000000000 0.0029134615 0.3611724377 2.2823054790 85.602455139 135.24061584 0.5166224241 52.634010315 0.9010966420 0.5030999780 0.9239063859
 2281.8852539 9.1155004501 8.5000000000 0.0030000000 0.3558320105 2.2857999802 77.555770874 135.00221252 0.5306000113 52.890499115 0.8989999890 0.4548000097 0.9279000163
 2282.0375977 9.1101999283 8.5000000000 -0.008635200 0.3572610021 2.2969000340 66.594345093 133.14469910 0.5439000130 53.095001221 0.9003000259 0.4453999996 0.9304000139
 2282.1901855 9.1415996552 8.5000000000 -0.047846153 0.3794224560 2.3310549259 60.248500824 122.66349792 0.5554184318 53.139373779 0.9118184447 0.5547000170 0.9286971092
 2282.3425293 9.1730003357 8.5000000000 -0.049971156 0.4015493989 2.3652546406 65.355987549 108.05715179 0.5669184327 53.183773041 0.9233184457 0.6639999747 0.9268972874
 2282.4948730 9.2044000626 8.5000000000 -0.012125000 0.4236409962 2.3993000984 77.748565674 102.93580627 0.5784000158 53.228000641 0.9348000288 0.7732999921 0.9251999855
 2282.6472168 9.2510995865 8.5000000000 -0.003243200 0.4252929986 2.3387000561 88.092094421 105.80263519 0.5809000134 53.638099670 0.9495000243 0.6330999732 0.9150999784
 2282.7998047 9.2983999252 8.5000000000 -0.002028846 0.4262244999 2.2746975422 93.897842407 114.46714020 0.5832034945 54.061779022 0.9643236995 0.4841000140 0.9047833085
 2282.9521484 9.3456001282 8.5000000000 0.0067403847 0.4271440208 2.2108645439 95.833358765 130.73135376 0.5853646994 54.483909607 0.9790422916 0.3350999951 0.8943811059
 2283.1044922 9.3266000748 8.5000000000 0.0070000002 0.4221546650 2.1886951923 96.041381836 138.82307434 0.5633469820 54.363708496 0.9430050850 0.2908000052 0.8825798631
 2283.2568359 9.2770004272 8.5000000000 0.0011824000 0.4144609869 2.1856999397 96.365966797 138.12431335 0.5303000212 53.994899750 0.8838000298 0.2944999933 0.8700000048
 2283.4094238 9.2273998260 8.5000000000 0.0233365390 0.4067446291 2.1826035976 96.974227905 138.09530640 0.4970602393 53.624988556 0.8244404197 0.2982999980 0.8574849367
 2283.5617676 9.2005996704 8.5000000000 0.0142884618 0.3996329904 2.1849164963 95.697448730 139.02178955 0.4722799659 53.245166779 0.7872927785 0.2991000116 0.8480921388
 2283.7141113 9.2076997757 8.5000000000 0.0004038462 0.3933920264 2.1951162815 92.980560303 138.13952637 0.4597800076 52.849967957 0.7827928066 0.2955999970 0.8431920409
 2283.8664551 9.2146997452 8.5000000000 -0.004855769 0.3871609867 2.2051999569 92.350357056 137.86416626 0.4472999871 52.455299377 0.7782999873 0.2921000123 0.8381999731
 2284.0187988 9.2166004181 8.5000000000 -0.001121600 0.3816730082 2.2146999836 93.900871277 137.16304016 0.4365000129 52.090999603 0.7749000192 0.2933000028 0.8338999748
 2284.1713867 9.1820001602 8.5000000000 0.0028846154 0.3815297484 2.2191071510 95.849578857 136.21481323 0.4378020763 51.946166992 0.7794073820 0.3273999989 0.8336997032
 2284.3237305 9.1472997665 8.5000000000 0.0068846154 0.3813877702 2.2236070633 97.157814026 136.43815613 0.4391020834 51.801567078 0.7840071917 0.3614999950 0.8334997296
 2284.4760742 9.1127004623 8.5000000000 -0.005625000 0.3812460005 2.2279999256 96.514221191 137.81608582 0.4404000044 51.657199860 0.7885000110 0.3955999911 0.8332999945
 2284.6284180 9.1766996384 8.5000000000 0.0066048000 0.3855150044 2.2374000549 95.371200562 138.78179932 0.4458000064 51.879600525 0.8016999960 0.4086999893 0.8407999873
 2284.7810059 9.2590999603 8.5000000000 0.0099134613 0.3906161785 2.2477166653 94.898010254 139.50575256 0.4520099163 52.170967102 0.8165237308 0.4180000126 0.8497142196
 2284.9333496 9.3416004181 8.5000000000 0.0012596154 0.3957073390 2.2581138611 94.182861328 137.92205811 0.4582147598 52.461929321 0.8313186169 0.4271999896 0.8586173058
 2285.0856934 9.3646001816 8.5000000000 -0.008711538 0.4002836645 2.2667117119 90.303611755 136.93083191 0.4674185812 52.731304169 0.8429148793 0.4250000119 0.8694195151
 2285.2380371 9.3411998749 8.5000000000 -0.018695999 0.4044510126 2.2739999294 85.451538086 135.97781372 0.4790000021 52.983501434 0.8521999717 0.4137000144 0.8816000223
 2285.3906250 9.3177995682 8.5000000000 -0.013173077 0.4086229503 2.2814073563 84.793144226 132.70600891 0.4906161726 53.236633301 0.8614094853 0.4025000036 0.8938096166
 2285.5429688 9.2860002518 8.5000000000 0.0190480761 0.4079450965 2.2859961987 88.792755127 130.75663757 0.5007102489 53.507812500 0.8672955036 0.3925000131 0.8997844458
 2285.6953125 9.2327003479 8.5000000000 0.0122307697 0.3949141502 2.2835965157 93.950347900 131.88601685 0.5071103573 53.826210022 0.8644956946 0.3856000006 0.8900845051
 2285.8476563 9.1793003082 8.5000000000 0.0149134612 0.3819040060 2.2813000679 96.134567261 132.35821533 0.5135999918 54.144100189 0.8618000150 0.3786999881 0.8804000020
 2286.0000000 9.1260004044 8.5000000000 0.0227568001 0.3688740134 2.2788999081 96.594474792 136.53379822 0.5199999809 54.462501526 0.8590000272 0.3718000054 0.8707000017
 2286.1525879 9.1990003586 8.5000000000 0.0123173082 0.3656388223 2.2731909752 96.217567444 139.67544556 0.5081810951 54.426342010 0.8572971225 0.3910000026 0.8616855741
 2286.3049316 9.2720003128 8.5000000000 0.0032596155 0.3624088466 2.2674908638 94.481231689 138.62263489 0.4963811040 54.390342712 0.8554972410 0.4101999998 0.8526855707
 2286.4572754 9.3450002670 8.5000000000 0.0078557692 0.3591839969 2.2618000507 90.936759949 138.34115601 0.4846000075 54.354301453 0.8537999988 0.4293999970 0.8436999917
 2286.6096191 9.3681001663 8.5000000000 0.0167264007 0.3595080078 2.2602999210 88.450691223 138.56504822 0.4760999978 54.071800232 0.8554000258 0.4259999990 0.8407999873
 2286.7622070 9.3717002869 8.5000000000 0.0014615385 0.3612217307 2.2603001595 88.441070557 138.34068298 0.4687882960 53.692493439 0.8584046364 0.4138999879 0.8403993249
 2286.9145508 9.3753004074 8.5000000000 0.0000288462 0.3629391193 2.2603969574 90.978683472 138.35011292 0.4614916444 53.313865662 0.8612935543 0.4016999900 0.8399977088
 2287.0668945 9.3576002121 8.5000000000 0.0000000000 0.3680019677 2.2583928108 94.339408875 138.79753113 0.4562959969 52.979858398 0.8572790027 0.3964999914 0.8385959864
 2287.2192383 9.3127002716 8.5000000000 -0.000969600 0.3773289919 2.2539000511 96.567214966 138.81080627 0.4537999928 52.703498840 0.8442000151 0.4004000127 0.8360999823
 2287.3718262 9.2677001953 8.5000000000 -0.011682692 0.3866845071 2.2493937016 97.551742554 137.88432312 0.4512971044 52.426353455 0.8311815858 0.4043000042 0.8335967660
 2287.5241699 9.2287998199 8.5000000000 -0.010057692 0.3951087296 2.2455987930 97.189567566 137.16194153 0.4495030344 52.209968567 0.8196945786 0.4056000113 0.8316009641
 2287.6765137 9.2217998505 8.5000000000 -0.003201923 0.3986726999 2.2448990345 96.066024780 136.92823792 0.4514030516 52.314167023 0.8162943721 0.3934000134 0.8322009444
 2287.8288574 9.2147998810 8.5000000000 0.0028176000 0.4022299945 2.2442998886 97.725921631 137.36589050 0.4532999992 52.418098450 0.8127999902 0.3810999990 0.8327999711
