# LAS format log file from PETREL
# Project units are specified as depth units
#==================================================================
~Version information
VERS.   2.0:
WRAP.   NO:
#==================================================================
~Well
STRT .m      2674.6198730 :
STOP .m      4399.4833984 :
STEP .m     0.00000000 :
NULL .        -999.250000 :
COMP.           : COMPANY
WELL.  7/8-4 T2   : WELL
FLD.            : FIELD
LOC.            : LOCATION
SRVC.           : SERVICE COMPANY
DATE.  2018-09-11 21:49:25   : Log Export Date {yyyy-MM-dd HH:mm:ss}
PROV.           : PROVINCE
UWI.   7/8-4 T2   : UNIQUE WELL ID
API.            : API NUMBER
#==================================================================
~Curve
DEPT .m                   : DEPTH
DCAL .in                  : DCAL
CALI .in                  : CALI
BS .in                    : BS
ROP .m/h                  : ROP
DRHO .g/cm3               : DRHO
NPHI .m3/m3               : NPHI
RHOB .g/cm3               : RHOB
PEF .b/e                  : PEF
GR .gAPI                  : GR
DTC .us/ft                : DTC
RDEP .ohm.m               : RDEP
SP .mV                    : SP
RSHA .ohm.m               : RSHA
RMED .ohm.m               : RMED
~Parameter
#==================================================================
~Ascii
# ...
 3130.7531738 0.2189999968 12.468999863 12.250000954 91.466865540 -0.027331000 0.0858419985 2.5388998985 5.5369000435 49.222599030 66.063499451 2.8729999065 61.645900726 2.6419000626 3.4412000179
 3130.9055176 0.2458999902 12.495900154 12.250000954 92.403541565 -0.028547000 0.0928919986 2.5290000439 5.7493000031 47.802898407 66.004402161 2.7795999050 62.398200989 2.3910999298 3.1782000065
 3131.0581055 0.2635000050 12.513500214 12.250000954 93.168640137 -0.028700000 0.0984010026 2.5220999718 5.9423999786 47.159500122 65.964996338 2.6856000423 63.505500793 2.2170000076 2.9621000290
 3131.2104492 0.2662999928 12.516301155 12.250000954 93.654853821 -0.027122000 0.1013989970 2.5201001167 6.1043000221 47.779598236 65.957298279 2.5908999443 65.190902710 2.1677000523 2.8220999241
 3131.3627930 0.2691000104 12.519100189 12.250000954 94.141075134 -0.025544001 0.1043969989 2.5181999207 6.2660999298 48.399600983 65.949699402 2.4960999489 66.876197815 2.1184000969 2.6821000576
 3131.5151367 0.2698000073 12.519801140 12.250000954 94.564308167 -0.024355000 0.1078329980 2.5151998997 6.4883999825 48.836799622 65.964202881 2.3979001045 68.419502258 2.0555000305 2.5418000221
 3131.6677246 0.2518000007 12.501799583 12.250000954 94.419944763 -0.026674001 0.1152250022 2.5030000210 7.2571997643 47.622898102 66.178298950 2.2693998814 68.679901123 1.8703000546 2.3991999626
 3131.8200684 0.2337000072 12.483699799 12.250000954 94.275596619 -0.028994000 0.1226169989 2.4907000065 8.0260000229 46.409099579 66.392402649 2.1407999992 68.940399170 1.6849999428 2.2565999031
 3131.9724121 0.2156999856 12.465700150 12.250000954 94.131233215 -0.031312998 0.1300079972 2.4784998894 8.7947998047 45.195201874 66.606498718 2.0122001171 69.200798035 1.4997999668 2.1140000820
 3132.1247559 0.2013000101 12.451299667 12.250000954 93.739830017 -0.033468001 0.1347109973 2.4649000168 9.5109996796 46.435501099 67.235000610 1.8806999922 69.596801758 1.3424999714 1.9349999428
 3132.2770996 0.1876000166 12.437600136 12.250000954 93.293632507 -0.035587002 0.1388200074 2.4509000778 10.215499878 48.218601227 67.955101013 1.7483999729 70.022697449 1.1914000511 1.7480000257
 3132.4296875 0.1739999801 12.424000740 12.250000954 92.847770691 -0.037705000 0.1429280043 2.4368999004 10.920100212 50.001598358 68.675201416 1.6161999702 70.448600769 1.0401999950 1.5608999729
 3132.5820313 0.1670999974 12.417099953 12.250000954 92.621391296 -0.037654005 0.1497920007 2.4328000546 10.857899666 50.775901794 69.296600342 1.5231000185 71.200401306 0.9488999844 1.4299000502
 3132.7343750 0.1659999937 12.416000366 12.250000954 92.583663940 -0.035739999 0.1590220034 2.4370999336 10.137399673 50.684200287 69.833000183 1.4637000561 72.231903076 0.9089999795 1.3470000029
 3132.8867188 0.1649000049 12.414899826 12.250000954 92.545600891 -0.033825003 0.1682520062 2.4414000511 9.4169998169 50.592399597 70.369499207 1.4042999744 73.263397217 0.8690000176 1.2641999722
 3133.0393066 0.1641000062 12.414099693 12.250000954 92.509513855 -0.031670999 0.1749249995 2.4467000961 8.8470001221 50.585201263 70.751602173 1.3696000576 74.222900391 0.8475000262 1.2180999517
 3133.1916504 0.1641000062 12.414099693 12.250000954 92.477363586 -0.028821999 0.1742109954 2.4549999237 8.7117004395 50.822101593 70.687698364 1.4064999819 74.974296570 0.8791999817 1.2783999443
 3133.3439941 0.1641000062 12.414099693 12.250000954 92.445205688 -0.025973000 0.1734970063 2.4632999897 8.5762996674 51.059101105 70.623901367 1.4434000254 75.725700378 0.9108999968 1.3386000395
 3133.4963379 0.1641000062 12.414099693 12.250000954 92.413055420 -0.023123000 0.1727830023 2.4714999199 8.4409999847 51.296001434 70.560096741 1.4803999662 76.477096558 0.9427000284 1.3989000320
 3133.6489258 0.1630000025 12.413000107 12.250000954 91.762466431 -0.023715001 0.1698289961 2.4712998867 8.4461002350 50.916801453 70.073799133 1.5039999485 75.859100342 0.9541000128 1.4285999537
 3133.8012695 0.1618999988 12.411899567 12.250000954 91.097114563 -0.024390001 0.1668210030 2.4709000587 8.4547004700 50.522800446 69.577301025 1.5274000168 75.208000183 0.9649999738 1.4574999809
 3133.9536133 0.1607999951 12.410800934 12.250000954 90.431762695 -0.025064999 0.1638129950 2.4705998898 8.4631996155 50.128700256 69.080802917 1.5507999659 74.556900024 0.9760000110 1.4865000248
 3134.1059570 0.1492000073 12.399199486 12.250000954 90.106956482 -0.025663000 0.1626839936 2.4640998840 9.2693996429 50.462799072 68.907501221 1.5544999838 74.478500366 0.9898999929 1.4599000216
 3134.2583008 0.1330000013 12.382999420 12.250000954 89.930778503 -0.026227999 0.1623769999 2.4549999237 10.424799919 51.115501404 68.875701904 1.5497000217 74.650901794 1.0052000284 1.4090000391
 3134.4108887 0.1168999970 12.366900444 12.250000954 89.754920959 -0.026792999 0.1620689929 2.4458999634 11.580200195 51.768199921 68.843902588 1.5448000431 74.823303223 1.0204000473 1.3581999540
 3134.5632324 0.1009999961 12.350999832 12.250000954 89.395339966 -0.026675001 0.1614309996 2.4444000721 12.424400330 51.612098694 68.651397705 1.5384999514 75.193702698 1.0496000051 1.3306000233
 3134.7155762 0.0855000019 12.335498810 12.250000954 88.776573181 -0.025593000 0.1603240073 2.4535999298 12.829600334 50.314399719 68.232200623 1.5302000046 75.843696594 1.0985000134 1.3358999491
 3134.8679199 0.0700000003 12.319999695 12.250000954 88.157814026 -0.024511000 0.1592179984 2.4628999233 13.234800339 49.016700745 67.813003540 1.5219000578 76.493598938 1.1474000216 1.3411999941
 3135.0205078 0.0564999990 12.306500435 12.250000954 87.619422913 -0.023499001 0.1580580026 2.4711000919 13.505900383 47.923198700 67.409896851 1.5177999735 77.183403015 1.1822999716 1.3473999500
 3135.1728516 0.0559000038 12.305899620 12.250000954 87.601051331 -0.022936000 0.1565520018 2.4718000889 12.909299850 48.151298523 67.111396790 1.5405999422 78.131797791 1.1267999411 1.3592000008
 3135.3251953 0.0553999990 12.305399895 12.250000954 87.582351685 -0.022373002 0.1550469995 2.4725999832 12.312600136 48.379299164 66.813003540 1.5634000301 79.080101013 1.0714000463 1.3710000515
 3135.4775391 0.0548000000 12.304800034 12.250000954 87.563644409 -0.021810999 0.1535409987 2.4734001160 11.715900421 48.607299805 66.514503479 1.5860999823 80.028396606 1.0159000158 1.3827999830
 3135.6301270 0.0546999983 12.304699898 12.250000954 88.458007813 -0.021806000 0.1533010006 2.4718999863 11.385800362 48.770999908 66.637702942 1.5960999727 79.629997253 1.0332000256 1.3846999407
 3135.7824707 0.0546999983 12.304699898 12.250000954 89.509185791 -0.021899000 0.1532790065 2.4698998928 11.101599693 48.923599243 66.833602905 1.6038000584 78.999397278 1.0629999638 1.3849999905
 3135.9348145 0.0546999983 12.304699898 12.250000954 90.560691833 -0.021991000 0.1532579958 2.4679999352 10.817299843 49.076198578 67.029502869 1.6115000248 78.368896484 1.0928000212 1.3853000402
 3136.0871582 0.0546999983 12.304699898 12.250000954 91.060699463 -0.022308776 0.1515370011 2.4681000710 10.753199577 49.423301697 67.204002380 1.6072000265 77.425598145 1.1023000479 1.3861999512
 3136.2395020 0.0546999983 12.304699898 12.250000954 91.148292542 -0.022793777 0.1485469937 2.4695999622 10.853699684 49.916000366 67.362396240 1.5939999819 76.248497009 1.0967999697 1.3874000311
 3136.3920898 0.0546999983 12.304699898 12.250000954 91.236221313 -0.023280904 0.1455560029 2.4711000919 10.954099655 50.408599854 67.520896912 1.5808000565 75.071296692 1.0911999941 1.3885999918
 3136.5444336 0.0546999983 12.304699898 12.250000954 91.420936584 -0.024471644 0.1455769986 2.4705998898 11.099800110 50.091999054 67.652496338 1.5605000257 74.437103271 1.0820000172 1.3851000071
 3136.6967773 0.0546999983 12.304699898 12.250000954 91.841537476 -0.027369644 0.1529210061 2.4649000168 11.355400085 47.806900024 67.718902588 1.5230000019 75.123703003 1.0641000271 1.3698999882
 3136.8491211 0.0546999983 12.304699898 12.250000954 92.262138367 -0.030267585 0.1602649987 2.4593000412 11.611100197 45.521900177 67.785301208 1.4854999781 75.810203552 1.0462000370 1.3546999693
