# LAS format log file from PETREL
# Project units are specified as depth units
#==================================================================
~Version information
VERS.   2.0:
WRAP.   NO:
#==================================================================
~Well
STRT .m      2127.0468750 :
STOP .m      3314.3952637 :
STEP .m     0.00000000 :
NULL .        -999.250000 :
COMP.           : COMPANY
WELL.  7/8-1 T2   : WELL
FLD.            : FIELD
LOC.            : LOCATION
SRVC.           : SERVICE COMPANY
DATE.  2018-09-11 21:49:23   : Log Export Date {yyyy-MM-dd HH:mm:ss}
PROV.           : PROVINCE
UWI.   7/8-1 T2   : UNIQUE WELL ID
API.            : API NUMBER
#==================================================================
~Curve
DEPT .m                   : DEPTH
CALI .in                  : CALI
BS .in                    : BS
DRHO .g/cm3               : DRHO
NPHI .m3/m3               : NPHI
RHOB .g/cm3               : RHOB
GR .gAPI                  : GR
DTC .us/ft                : DTC
RDEP .ohm.m               : RDEP
SP .mV                    : SP
RSHA .ohm.m               : RSHA
RMIC .ohm.m               : RMIC
RMED .ohm.m               : RMED
~Parameter
#==================================================================
~Ascii
# ...
 2909.7734375 8.3955001831 8.5000000000  -999.250000  -999.250000  -999.250000 12.641821861 82.753013611 0.4203003347 82.936981201 0.4500996768  -999.250000 0.6380814910
 2909.9257813 8.4132995605 8.5000000000  -999.250000  -999.250000  -999.250000 13.222143173 82.761802673 0.4204719365 82.588966370 0.4500559270  -999.250000 0.6322988868
 2910.0781250 8.4060001373 8.5000000000  -999.250000  -999.250000  -999.250000 13.816105843 83.322349548 0.4654405415 82.878234863 0.4850092828  -999.250000 0.6316065788
 2910.2304688 8.3746995926 8.5000000000  -999.250000  -999.250000  -999.250000 13.574522018 83.472175598 0.5531403422 83.775238037 0.5532091260  -999.250000 0.6357064247
 2910.3830566 8.3434000015 8.5000000000  -999.250000  -999.250000  -999.250000 12.695246696 83.477302551 0.6409635544 84.673019409 0.6215338111  -999.250000 0.6397336125
 2910.5354004 8.3353004456 8.5000000000  -999.250000  -999.250000  -999.250000 11.767241478 83.477302551 0.7545203567 85.364929199 0.7258600593  -999.250000 0.6502516270
 2910.6877441 8.4047002792 8.5000000000  -999.250000  -999.250000  -999.250000 11.151262283 83.348724365 0.9544203877 85.383728027 0.9505599737  -999.250000 0.6824514270
 2910.8400879 8.4741001129 8.5000000000  -999.250000  -999.250000  -999.250000 10.848726273 82.783256531 1.1543202400 85.402427673 1.1751599312  -999.250000 0.7145516276
 2910.9926758 8.5433998108 8.5000000000  -999.250000  -999.250000  -999.250000 11.113474846 81.383369446 1.3544291258 85.418304443 1.4003238678  -999.250000 0.7471972704
 2911.1450195 8.5521001816 8.5000000000  -999.250000  -999.250000  -999.250000 11.911849976 79.263305664 1.5507146120 84.513069153 1.6885678768  -999.250000 0.9023593068
 2911.2973633 8.5577001572 8.5000000000  -999.250000  -999.250000  -999.250000 12.785711288 76.657302856 1.7470146418 83.557868958 1.9805679321  -999.250000 1.0641593933
 2911.4497070 8.5631999969 8.5000000000  -999.250000  -999.250000  -999.250000 12.525204659 73.919769287 1.9431729317 82.602302551 2.2723724842  -999.250000 1.2261184454
 2911.6020508 8.5633001328 8.5000000000  -999.250000  -999.250000  -999.250000 11.994735718 70.492332458 2.0510029793 81.414916992 2.4423758984  -999.250000 1.4248476028
 2911.7546387 8.5606002808 8.5000000000  -999.250000  -999.250000  -999.250000 11.302691460 67.602890015 2.1153054237 80.111030579 2.5523514748  -999.250000 1.6420937777
 2911.9069824 8.5579996109 8.5000000000  -999.250000  -999.250000  -999.250000 10.443882942 65.659629822 2.1793363094 78.811416626 2.6618614197  -999.250000 1.8584661484
 2912.0593262 8.5577001572 8.5000000000  -999.250000  -999.250000  -999.250000 10.501572609 65.029525757 2.2018308640 77.635627747 2.7000811100  -999.250000 2.0244381428
 2912.2116699 8.5608997345 8.5000000000  -999.250000  -999.250000  -999.250000 11.435828209 65.108299255 2.1586308479 76.657234192 2.6258811951  -999.250000 2.1106381416
 2912.3642578 8.5641002655 8.5000000000  -999.250000  -999.250000  -999.250000 12.301301003 64.652877808 2.1154346466 75.678337097 2.5516211987  -999.250000 2.1968414783
 2912.5166016 8.5661001205 8.5000000000  -999.250000  -999.250000  -999.250000 12.256911278 64.635299683 2.0637032986 75.008651733 2.4644889832  -999.250000 2.2720794678
 2912.6689453 8.5578002930 8.5000000000  -999.250000  -999.250000  -999.250000 11.975652695 64.535713196 1.9409034252 76.851455688 2.2704894543  -999.250000 2.2592794895
 2912.8212891 8.5495004654 8.5000000000  -999.250000  -999.250000  -999.250000 11.907211304 64.631484985 1.8182034492 78.694351196 2.0765893459  -999.250000 2.2464797497
 2912.9738770 8.5412998199 8.5000000000  -999.250000  -999.250000  -999.250000 11.917521477 65.094741821 1.6949454546 80.533950806 1.8821154833  -999.250000 2.2335000038
 2913.1262207 8.5033998489 8.5000000000  -999.250000  -999.250000  -999.250000 11.994088173 65.801422119 1.4594841003 80.422668457 1.6061296463  -999.250000 2.1399228573
 2913.2785645 8.4593000412 8.5000000000  -999.250000  -999.250000  -999.250000 12.037451744 66.287223816 1.1999840736 79.902565002 1.3126294613  -999.250000 2.0294227600
 2913.4309082 8.4153003693 8.5000000000  -999.250000  -999.250000  -999.250000 11.718274117 66.661354065 0.9405971169 79.382896423 1.0192432404  -999.250000 1.9187562466
 2913.5832520 8.4027996063 8.5000000000  -999.250000  -999.250000  -999.250000 10.772286415 67.236480713 0.7516914010 79.131156921 0.8592211604  -999.250000 1.7666015625
 2913.7358398 8.4165000916 8.5000000000  -999.250000  -999.250000  -999.250000 9.9288511276 67.258903503 0.6212910414 79.101852417 0.8099209666  -999.250000 1.5801008940
 2913.8881836 8.4301996231 8.5000000000  -999.250000  -999.250000  -999.250000 9.6687726974 67.488609314 0.4909376800 79.072860718 0.7606425881  -999.250000 1.3935384750
 2914.0405273 8.4398002625 8.5000000000  -999.250000  -999.250000  -999.250000 10.019251823 69.228164673 0.3897668421 79.235816956 0.7249028683  -999.250000 1.2304427624
 2914.1928711 8.4381999969 8.5000000000  -999.250000  -999.250000  -999.250000 10.645539284 72.153335571 0.3690668344 79.928710938 0.7267028689  -999.250000 1.1323426962
 2914.3454590 8.4365997314 8.5000000000  -999.250000  -999.250000  -999.250000 11.278705597 74.794395447 0.3483334482 80.622718811 0.7285057902  -999.250000 1.0339860916
 2914.4978027 8.4349002838 8.5000000000  -999.250000  -999.250000  -999.250000 11.533153534 77.188194275 0.3276687562 81.312507629 0.7304408550  -999.250000 0.9361841679
 2914.6501465 8.4191999435 8.5000000000  -999.250000  -999.250000  -999.250000 10.843723297 79.679901123 0.3705703616 80.755775452 0.8183431029  -999.250000 0.9262863398
 2914.8024902 8.4032001495 8.5000000000  -999.250000  -999.250000  -999.250000 9.9929084778 81.270843506 0.4144703746 80.179077148 0.9076429605  -999.250000 0.9177863598
 2914.9550781 8.3872995377 8.5000000000  -999.250000  -999.250000  -999.250000 9.5863008499 82.249641418 0.4588468671 79.600914001 0.9970586896  -999.250000 0.9094113708
 2915.1074219 8.4072999954 8.5000000000  -999.250000  -999.250000  -999.250000 9.9736299515 82.514511108 0.6295599341 78.824317932 1.1089951992  -999.250000 0.9441849589
 2915.2597656 8.4425001144 8.5000000000  -999.250000  -999.250000  -999.250000 10.304910660 82.753013611 0.8541599512 77.961921692 1.2307950258  -999.250000 0.9971849322
 2915.4121094 8.4778003693 8.5000000000  -999.250000  -999.250000  -999.250000 10.320852280 81.946212769 1.0787487030 77.101547241 1.3525795937  -999.250000 1.0502132177
 2915.5646973 8.5050001144 8.5000000000  -999.250000  -999.250000  -999.250000 10.685090065 80.892745972 1.2966666222 77.512435913 1.5274884701  -999.250000 1.1211034060
 2915.7170410 8.5214004517 8.5000000000  -999.250000  -999.250000  -999.250000 10.187572479 79.245727539 1.5046336651 79.645225525 1.7734948397  -999.250000 1.2157517672
 2915.8693848 8.5376996994 8.5000000000  -999.250000  -999.250000  -999.250000 8.9939317703 76.887016296 1.7129608393 81.780792236 2.0199036598  -999.250000 1.3104655743
 2916.0217285 8.5571002960 8.5000000000  -999.250000  -999.250000  -999.250000 8.4838027954 73.928558350 2.0013306141 83.518859863 2.2718567848  -999.250000 1.4138481617
 2916.1740723 8.5950002670 8.5000000000  -999.250000  -999.250000  -999.250000 8.8054447174 71.180358887 2.7693307400 82.873161316 2.5568568707  -999.250000 1.5687482357
 2916.3266602 8.6329002380 8.5000000000  -999.250000  -999.250000  -999.250000 9.8042936325 69.007522583 3.5385577679 82.226432800 2.8423118591  -999.250000 1.7238953114
 2916.4790039 8.6707000732 8.5000000000  -999.250000  -999.250000  -999.250000 10.245555878 68.009567261 4.3055682182 81.580932617 3.1267008781  -999.250000 1.8784135580
 2916.6313477 8.6843004227 8.5000000000  -999.250000  -999.250000  -999.250000 9.9036750793 67.410957336 5.1593904495 80.351081848 3.3143756390  -999.250000 2.0116076469
 2916.7836914 8.6939001083 8.5000000000  -999.250000  -999.250000  -999.250000 8.5370283127 66.346450806 6.0269904137 79.026977539 3.4863758087  -999.250000 2.1412079334
 2916.9362793 8.7035999298 8.5000000000  -999.250000  -999.250000  -999.250000 7.8531055450 65.615676880 6.8946480751 77.703994751 3.6586253643  -999.250000 2.2710864544
