# LAS format log file from PETREL
# Project units are specified as depth units
#==================================================================
~Version information
VERS.   2.0:
WRAP.   NO:
#==================================================================
~Well
STRT .m      2126.7421875 :
STOP .m      3314.5480957 :
STEP .m     0.00000000 :
NULL .        -999.250000 :
COMP.           : COMPANY
WELL.  7/8-1   : WELL
FLD.            : FIELD
LOC.            : LOCATION
SRVC.           : SERVICE COMPANY
DATE.  2018-09-11 21:49:23   : Log Export Date {yyyy-MM-dd HH:mm:ss}
PROV.           : PROVINCE
UWI.   7/8-1   : UNIQUE WELL ID
API.            : API NUMBER
#==================================================================
~Curve
DEPT .m                   : DEPTH
CALI .in                  : CALI
DRHO .g/cm3               : DRHO
NPHI .m3/m3               : NPHI
RHOB .g/cm3               : RHOB
GR .gAPI                  : GR
DTC .us/ft                : DTC
RDEP .ohm.m               : RDEP
SP .mV                    : SP
RSHA .ohm.m               : RSHA
RMIC .ohm.m               : RMIC
RMED .ohm.m               : RMED
~Parameter
#==================================================================
~Ascii
# ...
 3230.4230957  -999.250000  -999.250000  -999.250000  -999.250000 200.72999573 192.48431396  -999.250000 65.118400574 1.8992468119  -999.250000  -999.250000
 3230.5754395  -999.250000  -999.250000  -999.250000  -999.250000 191.33900452 192.48300171 0.9506000280 64.769302368 2.0417726040  -999.250000  -999.250000
 3230.7277832  -999.250000  -999.250000  -999.250000  -999.250000 183.71600342 193.07803345 1.8006000519 64.966598511 2.1857693195  -999.250000 1.3191000223
 3230.8801270  -999.250000  -999.250000  -999.250000  -999.250000 188.84800720 194.26420593 2.8229999542 64.675796509 2.3135902882  -999.250000 1.4803999662
 3231.0327148  -999.250000  -999.250000  -999.250000  -999.250000 191.19500732 194.55554199 3.1194999218 64.499801636 2.4098463058  -999.250000 1.5884000063
 3231.1850586  -999.250000  -999.250000  -999.250000  -999.250000 192.89700317 194.86351013 2.0230000019 64.120300293 2.4928669930  -999.250000 1.6680999994
 3231.3374023  -999.250000  -999.250000  -999.250000  -999.250000 199.11000061 194.01037598 1.1822999716 63.981101990 2.5309391022  -999.250000 1.7676000595
 3231.4897461  -999.250000  -999.250000  -999.250000  -999.250000 195.92999268 191.99822998 1.1735999584 63.680500031 2.5669422150  -999.250000 1.8217999935
 3231.6423340  -999.250000  -999.250000  -999.250000  -999.250000 190.33700562 188.53454590 1.1960999966 63.644199371 2.5939569473  -999.250000 1.8753999472
 3231.7946777 16.350999832  -999.250000  -999.250000  -999.250000 186.88699341 184.80097961 1.2080999613 63.529094696 2.6259486675  -999.250000 1.9759999514
 3231.9470215 16.311000824  -999.250000  -999.250000  -999.250000 180.50399780 184.96472168 1.1986999512 63.543498993 2.6809117794  -999.250000 2.0718998909
 3232.0993652 16.313999176  -999.250000  -999.250000  -999.250000 178.70599365 186.12713623 1.2000000477 63.204303741 2.7329165936  -999.250000 2.0926001072
 3232.2517090 16.350000381  -999.250000  -999.250000  -999.250000 186.47099304 188.22627258 1.2267999649 63.350902557 2.7788529396  -999.250000 2.1063001156
 3232.4042969 16.350000381  -999.250000  -999.250000  -999.250000 192.06300354 190.43446350 1.3417999744 63.817798615 2.7839918137  -999.250000 2.1199998856
 3232.5566406 16.318000793  -999.250000  -999.250000  -999.250000 193.00100708 193.67979431 1.2743999958 63.781299591 2.7700223923  -999.250000 2.0810000896
 3232.7089844 16.350000381  -999.250000  -999.250000  -999.250000 196.16400146 194.27905273 1.1998000145 63.983798981 2.7210783958  -999.250000 2.0420000553
 3232.8613281 16.350000381  -999.250000  -999.250000  -999.250000 195.99000549 196.15000916 1.1238000393 64.090599060 2.6811280251  -999.250000 2.0030000210
 3233.0139160 16.389999390  -999.250000  -999.250000  -999.250000 192.03199768 197.44992065 1.0499999523 64.251998901 2.6260881424  -999.250000 1.9641000032
 3233.1662598 16.468999863  -999.250000  -999.250000  -999.250000 186.32000732 196.96977234 1.0049999952 64.254997253 2.5471265316  -999.250000 1.9249999523
 3233.3186035 16.509000778  -999.250000  -999.250000  -999.250000 181.03900146 195.55825806 0.9599000216 64.178802490 2.4681265354  -999.250000 1.8860000372
 3233.4709473 16.548999786  -999.250000  -999.250000  -999.250000 175.98199463 193.44776917 0.9423000216 64.127601624 2.4091887474  -999.250000 1.8427000046
 3233.6235352 16.509000778  -999.250000  -999.250000  -999.250000 178.44799805 192.21296692 0.9409000278 63.644996643 2.4010128975  -999.250000 1.8034000397
 3233.7758789 16.509000778  -999.250000  -999.250000  -999.250000 187.45500183 192.30584717 0.9498000145 63.633701324 2.4299535751  -999.250000 1.7660000324
 3233.9282227 16.309999466  -999.250000  -999.250000  -999.250000 191.69299316 192.90103149 0.9582999945 63.741401672 2.4629471302  -999.250000 1.7565000057
 3234.0805664 16.309000015  -999.250000  -999.250000  -999.250000 193.09399414 192.90299988 0.9656999707 63.798099518 2.4769775867  -999.250000 1.7773000002
 3234.2329102 16.309000015  -999.250000  -999.250000  -999.250000 197.04200745 192.52818298 0.9729999900 64.038597107 2.4500863552  -999.250000 1.8042999506
 3234.3854980 16.349000931  -999.250000  -999.250000  -999.250000 197.65800476 190.23667908 0.9815999866 63.911201477 2.4410142899  -999.250000 1.8108999729
 3234.5378418 16.349000931  -999.250000  -999.250000  -999.250000 194.48899841 187.05111694 0.9919000268 63.937797546 2.4360082150  -999.250000 1.7935999632
 3234.6901855 16.349000931  -999.250000  -999.250000  -999.250000 187.20799255 184.33534241 1.0336999893 63.942501068 2.4729406834  -999.250000 1.7726999521
 3234.8425293 16.349000931  -999.250000  -999.250000  -999.250000 181.40699768 180.19129944 1.1224999428 63.773700714 2.5397856236  -999.250000 1.7802000046
 3234.9951172 16.388000488  -999.250000  -999.250000  -999.250000 172.43600464 178.76127625 1.1978000402 63.946395874 2.6208703518  -999.250000 1.8155000210
 3235.1474609 16.349000931  -999.250000  -999.250000  -999.250000 160.87800598 179.33007813 1.2732000351 64.360900879 2.6958799362  -999.250000 1.8939000368
 3235.2998047 16.349000931  -999.250000  -999.250000  -999.250000 160.96299744 182.86631775 1.3485000134 64.670303345 2.7688829899  -999.250000 1.9440000057
 3235.4521484 16.347999573  -999.250000  -999.250000  -999.250000 171.99000549 188.33644104 1.4240000248 64.913398743 2.8268144131  -999.250000 1.9800000191
 3235.6047363 16.347999573  -999.250000  -999.250000  -999.250000 187.16400146 188.36996460 1.4831999540 65.094902039 2.8389806747  -999.250000 2.0158998966
 3235.7570801 16.347999573  -999.250000  -999.250000  -999.250000 180.04100037 189.43128967 1.5312000513 65.360496521 2.8200304508  -999.250000 2.0325000286
 3235.9094238 16.388000488  -999.250000  -999.250000  -999.250000 171.38000488 188.59733582 1.5167000294 65.813301086 2.7840576172  -999.250000 2.0100998878
 3236.0617676 16.388000488  -999.250000  -999.250000  -999.250000 167.94700623 188.15969849 1.4922000170 65.769096375 2.7211008072  -999.250000 1.9876999855
 3236.2141113 16.388000488  -999.250000  -999.250000  -999.250000 165.35899353 188.16000366 1.4463000298 65.883903503 2.6243104935  -999.250000 1.9653999805
 3236.3666992 16.427000046  -999.250000  -999.250000  -999.250000 152.70500183 187.59689331 1.3289999962 66.138900757 2.5231618881  -999.250000 1.9429999590
 3236.5190430 16.427000046  -999.250000  -999.250000  -999.250000 143.03399658 186.06245422 1.2116999626 66.214500427 2.4331443310  -999.250000 1.9206000566
 3236.6713867 16.386999130  -999.250000  -999.250000  -999.250000 140.22700500 182.02546692 1.1891000271 66.303199768 2.3421459198  -999.250000 1.8453999758
 3236.8237305 16.386999130  -999.250000  -999.250000  -999.250000 133.42700195 182.02000427 1.1815999746 66.385299683 2.2612590790  -999.250000 1.7752000093
 3236.9763184 16.386999130  -999.250000  -999.250000  -999.250000 136.78799438 182.02099609 1.1820000410 66.535202026 2.1931090355  -999.250000 1.7216000557
 3237.1286621 16.386999130  -999.250000  -999.250000  -999.250000 158.02200317 184.99023438 1.1424000263 67.175796509 2.1470737457  -999.250000 1.6750999689
 3237.2810059 16.347000122  -999.250000  -999.250000  -999.250000 185.77999878 186.18309021 1.0631999969 67.539100647 2.0591411591  -999.250000 1.6347999573
 3237.4333496 16.306999207  -999.250000  -999.250000  -999.250000 199.24800110 185.39555359 0.9567999840 67.938903809 1.9144639969  -999.250000 1.5954999924
 3237.5859375 16.306999207  -999.250000  -999.250000  -999.250000 200.46299744 186.42234802 0.8506000042 68.220397949 1.7852066755  -999.250000 1.5439000130
 3237.7382813 16.334999084  -999.250000  -999.250000  -999.250000 172.35600281 186.97911072 0.7463999987 68.539901733 1.6542099714  -999.250000 1.4329999685
 3237.8906250 16.347000122  -999.250000  -999.250000  -999.250000 144.68299866 187.95344543 0.6843000054 68.621902466 1.5531618595  -999.250000 1.3725999594
 3238.0429688 16.347000122  -999.250000  -999.250000  -999.250000 145.67700195 189.86393738 0.6219999790 68.944099426 1.4811153412  -999.250000 1.3049999475
