# LAS format log file from PETREL
# Project units are specified as depth units
#==================================================================
~Version information
VERS.   2.0:
WRAP.   NO:
#==================================================================
~Well
STRT .m      2674.6198730 :
STOP .m      4399.4833984 :
STEP .m     0.00000000 :
NULL .        -999.250000 :
COMP.           : COMPANY
WELL.  7/8-4 T2   : WELL
FLD.            : FIELD
LOC.            : LOCATION
SRVC.           : SERVICE COMPANY
DATE.  2018-09-11 21:49:25   : Log Export Date {yyyy-MM-dd HH:mm:ss}
PROV.           : PROVINCE
UWI.   7/8-4 T2   : UNIQUE WELL ID
API.            : API NUMBER
#==================================================================
~Curve
DEPT .m                   : DEPTH
DCAL .in                  : DCAL
CALI .in                  : CALI
BS .in                    : BS
ROP .m/h                  : ROP
DRHO .g/cm3               : DRHO
NPHI .m3/m3               : NPHI
RHOB .g/cm3               : RHOB
PEF .b/e                  : PEF
GR .gAPI                  : GR
DTC .us/ft                : DTC
RDEP .ohm.m               : RDEP
SP .mV                    : SP
RSHA .ohm.m               : RSHA
RMED .ohm.m               : RMED
~Parameter
#==================================================================
~Ascii
# ...
 3474.4152832 -0.148399994 12.101600647 12.250000954 29.051179886 -0.024913354 -0.000661000 2.6968998909 5.5244545937 45.487316132 53.345001221 13.263915062 58.555801392 84.561698914 1448.2556152
 3474.5676270 -0.148399994 12.101600647 12.250000954 29.140748978 -0.024511509 -0.001274000 2.6972000599 5.6205439568 45.434623718 53.155799866 13.709989548 57.928501129 87.962799072 1746.5273438
 3474.7202148 -0.148399994 12.101600647 12.250000954 29.213909149 -0.024829011 -0.001169000 2.6942999363 5.5853872299 44.513053894 53.054698944 14.078175545 57.217700958 73.741699219 1831.3551025
 3474.8725586 -0.148399994 12.101600647 12.250000954 29.286748886 -0.025143947 -0.001065000 2.6912999153 5.5503234863 43.594936371 52.953498840 14.445089340 56.506900787 59.520500183 1916.1828613
 3475.0249023 -0.148399994 12.101600647 12.250000954 29.340879440 -0.025108060 -0.000900000 2.6889998913 5.5025191307 42.995758057 52.930301666 14.749977112 55.994201660 47.080398560 1981.0531006
 3475.1772461 -0.148399994 12.101600647 12.250000954 29.298557281 -0.023273058 -0.000424000 2.6895000935 5.3897194862 44.031658173 53.308300018 14.735877037 56.500801086 43.803699493 1943.2387695
 3475.3295898 -0.148399994 12.101600647 12.250000954 29.256235123 -0.021438058 0.0000520000 2.6900000572 5.2769193649 45.067459106 53.686298370 14.721776962 57.007301331 40.527099609 1905.4245605
 3475.4821777 -0.148399994 12.101600647 12.250000954 29.213909149 -0.019607911 0.0005270000 2.6905000210 5.1649560928 46.101570129 54.064201355 14.707736969 57.513801575 37.250499725 1867.6103516
 3475.6345215 -0.148399994 12.101600647 12.250000954 27.933071136 -0.020204477 0.0008200000 2.6895999908 5.3696966171 46.060401917 54.131603241 14.719223976 57.524799347 37.709201813 1834.5158691
 3475.7868652 -0.148399994 12.101600647 12.250000954 26.486877441 -0.021126479 0.0010890000 2.6886000633 5.6171965599 45.875102997 54.157398224 14.734223366 57.469299316 38.668201447 1802.0537109
 3475.9392090 -0.148399994 12.101600647 12.250000954 25.040353775 -0.022050703 0.0013580000 2.6875998974 5.8644227982 45.689434052 54.183197021 14.749230385 57.413898468 39.627201080 1769.5914307
 3476.0917969 -0.148399994 12.101600647 12.250000954 24.417978287 -0.023742024 0.0015850000 2.6863999367 5.9409828186 45.209747314 54.257301331 14.768067360 57.061698914 39.428001404 1787.8110352
 3476.2441406 -0.148399994 12.101600647 12.250000954 24.342847824 -0.025933519 0.0017860000 2.6851999760 5.9044413567 44.538120270 54.363399506 14.789334297 56.512599945 38.460098267 1839.6711426
 3476.3964844 -0.148399994 12.101600647 12.250000954 24.267717361 -0.028126730 0.0019860000 2.6840000153 5.8679718971 43.865913391 54.469501495 14.810606003 55.963401794 37.492198944 1891.5311279
 3476.5488281 -0.148399994 12.101600647 12.250000954 24.636812210 -0.029202942 0.0021370000 2.6828000546 5.8504357338 43.561759949 54.561599731 14.813844681 55.632801056 36.678001404 1853.0834961
 3476.7014160 -0.148399994 12.101600647 12.250000954 25.949804306 -0.027916890 0.0021830001 2.6816999912 5.8728713989 44.037117004 54.624000549 14.779189110 55.765899658 36.189998627 1622.9173584
 3476.8537598 -0.148399994 12.101600647 12.250000954 27.262796402 -0.026633944 0.0022290000 2.6805999279 5.8952112198 44.510925293 54.686500549 14.744643211 55.899101257 35.701999664 1392.7510986
 3477.0061035 -0.148399994 12.101600647 12.250000954 28.534448624 -0.025350997 0.0022760001 2.6795001030 5.9016103745 44.962875366 54.749099731 14.708693504 55.998001099 35.202999115 1163.9028320
 3477.1584473 -0.148399994 12.101600647 12.250000954 28.805120468 -0.024101999 0.0023650001 2.6791000366 5.5335102081 44.884273529 54.818000793 14.641993523 55.262001038 34.436199188 967.21112061
 3477.3107910 -0.148399994 12.101600647 12.250000954 29.075456619 -0.022851998 0.0024550001 2.6788001060 5.1654100418 44.805774689 54.886699677 14.575193405 54.525901794 33.669399261 770.51940918
 3477.4633789 -0.148399994 12.101600647 12.250000954 29.346128464 -0.021604789 0.0025440000 2.6784000397 4.7979784012 44.725128174 54.955600739 14.508336067 53.789901733 32.902599335 573.82769775
 3477.6157227 -0.148399994 12.101600647 12.250000954 29.488189697 -0.021852156 0.0026499999 2.6795001030 4.8225393295 44.048007965 54.977298737 14.457125664 53.457500458 32.517799377 475.67379761
 3477.7680664 -0.148399994 12.101600647 12.250000954 29.589567184 -0.022574158 0.0027610001 2.6809999943 4.9718394279 43.179206848 54.984001160 14.410825729 53.253601074 32.254699707 408.88830566
 3477.9204102 -0.148399994 12.101600647 12.250000954 29.690614700 -0.023295747 0.0028720000 2.6824998856 5.1210260391 42.312252045 54.990699768 14.364422798 53.049701691 31.991500854 342.10281372
 3478.0729980 -0.148399994 12.101600647 12.250000954 30.076444626 -0.023134409 0.0030769999 2.6835999489 5.1994042397 42.536113739 55.052299500 14.316039085 52.653900146 31.497699738 286.47421265
 3478.2253418 -0.148399994 12.101600647 12.250000954 30.773292542 -0.022014203 0.0033849999 2.6842000484 5.2007017136 43.943859100 55.173900604 14.265719414 52.048198700 30.751600266 243.04440308
 3478.3776855 -0.148399994 12.101600647 12.250000954 31.470144272 -0.020893335 0.0036940000 2.6847999096 5.2019596100 45.353157043 55.295604706 14.215252876 51.442501068 30.005500793 199.61470032
 3478.5300293 -0.148399994 12.101600647 12.250000954 31.163385391 -0.020482954 0.0038980001 2.6842999458 5.2394957542 46.382583618 55.356998444 14.185990334 50.948699951 29.825500488 168.15800476
 3478.6826172 -0.148399994 12.101600647 12.250000954 26.762466431 -0.022953892 0.0036810001 2.6789000034 5.4243903160 45.871566772 55.172401428 14.242480278 50.911598206 31.954799652 185.55090332
 3478.8349609 -0.148399994 12.101600647 12.250000954 22.361549377 -0.025416953 0.0034630001 2.6735000610 5.6085958481 45.362182617 54.987800598 14.298790932 50.874401093 34.084201813 202.94380188
 3478.9873047 -0.148399994 12.101600647 12.250000954 17.960630417 -0.027879592 0.0032460000 2.6682000160 5.7927808762 44.850612640 54.803199768 14.354765892 50.837299347 36.213500977 220.33670044
 3479.1396484 -0.148399994 12.101600647 12.250000954 17.468503952 -0.027625192 0.0034590000 2.6705999374 5.7183427811 43.421474457 54.802200317 14.084118843 51.982700348 36.636699677 259.67520142
 3479.2919922 -0.148399994 12.101600647 12.250000954 17.334974289 -0.027120193 0.0037110001 2.6737000942 5.6201429367 41.908176422 54.818000793 13.783618927 53.236598969 36.903400421 301.02590942
 3479.4445801 -0.148399994 12.101600647 12.250000954 17.201444626 -0.026615236 0.0039639999 2.6768000126 5.5221333504 40.398094177 54.833801270 13.483097076 54.490398407 37.170200348 342.37658691
 3479.5969238 -0.148399994 12.101600647 12.250000954 17.234909058 -0.025513686 0.0042920001 2.6777000427 5.4805850983 40.833786011 54.868301392 13.169284821 55.156501770 34.847301483 304.03338623
 3479.7492676 -0.148399994 12.101600647 12.250000954 17.364500046 -0.024069685 0.0046640001 2.6774001122 5.4714856148 42.386188507 54.913700104 12.847985268 55.485099792 31.036899567 219.91580200
 3479.9016113 -0.148399994 12.101600647 12.250000954 17.494094849 -0.022623656 0.0050360002 2.6770000458 5.4625110626 43.936759949 54.959102631 12.526646614 55.813701630 27.226400375 135.79809570
 3480.0541992 -0.148399994 12.101600647 12.250000954 17.634185791 -0.020530578 0.0052330000 2.6786000729 5.4695162773 44.405731201 55.002498627 12.243619919 55.848701477 24.700300217 79.338401794
 3480.2065430 -0.148399994 12.101600647 12.250000954 17.794290543 -0.017278781 0.0051090000 2.6835000515 5.5057582855 42.918510437 55.042404175 12.031459808 55.348499298 24.514200211 73.277496338
 3480.3588867 -0.148399994 12.101600647 12.250000954 17.954395294 -0.014022418 0.0049859998 2.6884999275 5.5419502258 41.429145813 55.082298279 11.818880081 54.848400116 24.328100204 67.216697693
 3480.5112305 -0.148399994 12.101600647 12.250000954 18.371719360 -0.011171473 0.0048659998 2.6928000450 5.5730495453 40.024021149 55.125598907 11.619743347 54.417800903 24.113599777 61.706699371
