# LAS format log file from PETREL
# Project units are specified as depth units
#==================================================================
~Version information
VERS.   2.0:
WRAP.   NO:
#==================================================================
~Well
STRT .m      2126.7421875 :
STOP .m      3314.5480957 :
STEP .m     0.00000000 :
NULL .        -999.250000 :
COMP.           : COMPANY
WELL.  7/8-1   : WELL
FLD.            : FIELD
LOC.            : LOCATION
SRVC.           : SERVICE COMPANY
DATE.  2018-09-11 21:49:23   : Log Export Date {yyyy-MM-dd HH:mm:ss}
PROV.           : PROVINCE
UWI.   7/8-1   : UNIQUE WELL ID
API.            : API NUMBER
#==================================================================
~Curve
DEPT .m                   : DEPTH
CALI .in                  : CALI
DRHO .g/cm3               : DRHO
NPHI .m3/m3               : NPHI
RHOB .g/cm3               : RHOB
GR .gAPI                  : GR
DTC .us/ft                : DTC
RDEP .ohm.m               : RDEP
SP .mV                    : SP
RSHA .ohm.m               : RSHA
RMIC .ohm.m               : RMIC
RMED .ohm.m               : RMED
~Parameter
#==================================================================
~Ascii
# ...
 2204.4663086 9.3529996872 0.0010000000 0.4144000113 2.1919999123 73.505996704 140.43299866 0.4005999863 46.354598999 0.6320000291 0.3434000015 0.7123000026
 2204.6186523 9.3439998627 -0.005988800 0.4111052752 2.1919999123 75.067001343 140.35612488 0.3923999965 47.628700256 0.6160255671 0.3419024050 0.7099000216
 2204.7709961 9.2740001678 -0.010991987 0.4141950309 2.1900031567 76.512001038 140.44386292 0.3876999915 47.570800781 0.6070144176 0.3882256448 0.7124000192
 2204.9233398 9.3649997711 -0.005009615 0.4033174515 2.1989855766 77.458000183 140.53086853 0.3908999860 46.001701355 0.5880304575 0.3412754834 0.7152000070
 2205.0759277 9.3489999771 -0.010000000 0.3894999921 2.1870000362 76.918998718 141.55799866 0.3982999921 45.487998962 0.5830000043 0.3702999949 0.7182000279
 2205.2282715 9.3090000153 -0.017000001 0.3871999979 2.1819999218 75.016998291 141.57499695 0.4058000147 47.231498718 0.5809999704 0.3797000051 0.7239999771
 2205.3806152 9.2720003128 -0.009012800 0.4030745625 2.1790046692 72.843002319 141.44522095 0.4133000076 47.623798370 0.5959759951 0.2879470587 0.7290999889
 2205.5329590 9.2779998779 -0.004008013 0.4079921544 2.1829936504 73.718002319 141.49592590 0.4210999906 45.389801025 0.6219583154 0.2875004709 0.7301999927
 2205.6855469 9.3699998856 0.0040000002 0.3980999887 2.1979999542 78.123001099 141.15400696 0.4330999851 45.182598114 0.6349999905 0.3073000014 0.7318000197
 2205.8378906 9.2950000763 0.0040000002 0.3984999955 2.2039999962 77.629997253 140.81300354 0.4469999969 45.738601685 0.6510000229 0.3028999865 0.7350000143
 2205.9902344 9.2840003967 -0.004985600 0.3967028856 2.2010047436 75.418998718 140.78105164 0.4485000074 47.275798798 0.6619824171 0.3235668838 0.7369999886
 2206.1425781 9.2040004730 -0.006996795 0.4011927843 2.2039952278 73.540000916 140.71710205 0.4521000087 45.981998444 0.6749791503 0.3387756646 0.7384999990
 2206.2951660 9.1780004501 -0.009000000 0.3941000104 2.2109999657 73.582000732 140.89399719 0.4688999951 43.966598511 0.7030000091 0.3093999922 0.7390000224
 2206.4475098 9.3170003891 -0.009000000 0.4040000141 2.2109999657 73.838996887 141.07000732 0.4984000027 44.020198822 0.7239999771 0.3174000084 0.7404000163
 2206.5998535 9.4309997559 -0.002011200 0.3880256116 2.2199857235 70.592002869 141.27368164 0.5030999780 44.771900177 0.7210048437 0.3449558318 0.7429999709
 2206.7521973 9.2989997864 0.0029919872 0.3762189150 2.2249917984 69.072998047 141.47866821 0.5281000137 45.947101593 0.7289871573 0.3373123407 0.7590000033
 2206.9045410 9.2849998474 0.0049967947 0.3627216220 2.2349839211 66.708999634 140.28092957 0.4950999916 47.159000397 0.7399823666 0.3326075375 0.7750999928
 2207.0571289 9.2819995880 0.0020000001 0.3454999924 2.2369999886 63.345001221 129.25000000 0.4787999988 47.811298370 0.7559999824 0.3946999907 0.7930999994
 2207.2094727 9.3190002441 -0.005987200 0.3413067162 2.2399952412 61.284999847 125.34025574 0.4697000086 47.882900238 0.7919424176 0.5065208077 0.8166999817
 2207.3618164 9.3249998093 -0.009993589 0.3451937437 2.2459905148 59.257999420 124.09898376 0.4695000052 47.790798187 0.8379262686 0.5991516113 0.8313000202
 2207.5141602 9.3000001907 -0.001014423 0.3518892825 2.2629728317 58.518001556 124.21681213 0.4699000120 47.413600922 0.8549727798 0.8094626665 0.8341000080
 2207.6667480 9.2530002594 0.0089999996 0.3641000092 2.2829999924 60.208000183 132.84399414 0.4844000041 46.168098450 0.8600000143 0.5476999879 0.8288999796
 2207.8190918 9.2829999924 0.0179999992 0.3873000145 2.2820000648 64.481002808 139.30099487 0.5037999749 45.346500397 0.8059999943 0.4194000065 0.8195000291
 2207.9714355 9.3339996338 0.0259872004 0.3723239899 2.2730143070 72.055000305 140.79260254 0.5231000185 46.062500000 0.7620704174 0.3641884923 0.7892000079
 2208.1237793 9.0930004120 0.0130208340 0.3809860647 2.2490384579 79.176002502 140.62127686 0.5087000132 47.065498352 0.7320480943 0.3349467814 0.7685999870
 2208.2763672 8.9969997406 -0.005000000 0.3662000000 2.2219998837 83.136001587 140.44700623 0.4842999876 46.863098145 0.6959999800 0.3280999959 0.7609999776
 2208.4287109 9.1219997406 -0.017000001 0.3675999939 2.2109999657 84.643997192 140.72000122 0.4654999971 46.161800385 0.6819999814 0.3648999929 0.7597000003
 2208.5810547 9.1949996948 -0.014004800 0.3815775812 2.2189872265 84.280998230 141.00854492 0.4577000141 45.818000793 0.6780063510 0.3537179232 0.7559000254
 2208.7333984 9.1840000153 -0.006012821 0.3865919709 2.2219951153 82.227996826 142.03634644 0.4580000043 46.709098816 0.6779999733 0.3561960161 0.7488999963
 2208.8857422 9.2080001831 0.0009887822 0.3871990442 2.2210016251 80.623001099 142.32554626 0.4614000022 46.013099670 0.6789984107 0.4281844497 0.7447999716
 2209.0383301 9.2539997101 0.0049999999 0.4040000141 2.2149999142 81.536003113 142.05400085 0.4638999999 46.536499023 0.6819999814 0.3898000121 0.7441999912
 2209.1906738 9.3190002441 0.0099919997 0.3995072246 2.2219886780 82.138000488 141.78343201 0.4602999985 47.468700409 0.6810016036 0.3775196671 0.7451999784
 2209.3430176 9.3350000381 0.0149919866 0.4025950134 2.2329823971 79.050003052 139.72830200 0.4501000047 46.524200439 0.6680208445 0.3497445583 0.7472000122
 2209.4953613 9.2510004044 0.0259823725 0.3911184072 2.2539663315 76.692001343 139.57624817 0.4379000068 44.602798462 0.6679999828 0.3644762635 0.7452999949
 2209.6479492 9.3090000153 0.0040000002 0.3670000136 2.2539999485 77.160003662 138.67399597 0.4253999889 43.747600555 0.6719999909 0.5295000076 0.7369999886
 2209.8002930 9.3830003738 0.0020000001 0.3774999976 2.2530000210 77.910003662 138.53300476 0.4156000018 42.729400635 0.6690000296 0.5375999808 0.7275999784
 2209.9526367 9.3859996796 0.0169760007 0.3859864175 2.2520017624 77.301002502 138.84750366 0.4095999897 43.205799103 0.6610128284 0.4893772900 0.7182000279
 2210.1049805 9.3839998245 0.0209935904 0.3870982528 2.2430143356 76.460998535 139.16149902 0.4056000113 43.741798401 0.6530128121 0.4800148904 0.7081000209
 2210.2575684 9.3870000839 0.0130000003 0.3905999959 2.2309999466 75.640998840 138.42900085 0.4000999928 43.622001648 0.6420000196 0.4844999909 0.6981999874
 2210.4099121 9.3970003128 0.0080000004 0.3840999901 2.2269999981 75.526000977 138.58099365 0.3948999941 42.060501099 0.6290000081 0.4672999978 0.6933000088
 2210.5622559 9.3920001984 0.0189823993 0.3896910250 2.2399792671 77.773002625 138.73275757 0.3923000097 40.943599701 0.6260048151 0.4588135779 0.6927999854
 2210.7145996 9.4309997559 0.0070192311 0.3858062625 2.2250239849 77.896003723 139.35200500 0.3905000091 40.580001831 0.6180127859 0.4916472733 0.6937000155
 2210.8669434 9.3909997940 -0.002983974 0.3717225790 2.2180111408 77.653999329 139.37097168 0.3899999857 40.458499908 0.6090144515 0.4818158448 0.6956999898
 2211.0195313 9.3310003281 -0.007000000 0.3675999939 2.2090001106 76.263000488 139.33700562 0.3925000131 42.690498352 0.6029999852 0.4632999897 0.6977000237
 2211.1718750 9.3120002747 -0.005003200 0.3676998615 2.2139918804 75.361999512 139.19422913 0.3912000060 42.304798126 0.6010032296 0.4584078491 0.6977999806
 2211.3242188 9.3400001526 -0.003003205 0.3708948791 2.2130017281 76.004997253 138.63389587 0.3885000050 42.085201263 0.6059920192 0.4426253438 0.6978999972
 2211.4765625 9.3789997101 0.0009935898 0.3710996807 2.2239823341 77.635002136 138.59806824 0.3856000006 41.529499054 0.6099935770 0.4619689286 0.7013999820
 2211.6291504 9.3889999390 0.0089999996 0.3578999937 2.2300000191 78.077003479 138.56300354 0.3864000142 40.833599091 0.6200000048 0.4808999896 0.7050999999
 2211.7814941 9.3839998245 0.0070000002 0.3542000055 2.2330000401 76.752998352 139.08799744 0.4043999910 40.631999969 0.6330000162 0.4781000018 0.7089999914
 2211.9338379 9.3909997940 -0.002984000 0.3722000122 2.2270095348 78.410003662 139.89469910 0.4043000042 40.236099243 0.6469776034 0.4811950624 0.7114999890
 2212.0861816 9.4110002518 0.0019919872 0.3865999877 2.2279982567 76.612998962 139.95989990 0.4054000080 40.353199005 0.6599791646 0.4723142684 0.7179999948
