# LAS format log file from PETREL
# Project units are specified as depth units
#==================================================================
~Version information
VERS.   2.0:
WRAP.   NO:
#==================================================================
~Well
STRT .m      2127.0468750 :
STOP .m      3314.3952637 :
STEP .m     0.00000000 :
NULL .        -999.250000 :
COMP.           : COMPANY
WELL.  7/8-1 T2   : WELL
FLD.            : FIELD
LOC.            : LOCATION
SRVC.           : SERVICE COMPANY
DATE.  2018-09-11 21:49:23   : Log Export Date {yyyy-MM-dd HH:mm:ss}
PROV.           : PROVINCE
UWI.   7/8-1 T2   : UNIQUE WELL ID
API.            : API NUMBER
#==================================================================
~Curve
DEPT .m                   : DEPTH
CALI .in                  : CALI
BS .in                    : BS
DRHO .g/cm3               : DRHO
NPHI .m3/m3               : NPHI
RHOB .g/cm3               : RHOB
GR .gAPI                  : GR
DTC .us/ft                : DTC
RDEP .ohm.m               : RDEP
SP .mV                    : SP
RSHA .ohm.m               : RSHA
RMIC .ohm.m               : RMIC
RMED .ohm.m               : RMED
~Parameter
#==================================================================
~Ascii
# ...
 2595.2197266 8.9946002960 8.5000000000 -0.004798077 0.2536187470 2.3417942524 94.199623108 115.25069427 0.5934019089 50.705585480 1.3133990765 0.8914999962 1.1095980406
 2595.3720703 9.0274000168 8.5000000000 -0.006932693 0.2547088861 2.3382983208 95.955627441 115.89192963 0.5946030617 50.572357178 1.3128024340 0.8988999724 1.1083991528
 2595.5244141 9.0559997559 8.5000000000 -0.005067308 0.2558845878 2.3372175694 94.863975525 115.91419983 0.5965081453 50.356567383 1.3143191338 0.9060999751 1.1079056263
 2595.6770020 9.0622997284 8.5000000000 0.0046794871 0.2575021982 2.3482356071 92.398323059 115.91419983 0.6016163230 49.710834503 1.3263384104 0.9120000005 1.1114115715
 2595.8293457 9.0684995651 8.5000000000 0.0136976000 0.2591156065 2.3593175411 88.377983093 115.27473450 0.6067079902 49.067165375 1.3383190632 0.9179000258 1.1150056124
 2595.9816895 9.0747995377 8.5000000000 0.0178653840 0.2607296407 2.3703076839 84.285751343 114.50908661 0.6117039919 48.423198700 1.3502334356 0.9237999916 1.1185066700
 2596.1340332 9.0712003708 8.5000000000 0.0083365384 0.2617515326 2.3751060963 81.613273621 113.56121063 0.6142035127 48.234996796 1.3710353374 0.9398999810 1.1227068901
 2596.2866211 9.0663995743 8.5000000000 0.0031602564 0.2626940012 2.3790123463 80.632545471 113.52909851 0.6164067388 48.109199524 1.3930704594 0.9573000073 1.1270140409
 2596.4389648 9.0614995956 8.5000000000 0.0116975997 0.2636262178 2.3828983307 83.035430908 113.75959015 0.6185058951 47.983917236 1.4150367975 0.9747999907 1.1314113140
 2596.5913086 9.0511999130 8.5000000000 0.0197307691 0.2600173354 2.3818929195 83.653419495 114.05199432 0.6222075224 47.996665955 1.4380377531 0.9757999778 1.1385143995
 2596.7436523 9.0373001099 8.5000000000 0.0122692306 0.2533633411 2.3774929047 82.097824097 114.23854828 0.6269075274 48.102066040 1.4616377354 0.9656000137 1.1475144625
 2596.8962402 9.0233001709 8.5000000000 0.0081282053 0.2467050403 2.3730895519 81.933624268 114.47555542 0.6316233873 48.207969666 1.4852697849 0.9555000067 1.1565237045
 2597.0485840 9.0128002167 8.5000000000 0.0186304003 0.2420463264 2.3697986603 82.725349426 114.02213287 0.6389209628 48.417293549 1.5070283413 0.9502000213 1.1639059782
 2597.2009277 9.0094995499 8.5000000000 0.0209326912 0.2416273355 2.3688986301 83.336677551 113.59975433 0.6520209908 48.849693298 1.5247285366 0.9552000165 1.1676061153
 2597.3532715 9.0061998367 8.5000000000 0.0171346162 0.2412096709 2.3679988384 85.885925293 113.07005310 0.6651200056 49.282188416 1.5425279140 0.9600999951 1.1714055538
 2597.5056152 9.0029001236 8.5000000000 0.0131346155 0.2410188615 2.3672034740 90.539985657 113.28257751 0.6775932908 49.710102081 1.5599118471 0.9643999934 1.1748930216
 2597.6582031 8.9997997284 8.5000000000 0.0052564102 0.2465618849 2.3694033623 93.574775696 113.52145386 0.6733930707 50.024105072 1.5673120022 0.9505000114 1.1704930067
 2597.8105469 8.9966001511 8.5000000000 -0.007563200 0.2521048784 2.3717036247 94.871238708 114.04399872 0.6690932512 50.338104248 1.5748118162 0.9366999865 1.1660929918
 2597.9628906 8.9934997559 8.5000000000 -0.010899038 0.2576377988 2.3738939762 94.921691895 114.00798035 0.6648795009 50.651599884 1.5821790695 0.9228000045 1.1616942883
 2598.1152344 8.9953002930 8.5000000000 -0.004235577 0.2562511861 2.3701908588 92.158248901 113.77562714 0.6520750523 50.651939392 1.5690683126 0.9201999903 1.1580948830
 2598.2678223 8.9987001419 8.5000000000 0.0018076923 0.2526264191 2.3644816875 87.437133789 113.07503510 0.6364500523 50.550975800 1.5492365360 0.9211999774 1.1548893452
 2598.4201660 9.0022001266 8.5000000000 0.0048992001 0.2490131408 2.3587965965 81.545516968 112.59113312 0.6208899021 50.450271606 1.5294724703 0.9222000241 1.1515991688
 2598.5725098 9.0010995865 8.5000000000 0.0030673076 0.2459811866 2.3567025661 78.004379272 112.40105438 0.6146062613 50.370407104 1.5122772455 0.9235000014 1.1511037350
 2598.7248535 8.9951000214 8.5000000000 0.0010673078 0.2435961813 2.3584027290 75.537849426 112.56904602 0.6185064316 50.313610077 1.4980771542 0.9251999855 1.1534036398
 2598.8774414 8.9891004562 8.5000000000 0.0000320513 0.2412086874 2.3601002693 73.753379822 112.57510376 0.6225153804 50.256420135 1.4837645292 0.9269000292 1.1557050943
 2599.0297852 8.9841003418 8.5000000000 0.0009664000 0.2392405868 2.3601891994 72.928710938 112.57510376 0.6273134947 50.105937958 1.4727027416 0.9298999906 1.1572979689
 2599.1821289 8.9827003479 8.5000000000 0.0029326924 0.2389755845 2.3534893990 72.468116760 112.17097473 0.6357132792 49.568336487 1.4744029045 0.9380000234 1.1559979916
 2599.3344727 8.9813003540 8.5000000000 0.0049326923 0.2387105823 2.3468894958 72.894622803 112.56102753 0.6440134645 49.030738831 1.4762028456 0.9462000132 1.1546980143
 2599.4870605 8.9799003601 8.5000000000 0.0059679486 0.2384500057 2.3403289318 74.214797974 112.80595398 0.6524170041 48.491870880 1.4780253172 0.9544000030 1.1534069777
 2599.6394043 8.9921998978 8.5000000000 0.0089038461 0.2396992296 2.3493168354 74.923950195 112.81359863 0.6577083468 47.827613831 1.4859136343 0.9581999779 1.1556040049
 2599.7917480 9.0057001114 8.5000000000 0.0147984000 0.2410942316 2.3598167896 74.814567566 112.63917542 0.6629081368 47.150112152 1.4944138527 0.9616000056 1.1581040621
 2599.9440918 9.0192003250 8.5000000000 0.0130673079 0.2424856722 2.3702051640 73.281234741 112.80752563 0.6680017710 46.473598480 1.5030120611 0.9649000168 1.1606119871
 2600.0964355 9.0206003189 8.5000000000 0.0101009617 0.2422821820 2.3733983040 73.825202942 112.58312988 0.6690980792 46.347812653 1.5105111599 0.9761999846 1.1681164503
 2600.2490234 9.0149002075 8.5000000000 0.0158076938 0.2411503941 2.3723969460 73.079383850 112.34424591 0.6678965092 46.542121887 1.5175224543 0.9919999838 1.1784332991
 2600.4013672 9.0092000961 8.5000000000 0.0131008001 0.2400266230 2.3714013100 71.977432251 111.87562561 0.6668077111 46.735740662 1.5245189667 1.0078999996 1.1888135672
 2600.5537109 9.0146999359 8.5000000000 0.0130000003 0.2410469502 2.3722064495 73.065795898 112.14689636 0.6716254354 46.948398590 1.5363330841 1.0202000141 1.1973083019
 2600.7060547 9.0408000946 8.5000000000 0.0043028849 0.2460139543 2.3762066364 76.936561584 112.10007477 0.6875256300 47.195697784 1.5570334196 1.0260000229 1.2025083303
 2600.8586426 9.0669002533 8.5000000000 0.0078717954 0.2509875000 2.3803133965 80.137428284 111.86724091 0.7035470009 47.443363190 1.5778636932 1.0318000317 1.2077167034
 2601.0109863 9.0916996002 8.5000000000 0.0070336000 0.2555031180 2.3845100403 83.291862488 111.39862823 0.7181966901 47.712387085 1.5977149010 1.0390000343 1.2129070759
 2601.1633301 9.0991001129 8.5000000000 -0.001697115 0.2543331087 2.3908102512 86.642021179 111.21040344 0.7160967588 48.266189575 1.6070147753 1.0634000301 1.2173070908
 2601.3156738 9.1065998077 8.5000000000 -0.005865385 0.2531621158 2.3972101212 89.399887085 111.14612579 0.7140967846 48.819988251 1.6162148714 1.0878000259 1.2217069864
 2601.4682617 9.1140003204 8.5000000000 -0.002128205 0.2519972920 2.4034943581 88.978019714 111.37495422 0.7120734453 49.373233795 1.6255185604 1.1122000217 1.2260948420
 2601.6206055 9.1103000641 8.5000000000 0.0038076926 0.2530225813 2.4016938210 88.839035034 111.38259888 0.7037841678 49.477676392 1.6313078403 1.0878000259 1.2244949341
 2601.7729492 9.1035995483 8.5000000000 0.0040000002 0.2546325922 2.3977937698 90.532966614 111.67059326 0.6938839555 49.463176727 1.6362078190 1.0503000021 1.2213950157
 2601.9252930 9.0968999863 8.5000000000 0.0040000002 0.2562375069 2.3938982487 90.290496826 112.08404541 0.6838993430 49.448513031 1.6410995722 1.0128999949 1.2182964087
 2602.0776367 9.0881996155 8.5000000000 0.0078653852 0.2553105950 2.3929028511 86.276428223 112.78952026 0.6835137606 49.330551147 1.6407917738 0.9973000288 1.2160975933
 2602.2302246 9.0775003433 8.5000000000 0.0118717952 0.2519412339 2.3947062492 84.364685059 113.04445648 0.6921278238 49.112705231 1.6356836557 1.0025999546 1.2145951986
 2602.3825684 9.0668001175 8.5000000000 0.0110336002 0.2485829294 2.3966012001 83.306747437 113.51306915 0.7008158565 48.895782471 1.6305943727 1.0078999996 1.2130995989
