# LAS format log file from PETREL
# Project units are specified as depth units
#==================================================================
~Version information
VERS.   2.0:
WRAP.   NO:
#==================================================================
~Well
STRT .m      2674.6198730 :
STOP .m      4399.4833984 :
STEP .m     0.00000000 :
NULL .        -999.250000 :
COMP.           : COMPANY
WELL.  7/8-4 T2   : WELL
FLD.            : FIELD
LOC.            : LOCATION
SRVC.           : SERVICE COMPANY
DATE.  2018-09-11 21:49:25   : Log Export Date {yyyy-MM-dd HH:mm:ss}
PROV.           : PROVINCE
UWI.   7/8-4 T2   : UNIQUE WELL ID
API.            : API NUMBER
#==================================================================
~Curve
DEPT .m                   : DEPTH
DCAL .in                  : DCAL
CALI .in                  : CALI
BS .in                    : BS
ROP .m/h                  : ROP
DRHO .g/cm3               : DRHO
NPHI .m3/m3               : NPHI
RHOB .g/cm3               : RHOB
PEF .b/e                  : PEF
GR .gAPI                  : GR
DTC .us/ft                : DTC
RDEP .ohm.m               : RDEP
SP .mV                    : SP
RSHA .ohm.m               : RSHA
RMED .ohm.m               : RMED
~Parameter
#==================================================================
~Ascii
# ...
 3936.7968750 1.2812000513 9.7812004089 8.5000000000 89.496582031 -0.011875886 0.1680053920 2.5983123779 4.3034267426 78.813125610 75.016296387 2.5605881214 65.161399841 4.6286997795 3.3166000843
 3936.9492188 1.2812000513 9.7812004089 8.5000000000 89.205619812 -0.014919235 0.1900570542 2.6061065197 4.1331195831 78.826698303 75.658897400 2.6155247688 66.056198120 4.3587999344 3.0608000755
 3937.1018066 1.2822000980 9.7821998596 8.5000000000 88.128517151 -0.015061830 0.1931868047 2.6101067066 4.0830316544 78.010871887 75.465797424 2.6308858395 65.810798645 4.5647001266 3.0903999805
 3937.2541504 1.2835999727 9.7835998535 8.5000000000 86.664978027 -0.013760910 0.1868878752 2.6122031212 4.0928158760 76.785629272 74.854896545 2.6264927387 64.995201111 5.0086002350 3.2627999783
 3937.4064941 1.2851001024 9.7850999832 8.5000000000 85.198387146 -0.012456456 0.1805848181 2.6141934395 4.1025991440 75.557197571 74.244003296 2.6221158504 64.179702759 5.4524002075 3.4351000786
 3937.5588379 1.2932000160 9.7931995392 8.5000000000 83.289787292 -0.010868731 0.1779822409 2.6100776196 4.0394129753 73.553916931 73.951599121 2.6319518089 63.502201080 5.6111998558 3.5118999481
 3937.7114258 1.3118000031 9.8118000031 8.5000000000 80.676033020 -0.008825473 0.1812594682 2.5960550308 3.8601272106 70.315353394 74.166198730 2.6643037796 63.044601440 5.3161997795 3.4363999367
 3937.8637695 1.3305000067 9.8304996490 8.5000000000 78.070960999 -0.006789292 0.1845219880 2.5819778442 3.6814446449 67.087646484 74.380897522 2.6966502666 62.586894989 5.0211000443 3.3610000610
 3938.0161133 1.3484998941 9.8485002518 8.5000000000 75.680221558 -0.005104063 0.1850966215 2.5681807995 3.5223114491 64.188453674 74.519096375 2.7280356884 62.164798737 4.7607002258 3.3050999641
 3938.1684570 1.3610999584 9.8611001968 8.5000000000 75.129035950 -0.006391062 0.1630196273 2.5560803413 3.5295114517 64.095657349 74.005699158 2.7503359318 62.045200348 4.7950000763 3.4154999256
 3938.3210449 1.3738000393 9.8738002777 8.5000000000 74.576652527 -0.007680118 0.1409073472 2.5438613892 3.5367231369 64.002700806 73.492401123 2.7727718353 61.925701141 4.8294000626 3.5258998871
 3938.4733887 1.3865000010 9.8865003586 8.5000000000 74.017654419 -0.008965941 0.1189094409 2.5318307877 3.5440812111 63.912216187 72.978996277 2.7950415611 61.806098938 4.8636999130 3.6363000870
 3938.6257324 1.3887001276 9.8886995316 8.5000000000 68.041717529 -0.010801128 0.1241847947 2.5510416031 3.6571171284 65.171981812 72.609001160 2.7586214542 62.235900879 5.3715000153 3.6693000793
 3938.7780762 1.3887001276 9.8886995316 8.5000000000 60.910812378 -0.012753128 0.1352857947 2.5769417286 3.7926170826 66.719779968 72.269500732 2.7096216679 62.782897949 5.9802999496 3.6858000755
 3938.9304199 1.3887001276 9.8886995316 8.5000000000 53.782463074 -0.014702304 0.1463905722 2.6029305458 3.9281742573 68.267272949 71.930000305 2.6606338024 63.330001831 6.5890998840 3.7023999691
 3939.0830078 1.3846000433 9.8845996857 8.5000000000 48.033580780 -0.014887872 0.1598824412 2.6219422817 4.0369753838 69.625419617 71.939697266 2.6191878319 63.766399384 6.4267001152 3.5827999115
 3939.2353516 1.3769999743 9.8769998550 8.5000000000 43.463466644 -0.013599932 0.1753097624 2.6351211071 4.1229376793 70.819114685 72.242797852 2.5842440128 64.109901428 5.6160998344 3.3487999439
 3939.3876953 1.3693000078 9.8692998886 8.5000000000 38.886920929 -0.012310492 0.1907549053 2.6483128071 4.2089314461 72.014816284 72.545898438 2.5492379665 64.453498840 4.8055000305 3.1149001122
 3939.5400391 1.3587000370 9.8586997986 8.5000000000 34.656517029 -0.011371069 0.2025334239 2.6563904285 4.2910132408 73.273094177 72.836997986 2.5105211735 64.661201477 4.1669001579 2.9444999695
 3939.6926270 1.3398001194 9.8397998810 8.5000000000 31.388841629 -0.011414138 0.2040548623 2.6503806114 4.3617253304 74.708488464 73.094299316 2.4612429142 64.487396240 4.0118999481 2.9525001049
 3939.8449707 1.3208999634 9.8208999634 8.5000000000 28.131908417 -0.011457069 0.2055714279 2.6443901062 4.4321131706 76.139297485 73.351699829 2.4122211933 64.313697815 3.8568999767 2.9605998993
 3939.9973145 1.3019000292 9.8018999100 8.5000000000 24.874393463 -0.011499160 0.2070965171 2.6382904053 4.5025243759 77.571525574 73.609100342 2.3630862236 64.139900208 3.7019000053 2.9686000347
 3940.1496582 1.3020001650 9.8020000458 8.5000000000 24.495542526 -0.010975144 0.2124106288 2.6323904991 4.4551205635 78.459800720 74.227203369 2.3544876575 64.788902283 3.7994000912 2.9488000870
 3940.3022461 1.3024001122 9.8023996353 8.5000000000 24.170221329 -0.010440291 0.2178042233 2.6263806820 4.4054412842 79.339210510 74.851997375 2.3466749191 65.453300476 3.9014999866 2.9284999371
 3940.4545898 1.3027000427 9.8027000427 8.5000000000 23.851488113 -0.009908540 0.2231757492 2.6203923225 4.3559622765 80.215583801 75.476898193 2.3388834000 66.117698669 4.0036997795 2.9080998898
 3940.6069336 1.3193999529 9.8193998337 8.5000000000 27.198156357 -0.010246134 0.2255146652 2.6155929565 4.3323798180 80.952484131 76.179107666 2.3284816742 65.489898682 3.9440000057 2.8375000954
 3940.7592773 1.3430000544 9.8430004120 8.5000000000 32.108592987 -0.010954134 0.2265566736 2.6111929417 4.3198800087 81.629386902 76.914398193 2.3170816898 64.310501099 3.8152000904 2.7455000877
 3940.9116211 1.3666000366 9.8666000366 8.5000000000 37.017932892 -0.011662029 0.2275904417 2.6067934036 4.3074197769 82.306739807 77.649597168 2.3055486679 63.131099701 3.6863999367 2.6535000801
 3941.0642090 1.3816000223 9.8816003799 8.5000000000 41.046504974 -0.012304884 0.2234780490 2.6025941372 4.3197746277 83.333518982 77.897003174 2.2735033035 62.441200256 3.6684999466 2.6575999260
 3941.2165527 1.3846999407 9.8846998215 8.5000000000 43.861469269 -0.012856887 0.2122750431 2.5988941193 4.3664746284 84.841819763 77.470298767 2.2131030560 62.427501678 3.8036999702 2.7945001125
 3941.3688965 1.3877999783 9.8878002167 8.5000000000 46.677436829 -0.013410293 0.2010779381 2.5951950550 4.4131698608 86.350357056 77.043601990 2.1526019573 62.413799286 3.9388999939 2.9312999249
 3941.5212402 1.3904999495 9.8905000687 8.5000000000 49.922145844 -0.014219818 0.1942206174 2.5921015739 4.4568405151 87.946121216 76.831398010 2.0913934708 62.473999023 4.0041999817 3.0046000481
 3941.6738281 1.3904999495 9.8905000687 8.5000000000 55.805213928 -0.016605625 0.2139821351 2.5931036472 4.4821810722 90.080520630 77.945899963 2.0247871876 62.991298676 3.6368000507 2.6842000484
 3941.8261719 1.3905999660 9.8905000687 8.5000000000 61.669853210 -0.018984819 0.2336806208 2.5942015648 4.5075407028 92.208114624 79.060493469 1.9583935738 63.508495331 3.2695000172 2.3638999462
 3941.9785156 1.3905999660 9.8906002045 8.5000000000 67.536781311 -0.021364627 0.2533884645 2.5952017307 4.5327143669 94.334709167 80.175102234 1.8920294046 64.025802612 2.9021999836 2.0434999466
 3942.1308594 1.3905999660 9.8906002045 8.5000000000 69.196762085 -0.021756105 0.2593028545 2.5963015556 4.4790930748 93.715782166 80.487800598 1.8480353355 64.037696838 2.9583001137 1.9970999956
 3942.2834473 1.3905999660 9.8906002045 8.5000000000 70.163848877 -0.021821205 0.2629446089 2.5973031521 4.4122862816 92.641868591 80.668098450 1.8076714277 63.966094971 3.0843000412 1.9960000515
 3942.4357910 1.3905999660 9.8906002045 8.5000000000 71.132743835 -0.021882255 0.2665589452 2.5982959270 4.3456449509 91.570098877 80.848396301 1.7676037550 63.894599915 3.2102000713 1.9947999716
 3942.5881348 1.3916999102 9.8916997910 8.5000000000 75.149436951 -0.020167176 0.2602873743 2.5956916809 4.2489104271 89.700370789 80.702911377 1.7699536085 63.703903198 3.2797999382 2.0202000141
 3942.7404785 1.3935999870 9.8936004639 8.5000000000 81.392555237 -0.017155172 0.2467873693 2.5904917717 4.1304097176 87.248573303 80.319007874 1.8034535646 63.425994873 3.3081998825 2.0650999546
 3942.8930664 1.3955999613 9.8956003189 8.5000000000 87.640830994 -0.014140351 0.2332623154 2.5852627754 4.0116877556 84.790649414 79.935203552 1.8369135857 63.148101807 3.3364999294 2.1098999977
