# LAS format log file from PETREL
# Project units are specified as depth units
#==================================================================
~Version information
VERS.   2.0:
WRAP.   NO:
#==================================================================
~Well
STRT .m      2127.0468750 :
STOP .m      3314.3952637 :
STEP .m     0.00000000 :
NULL .        -999.250000 :
COMP.           : COMPANY
WELL.  7/8-1 T2   : WELL
FLD.            : FIELD
LOC.            : LOCATION
SRVC.           : SERVICE COMPANY
DATE.  2018-09-11 21:49:23   : Log Export Date {yyyy-MM-dd HH:mm:ss}
PROV.           : PROVINCE
UWI.   7/8-1 T2   : UNIQUE WELL ID
API.            : API NUMBER
#==================================================================
~Curve
DEPT .m                   : DEPTH
CALI .in                  : CALI
BS .in                    : BS
DRHO .g/cm3               : DRHO
NPHI .m3/m3               : NPHI
RHOB .g/cm3               : RHOB
GR .gAPI                  : GR
DTC .us/ft                : DTC
RDEP .ohm.m               : RDEP
SP .mV                    : SP
RSHA .ohm.m               : RSHA
RMIC .ohm.m               : RMIC
RMED .ohm.m               : RMED
~Parameter
#==================================================================
~Ascii
# ...
 2514.7524414 9.0360002518 8.5000000000 0.0257756412 0.2847959995 2.2788000107 89.072288513 118.23217773 0.6457999945 59.528400421 1.2763999701 0.7488999963 1.0137000084
 2514.9047852 9.0194997787 8.5000000000 0.0192351993 0.2920469940 2.2871999741 90.841690063 118.76026917 0.6291999817 58.777900696 1.2726000547 0.7014999986 1.0056999922
 2515.0571289 9.0102996826 8.5000000000 0.0083701927 0.2942279875 2.2923998833 89.031990051 119.46772003 0.6086000204 58.049800873 1.2633999586 0.6771000028 0.9988999963
 2515.2094727 9.0132999420 8.5000000000 -0.000697115 0.2879700065 2.2923998833 84.122711182 119.76730347 0.5812000036 57.358898163 1.2450000048 0.6909999847 0.9944000244
 2515.3620605 9.0164003372 8.5000000000 -0.003903846 0.2817119956 2.2923998833 76.137809753 120.65522003 0.5536999702 56.668098450 1.2266000509 0.7049000263 0.9897999763
 2515.5144043 9.0246000290 8.5000000000 -0.003033600 0.2763859928 2.2925999165 73.999351501 120.91478729 0.5285000205 55.964298248 1.2079999447 0.7225000262 0.9851999879
 2515.6667480 9.0831003189 8.5000000000 -0.002033654 0.2799929976 2.2955999374 77.029205322 120.92279816 0.5239999890 55.136001587 1.1871999502 0.7767999768 0.9790999889
 2515.8190918 9.1415996552 8.5000000000 -0.001033654 0.2836009860 2.2985999584 81.583160400 120.96599579 0.5195999742 54.307701111 1.1664999723 0.8309999704 0.9729999900
 2515.9716797 9.2000999451 8.5000000000 -0.001967949 0.2872079909 2.3015999794 86.358016968 121.38603973 0.5152000189 53.479400635 1.1456999779 0.8852999806 0.9668999910
 2516.1240234 9.2070999146 8.5000000000 0.0008992000 0.2879680097 2.3045001030 88.996582031 121.86087036 0.5105999708 52.965499878 1.1333999634 0.8600999713 0.9623000026
 2516.2763672 9.2023000717 8.5000000000 0.0038990385 0.2880769968 2.3073999882 88.678100586 122.10737610 0.5060999990 52.523601532 1.1230000257 0.8167999983 0.9581000209
 2516.4287109 9.1975002289 8.5000000000 0.0011009616 0.2881850004 2.3103001118 88.723915100 121.65444946 0.5016000271 52.081699371 1.1125999689 0.7735000253 0.9538000226
 2516.5810547 9.1651000977 8.5000000000 -0.001899039 0.2910969853 2.3078999519 92.681251526 121.68043518 0.5012999773 51.550800323 1.0957000256 0.7421000004 0.9491000175
 2516.7336426 9.1083002090 8.5000000000 0.0018717949 0.2964679897 2.3010001183 100.95170593 123.25578308 0.5048999786 50.942100525 1.0729999542 0.7210999727 0.9438999891
 2516.8859863 9.0516004562 8.5000000000 -0.000899200 0.3018380105 2.2939999104 108.96282959 125.38237000 0.5084000230 50.333301544 1.0503000021 0.7001000047 0.9387999773
 2517.0383301 9.0120000839 8.5000000000 -0.001966346 0.3064239919 2.2898001671 113.85596466 126.14592743 0.5117999911 49.795200348 1.0322999954 0.6861000061 0.9345999956
 2517.1906738 9.0233001709 8.5000000000 0.0018653848 0.3086819947 2.2936999798 114.71083832 126.43516541 0.5148000121 49.466800690 1.0285999775 0.6927000284 0.9332000017
 2517.3432617 9.0346002579 8.5000000000 0.0010320513 0.3109390140 2.2976999283 114.31394196 125.25537872 0.5177999735 49.138401031 1.0248999596 0.6991999745 0.9318000078
 2517.4956055 9.0459003448 8.5000000000 -0.004798400 0.3131969869 2.3015999794 109.20899963 123.60250092 0.5209000111 48.810001373 1.0211000443 0.7057999969 0.9304000139
 2517.6479492 9.1293001175 8.5000000000 -0.012730770 0.3055500090 2.3036000729 95.941871643 122.85498047 0.5110999942 48.788600922 1.0264999866 0.7005000114 0.9237999916
 2517.8002930 9.2149000168 8.5000000000 -0.013966346 0.2976090014 2.3053998947 84.859092712 123.33127594 0.5009999871 48.776401520 1.0321999788 0.6948999763 0.9171000123
 2517.9528809 9.3003997803 8.5000000000 -0.007224359 0.2896670103 2.3073000908 75.359306335 123.54006195 0.4909000099 48.764198303 1.0378999710 0.6893000007 0.9103999734
 2518.1052246 9.3339004517 8.5000000000 0.0007312000 0.2876810133 2.3097999096 67.123825073 124.00737000 0.4835000038 48.375198364 1.0415999889 0.6905999780 0.9050999880
 2518.2575684 9.3440999985 8.5000000000 0.0067980769 0.2883670032 2.3125000000 64.407974243 124.48434448 0.4774999917 47.817100525 1.0443999767 0.6949999928 0.9003999829
 2518.4099121 9.3542003632 8.5000000000 0.0070000002 0.2890529931 2.3152999878 66.446060181 125.19191742 0.4713999927 47.259101868 1.0471999645 0.6994000077 0.8956999779
 2518.5622559 9.3254003525 8.5000000000 -0.003629808 0.2891660035 2.3164999485 70.563194275 125.02234650 0.4659999907 46.801700592 1.0448999405 0.6977000237 0.8952000141
 2518.7148438 9.2404003143 8.5000000000 -0.010775641 0.2884519994 2.3155000210 75.863166809 124.74786377 0.4614000022 46.489601135 1.0355000496 0.6870999932 0.9007999897
 2518.8671875 9.1554002762 8.5000000000 -0.011000000 0.2877379954 2.3145999908 80.358642578 123.81695557 0.4569000006 46.177501678 1.0260000229 0.6765999794 0.9064000249
 2519.0195313 9.0817003250 8.5000000000 -0.001336538 0.2876909971 2.3141999245 81.102340698 123.78489685 0.4533999860 45.938598633 1.0175000429 0.6679000258 0.9113000035
 2519.1718750 9.0839004517 8.5000000000 0.0057644229 0.2921690047 2.3180000782 76.662353516 124.05374146 0.4575000107 46.195301056 1.0160000324 0.6719999909 0.9110999703
 2519.3244629 9.0861997604 8.5000000000 0.0030961540 0.2966470122 2.3217999935 71.734039307 124.71733856 0.4614999890 46.452098846 1.0146000385 0.6761000156 0.9110000134
 2519.4768066 9.0885000229 8.5000000000 0.0049327998 0.3011240065 2.3255999088 69.232482910 125.19997406 0.4654999971 46.708801270 1.0131000280 0.6801999807 0.9107999802
 2519.6291504 9.1726999283 8.5000000000 0.0021009615 0.3014920056 2.3203999996 70.251670837 126.13790131 0.4641000032 46.790599823 1.0270999670 0.6844999790 0.9111999869
 2519.7814941 9.2715997696 8.5000000000 -0.003798077 0.3011220098 2.3136000633 72.394706726 126.20497131 0.4616999924 46.840999603 1.0437999964 0.6887999773 0.9115999937
 2519.9340820 9.3704996109 8.5000000000 -0.007871795 0.3007520139 2.3068997860 74.705894470 125.70944977 0.4593000114 46.891399384 1.0605000257 0.6930999756 0.9120000005
 2520.0864258 9.4064998627 8.5000000000 -0.006067200 0.3013910055 2.3053998947 77.167976379 125.92349243 0.4611999989 46.726501465 1.0694999695 0.7023000121 0.9149000049
 2520.2387695 9.3944997787 8.5000000000 0.0007644231 0.3028019965 2.3080999851 79.665901184 125.70102692 0.4663000107 46.396999359 1.0727000237 0.7149999738 0.9196000099
 2520.3911133 9.3824996948 8.5000000000 0.0096971150 0.3042129874 2.3106999397 81.616981506 125.00157928 0.4713999927 46.067501068 1.0757999420 0.7278000116 0.9243999720
 2520.5437012 9.3584003448 8.5000000000 0.0129038468 0.3031919897 2.3097999096 82.721572876 123.63146973 0.4771000147 45.781898499 1.0751999617 0.7373999953 0.9279999733
 2520.6960449 9.3043003082 8.5000000000 0.0081602568 0.2961019874 2.3001999855 81.882904053 122.85513306 0.4844000041 45.605800629 1.0655000210 0.7390999794 0.9290000200
 2520.8483887 9.2501001358 8.5000000000 -0.003596800 0.2890110016 2.2906000614 79.222488403 122.36992645 0.4916999936 45.429698944 1.0557999611 0.7408000231 0.9298999906
 2521.0007324 9.1961002350 8.5000000000 -0.011730770 0.2819809914 2.2811000347 75.892776489 122.58437347 0.4990000129 45.254600525 1.0460000038 0.7423999906 0.9308000207
 2521.1530762 9.1693000793 8.5000000000 -0.012966346 0.2863489985 2.2846999168 73.624084473 123.09316254 0.4979999959 45.274299622 1.0358999968 0.7213000059 0.9257000089
 2521.3056641 9.1424999237 8.5000000000 -0.008160257 0.2907170057 2.2881999016 74.062980652 124.68680573 0.4970999956 45.294101715 1.0256999731 0.7002000213 0.9205999970
 2521.4580078 9.1156997681 8.5000000000 -0.003168000 0.2950850129 2.2918000221 77.260421753 126.12192535 0.4961999953 45.313800812 1.0155999660 0.6790999770 0.9154999852
 2521.6103516 9.1852998734 8.5000000000 -0.001067308 0.2948819995 2.2960999012 81.545616150 126.86141968 0.4941000044 45.074501038 1.0214999914 0.6873999834 0.9099000096
 2521.7626953 9.2916002274 8.5000000000 -0.001000000 0.2929390073 2.3004999161 85.112831116 126.45924377 0.4914999902 44.736698151 1.0335999727 0.7069000006 0.9041000009
 2521.9152832 9.3978996277 8.5000000000 -0.002935898 0.2909959853 2.3050000668 85.387840271 125.94794464 0.4889999926 44.398799896 1.0456999540 0.7264000177 0.8984000087
