# LAS format log file from PETREL
# Project units are specified as depth units
#==================================================================
~Version information
VERS.   2.0:
WRAP.   NO:
#==================================================================
~Well
STRT .m      2126.7421875 :
STOP .m      3314.5480957 :
STEP .m     0.00000000 :
NULL .        -999.250000 :
COMP.           : COMPANY
WELL.  7/8-1   : WELL
FLD.            : FIELD
LOC.            : LOCATION
SRVC.           : SERVICE COMPANY
DATE.  2018-09-11 21:49:23   : Log Export Date {yyyy-MM-dd HH:mm:ss}
PROV.           : PROVINCE
UWI.   7/8-1   : UNIQUE WELL ID
API.            : API NUMBER
#==================================================================
~Curve
DEPT .m                   : DEPTH
CALI .in                  : CALI
DRHO .g/cm3               : DRHO
NPHI .m3/m3               : NPHI
RHOB .g/cm3               : RHOB
GR .gAPI                  : GR
DTC .us/ft                : DTC
RDEP .ohm.m               : RDEP
SP .mV                    : SP
RSHA .ohm.m               : RSHA
RMIC .ohm.m               : RMIC
RMED .ohm.m               : RMED
~Parameter
#==================================================================
~Ascii
# ...
 2670.8103027 10.310000420 -0.013000000 0.1030000001 2.5160000324 19.700000763 83.058006287 1.6674000025 56.574600220 2.5099999905 2.1459941864 1.8860000372
 2670.9626465 10.319999695 -0.016000001 0.1041999981 2.5130000114 20.438999176 83.498008728 1.6879999638 56.747398376 2.5169999599 2.6279258728 1.8976999521
 2671.1149902 10.343999863 -0.006000000 0.1032000035 2.5139999390 18.621000290 81.116996765 1.7085000277 57.533298492 2.5120000839 2.5997927189 1.9098999500
 2671.2675781 10.397999763 0.0010000000 0.1041999981 2.5139999390 16.641000748 78.405998230 1.7290999889 58.159900665 2.5120000839 2.2343862057 1.9183000326
 2671.4199219 10.447999954 -0.002000000 0.1076000035 2.4939999580 15.248000145 76.542991638 1.7500000000 58.402801514 2.5150001049 2.3684837818 1.9233000278
 2671.5722656 10.472000122 -0.003000000 0.1124999970 2.4790000916 14.045000076 76.558998108 1.7710000277 59.005699158 2.5009999275 2.3931605816 1.9271999598
 2671.7246094 10.498001099 0.0030000000 0.1202000007 2.4800000191 13.262000084 77.241996765 1.7984000444 60.179000854 2.4820001125 2.2907290459 1.9298000336
 2671.8771973 10.517999649 0.0070000002 0.1239999980 2.4779999256 14.072999954 77.170997620 1.8403999805 61.710300446 2.4600000381 2.8188517094 1.9292999506
 2672.0295410 10.538000107 0.0049999999 0.1254999936 2.4690001011 14.420000076 77.100997925 1.8725999594 63.348896027 2.4360001087 2.7754709721 1.9334000349
 2672.1818848 10.565999985 0.0030000000 0.1257999986 2.4609999657 14.204999924 77.199996948 1.8393000364 65.094902039 2.4040000439 2.4189722538 1.9387999773
 2672.3342285 10.593998909 0.0049999999 0.1266999990 2.4630000591 13.427000046 77.300003052 1.8503999710 66.949897766 2.3800001144 2.0932219028 1.9399000406
 2672.4865723 10.614001274 0.0120000001 0.1250000000 2.4660000801 12.932000160 78.009002686 1.8503999710 67.384498596 2.3610000610 2.2435157299 1.9321999550
 2672.6391602 10.642999649 0.0109999999 0.1225000024 2.4609999657 13.821000099 78.276000977 1.8998999596 67.942298889 2.3380000591 2.1820993423 1.9143999815
 2672.7915039 10.678000450 0.0010000000 0.1204999983 2.4519999027 15.029999733 78.224998474 1.8368999958 68.963600159 2.3029999733 2.2009694576 1.8918000460
 2672.9438477 10.713999748 -0.001000000 0.1182999983 2.4489998817 14.947999954 78.219001770 1.8155000210 69.601402283 2.2679998875 1.9771592617 1.8604999781
 2673.0961914 10.750000000 -0.004000000 0.1217999980 2.4460000992 13.887000084 78.831001282 1.7936999798 70.001899719 2.2269999981 1.9428091049 1.8325999975
 2673.2487793 10.779999733 -0.009000000 0.1254000068 2.4370000362 13.180999756 78.953002930 1.7541999817 70.416999817 2.1849999428 2.3428575993 1.8105000257
 2673.4011230 10.817000389 -0.007000000 0.1315000057 2.4309999943 13.765999794 78.572998047 1.7132999897 70.030296326 2.1540000439 2.3077573776 1.7769999504
 2673.5534668 10.863000870 -0.007000000 0.1405999959 2.4240000248 13.991000175 78.569999695 1.6723999977 70.438102722 2.1229999065 2.2920253277 1.7519999743
 2673.7058105 10.916000366 -0.014000000 0.1416999996 2.4110000134 13.965000153 78.566001892 1.6313999891 71.088500977 2.0950000286 2.0945339203 1.7180000544
 2673.8583984 10.958999634 -0.015000000 0.1405999959 2.3980000019 14.661999702 79.752998352 1.5907000303 71.967498779 2.0669999123 1.9698990583 1.6861000061
 2674.0107422 11.008000374 -0.005000000 0.1420000046 2.3980000019 15.814000130 79.711997986 1.5616999865 73.003303528 2.0360000134 2.0768280029 1.6514999866
 2674.1630859 11.060000420 0.0010000000 0.1440999955 2.4019999504 15.131999969 79.670997620 1.5343999863 74.737098694 1.9910000563 1.7912585735 1.6152000427
 2674.3154297 11.109000206 -0.001000000 0.1488000005 2.3959999084 13.861000061 79.445999146 1.5055999756 75.791000366 1.9259999990 1.7987871170 1.5858000517
 2674.4677734 11.163999557 -0.006000000 0.1565999985 2.3889999390 13.315999985 79.221000671 1.4641000032 76.585098267 1.8880000114 1.6208713055 1.5437999964
 2674.6203613 11.225999832 -0.006000000 0.1552000046 2.3880000114 13.048000336 80.587997437 1.4458999634 76.668502808 1.8470000029 1.6471568346 1.5073000193
 2674.7727051 11.274000168 -0.004000000 0.1588000059 2.3880000114 12.918000221 81.551002502 1.4285999537 76.980300903 1.7990000248 1.6771519184 1.4723000526
 2674.9250488 11.314999580 -0.008000000 0.1736000031 2.3770000935 12.972999573 82.513999939 1.3121999502 77.413299561 1.7549999952 1.6411578655 1.4400999546
 2675.0773926 11.361000061 -0.010000000 0.1776999980 2.3619999886 12.345000267 82.289001465 1.2328000069 77.295501709 1.7189999819 1.6561517715 1.4106999636
 2675.2299805 11.399999619 -0.005000000 0.1780000031 2.3610000610 12.159999847 84.953002930 1.2080999613 77.107299805 1.6829999685 1.3002713919 1.3863999844
 2675.3823242 11.477999687 -0.006000000 0.1793999970 2.3650000095 12.500000000 87.616996765 1.1833000183 78.507797241 1.6460000277 1.2237219810 1.3517999649
 2675.5346680 11.547999382 -0.005000000 0.1815000027 2.3659999371 12.211000443 87.414009094 1.1568000317 78.716796875 1.6039999723 1.3164509535 1.3177000284
 2675.6870117 11.564999580 -0.001000000 0.1758999974 2.3699998856 11.630000114 86.230003357 1.1260000467 78.377098083 1.5650000572 1.3463046551 1.2833000422
 2675.8395996 11.579000473 0.0030000000 0.1736000031 2.3619999886 11.300000191 83.575996399 1.0952999592 78.630996704 1.5249999762 0.9280714393 1.2468999624
 2675.9919434 11.599000931 0.0040000002 0.1808999926 2.3480000496 11.171999931 83.839996338 1.0644999743 78.595901489 1.4750000238 1.0195521116 1.2240999937
 2676.1442871 11.623999596 0.0049999999 0.1937000006 2.3420000076 10.939000130 84.813003540 1.0334000587 78.897003174 1.4529999495 1.2946586609 1.2038999796
 2676.2966309 11.652000427 0.0049999999 0.2066999972 2.3359999657 10.503999710 83.883003235 1.0013999939 78.967102051 1.4309999943 1.1907675266 1.1749999523
 2676.4489746 11.681000710 0.0030000000 0.2082999945 2.3159999847 9.7799997330 82.954002380 0.9685999751 79.291603088 1.4079999924 0.9501718283 1.1404999495
 2676.6015625 11.713999748 0.0000000000 0.2131000012 2.2969999313 9.2860002518 90.671989441 0.9358000159 79.384902954 1.3750000000 0.9571874738 1.1164000034
 2676.7539063 11.744000435 0.0010000000 0.2246000022 2.2920000553 10.177000046 90.703002930 0.9029999971 79.693000793 1.3430000544 1.0268881321 1.0944000483
 2676.9062500 11.760999680 0.0070000002 0.2328999937 2.2890000343 11.477999687 89.511001587 0.8701999784 79.762702942 1.3140000105 0.9528191090 1.0690000057
 2677.0585938 11.763999939 0.0099999998 0.2357999980 2.2880001068 12.260999680 88.319000244 0.8374000192 80.607101440 1.2910000086 0.8753483295 1.0427999496
 2677.2111816 11.755000114 0.0020000001 0.2347999960 2.2869999409 12.432999611 89.012001038 0.8044999838 80.617401123 1.2769999504 0.6878006458 1.0199999809
 2677.3635254 11.793999672 0.0000000000 0.2289000005 2.2950000763 12.293000221 88.900009155 0.7746000290 80.627799988 1.2719999552 0.5615022182 1.0056999922
 2677.5158691 11.925000191 0.0089999996 0.2336000055 2.3039999008 12.746999741 88.789001465 0.7480000257 80.638099670 1.2760000229 1.0219604969 0.9998000264
 2677.6682129 11.890000343 0.0099999998 0.2336000055 2.3059999943 14.208000183 89.482994080 0.7297000289 80.648399353 1.2779999971 0.9093999863 0.9894000292
 2677.8208008 11.826999664 0.0140000004 0.2331999987 2.3129999638 15.015000343 91.390998840 0.7245000005 80.471801758 1.2710000277 0.7735000253 0.9785000086
 2677.9731445 11.862999916 0.0289999992 0.2457000017 2.3150000572 15.097000122 88.468994141 0.7240999937 80.470497131 1.2649999857 0.6467999816 0.9781000018
 2678.1254883 11.950000763 0.0430000015 0.2617000043 2.3210000992 15.005999565 88.367004395 0.7264000177 80.480796814 1.2580000162 0.9797999859 0.9822000265
 2678.2778320 11.854000092 0.0390000008 0.2570999861 2.3239998817 14.670000076 90.073997498 0.7324000001 80.292602539 1.2500000000 0.7836999893 0.9817000031
 2678.4301758 11.829999924 0.0109999999 0.2318000048 2.3190000057 13.552000046 91.780998230 0.7396000028 79.905899048 1.2580000162 0.5083000064 0.9794999957
