# LAS format log file from PETREL
# Project units are specified as depth units
#==================================================================
~Version information
VERS.   2.0:
WRAP.   NO:
#==================================================================
~Well
STRT .m      2127.0468750 :
STOP .m      3314.3952637 :
STEP .m     0.00000000 :
NULL .        -999.250000 :
COMP.           : COMPANY
WELL.  7/8-1 T2   : WELL
FLD.            : FIELD
LOC.            : LOCATION
SRVC.           : SERVICE COMPANY
DATE.  2018-09-11 21:49:23   : Log Export Date {yyyy-MM-dd HH:mm:ss}
PROV.           : PROVINCE
UWI.   7/8-1 T2   : UNIQUE WELL ID
API.            : API NUMBER
#==================================================================
~Curve
DEPT .m                   : DEPTH
CALI .in                  : CALI
BS .in                    : BS
DRHO .g/cm3               : DRHO
NPHI .m3/m3               : NPHI
RHOB .g/cm3               : RHOB
GR .gAPI                  : GR
DTC .us/ft                : DTC
RDEP .ohm.m               : RDEP
SP .mV                    : SP
RSHA .ohm.m               : RSHA
RMIC .ohm.m               : RMIC
RMED .ohm.m               : RMED
~Parameter
#==================================================================
~Ascii
# ...
 2982.9252930 8.7320995331 8.5000000000  -999.250000  -999.250000  -999.250000 22.517768860 69.602981567 5.7206001282 55.667499542 5.2600998878  -999.250000 3.5970747471
 2983.0776367 8.7348003387 8.5000000000  -999.250000  -999.250000  -999.250000 23.703077316 70.561210632 5.6788001060 55.456100464 5.2151999474  -999.250000 3.5580372810
 2983.2299805 8.7375001907 8.5000000000  -999.250000  -999.250000  -999.250000 24.204040527 70.597900391 5.7122001648 55.049900055 5.1666002274  -999.250000 3.5189373493
 2983.3823242 8.7402000427 8.5000000000  -999.250000  -999.250000  -999.250000 23.532806396 71.055885315 5.7456002235 54.643798828 5.1178998947  -999.250000 3.4798419476
 2983.5349121 8.7461996078 8.5000000000  -999.250000  -999.250000  -999.250000 22.008806229 71.194618225 5.7430000305 54.414299011 5.0700001717  -999.250000 3.4436166286
 2983.6872559 8.7629995346 8.5000000000  -999.250000  -999.250000  -999.250000 20.228807449 70.162384033 5.6185998917 54.782100677 5.0250000954  -999.250000 3.4175581932
 2983.8395996 8.7798004150 8.5000000000  -999.250000  -999.250000  -999.250000 19.218652725 69.891571045 5.4942998886 55.149898529 4.9800000191  -999.250000 3.3914582729
 2983.9919434 8.7966003418 8.5000000000  -999.250000  -999.250000  -999.250000 19.790599823 70.569282532 5.3699002266 55.517799377 4.9349999428  -999.250000 3.3653578758
 2984.1445313 8.7965002060 8.5000000000  -999.250000  -999.250000  -999.250000 21.178499222 70.947227478 5.3024001122 54.958599091 4.8748998642  -999.250000 3.3390154839
 2984.2968750 8.7953996658 8.5000000000  -999.250000  -999.250000  -999.250000 22.171461105 71.529281616 5.2378997803 54.347999573 4.8138999939  -999.250000 3.3126578331
 2984.4492188 8.7944002151 8.5000000000  -999.250000  -999.250000  -999.250000 22.801307678 70.864021301 5.1735000610 53.737499237 4.7529997826  -999.250000 3.2863557339
 2984.6015625 8.7939996719 8.5000000000  -999.250000  -999.250000  -999.250000 23.733160019 70.378578186 5.0268001556 54.233600616 4.6760001183  -999.250000 3.2587547302
 2984.7539063 8.7938995361 8.5000000000  -999.250000  -999.250000  -999.250000 24.949802399 70.708534241 4.8389000893 55.283000946 4.5911002159  -999.250000 3.2304546833
 2984.9064941 8.7938003540 8.5000000000  -999.250000  -999.250000  -999.250000 24.773038864 71.290794373 4.6511001587 56.332500458 4.5061001778  -999.250000 3.2022016048
 2985.0588379 8.7894001007 8.5000000000  -999.250000  -999.250000  -999.250000 23.027462006 73.148109436 4.5226998329 57.319599152 4.4365000725  -999.250000 3.1714439392
 2985.2111816 8.7781000137 8.5000000000  -999.250000  -999.250000  -999.250000 21.423919678 75.053276062 4.4889001846 58.207698822 4.3914999962  -999.250000 3.1365442276
 2985.3635254 8.7667999268 8.5000000000  -999.250000  -999.250000  -999.250000 20.781158447 75.358551025 4.4551000595 59.095699310 4.3464999199  -999.250000 3.1017453671
 2985.5161133 8.7573003769 8.5000000000  -999.250000  -999.250000  -999.250000 20.197383881 75.481094360 4.4196000099 59.918300629 4.3031997681  -999.250000 3.0676097870
 2985.6684570 8.7636995316 8.5000000000  -999.250000  -999.250000  -999.250000 19.282691956 75.372619629 4.3692998886 60.183200836 4.2740001678  -999.250000 3.0394549370
 2985.8208008 8.7700996399 8.5000000000  -999.250000  -999.250000  -999.250000 18.941230774 75.368103027 4.3189997673 60.448101044 4.2449002266  -999.250000 3.0113546848
 2985.9731445 8.7764997482 8.5000000000  -999.250000  -999.250000  -999.250000 18.666919708 75.597061157 4.2687001228 60.712898254 4.2157998085  -999.250000 2.9831674099
 2986.1257324 8.7822999954 8.5000000000  -999.250000  -999.250000  -999.250000 17.810808182 75.261306763 4.2094998360 60.599399567 4.1768999100  -999.250000 2.9627401829
 2986.2780762 8.7881002426 8.5000000000  -999.250000  -999.250000  -999.250000 16.617383957 75.134132385 4.1483998299 60.405101776 4.1359000206  -999.250000 2.9440698624
 2986.4304199 8.7938003540 8.5000000000  -999.250000  -999.250000  -999.250000 15.654653549 74.900268555 4.0873999596 60.210800171 4.0949997902  -999.250000 2.9253706932
 2986.5827637 8.8001003265 8.5000000000  -999.250000  -999.250000  -999.250000 14.787600517 73.746208191 4.0613999367 60.643299103 4.0577001572  -999.250000 2.9070708752
 2986.7351074 8.8067998886 8.5000000000  -999.250000  -999.250000  -999.250000 14.080084801 72.670982361 4.0648999214 61.602600098 4.0233998299  -999.250000 2.8889710903
 2986.8876953 8.8135995865 8.5000000000  -999.250000  -999.250000  -999.250000 14.055846214 72.052040100 4.0682997704 62.562004089 3.9892001152  -999.250000 2.8709430695
 2987.0400391 8.8207998276 8.5000000000  -999.250000  -999.250000  -999.250000 14.528115273 71.799667358 4.0922999382 63.222805023 3.9688999653  -999.250000 2.8531720638
 2987.1923828 8.8291997910 8.5000000000  -999.250000  -999.250000  -999.250000 15.484920502 72.248420715 4.1735000610 63.044799805 3.9877998829  -999.250000 2.8357722759
 2987.3447266 8.8375997543 8.5000000000  -999.250000  -999.250000  -999.250000 16.111480713 72.496444702 4.2547998428 62.866798401 4.0067000389  -999.250000 2.8184723854
 2987.4973145 8.8459997177 8.5000000000  -999.250000  -999.250000  -999.250000 16.068693161 71.936477661 4.3359999657 62.688796997 4.0255999565  -999.250000 2.8012027740
 2987.6496582 8.8450002670 8.5000000000  -999.250000  -999.250000  -999.250000 15.329462051 71.795234680 4.4203000069 63.210300446 4.0223999023  -999.250000 2.8021018505
 2987.8020020 8.8437995911 8.5000000000  -999.250000  -999.250000  -999.250000 15.717308044 71.331848145 4.5047001839 63.744796753 4.0188999176  -999.250000 2.8033018112
 2987.9543457 8.8427000046 8.5000000000  -999.250000  -999.250000  -999.250000 16.484720230 71.084533691 4.5890998840 64.279296875 4.0153999329  -999.250000 2.8045163155
 2988.1069336 8.8406000137 8.5000000000  -999.250000  -999.250000  -999.250000 16.515037537 71.652496338 4.6184000969 64.414299011 4.0124001503  -999.250000 2.8146445751
 2988.2592773 8.8381996155 8.5000000000  -999.250000  -999.250000  -999.250000 16.325576782 71.556755066 4.6243000031 64.378501892 4.0097999573  -999.250000 2.8285222054
 2988.4116211 8.8358001709 8.5000000000  -999.250000  -999.250000  -999.250000 15.742038727 71.322669983 4.6301999092 64.342796326 4.0071001053  -999.250000 2.8424172401
 2988.5639648 8.8311004639 8.5000000000  -999.250000  -999.250000  -999.250000 15.329239845 71.542465210 4.6234998703 64.601196289 4.0058999062  -999.250000 2.8531105518
 2988.7163086 8.8233995438 8.5000000000  -999.250000  -999.250000  -999.250000 15.140212059 71.442085266 4.5994000435 65.265800476 4.0065999031  -999.250000 2.8596105576
 2988.8688965 8.8156003952 8.5000000000  -999.250000  -999.250000  -999.250000 14.328191757 69.942214966 4.5752000809 65.930397034 4.0074000359  -999.250000 2.8661172390
 2989.0212402 8.8088998795 8.5000000000  -999.250000  -999.250000  -999.250000 13.255615234 69.882400513 4.5605001450 66.580596924 4.0064001083  -999.250000 2.8714988232
 2989.1735840 8.8079996109 8.5000000000  -999.250000  -999.250000  -999.250000 13.059440613 71.485214233 4.6037001610 67.141601563 3.9946000576  -999.250000 2.8706984520
 2989.3259277 8.8071002960 8.5000000000  -999.250000  -999.250000  -999.250000 13.418735504 71.780944824 4.6469998360 67.702598572 3.9828000069  -999.250000 2.8697988987
 2989.4785156 8.8063001633 8.5000000000  -999.250000  -999.250000  -999.250000 14.691692352 71.908958435 4.6901998520 68.263603210 3.9711000919  -999.250000 2.8689792156
 2989.6308594 8.8032999039 8.5000000000  -999.250000  -999.250000  -999.250000 16.620845795 71.795234680 4.6757998466 68.671401978 3.9323000908  -999.250000 2.8624882698
 2989.7832031 8.7999000549 8.5000000000  -999.250000  -999.250000  -999.250000 16.845998764 71.561172485 4.6518001556 69.054000854 3.8889999390  -999.250000 2.8551883698
 2989.9355469 8.7966003418 8.5000000000  -999.250000  -999.250000  -999.250000 15.725919724 71.323036194 4.6279001236 69.436599731 3.8457000256  -999.250000 2.8478872776
 2990.0881348 8.7906999588 8.5000000000  -999.250000  -999.250000  -999.250000 14.982846260 71.661674500 4.5557999611 69.008903503 3.7925000191  -999.250000 2.8399729729
