# LAS format log file from PETREL
# Project units are specified as depth units
#==================================================================
~Version information
VERS.   2.0:
WRAP.   NO:
#==================================================================
~Well
STRT .m      2127.0468750 :
STOP .m      3314.3952637 :
STEP .m     0.00000000 :
NULL .        -999.250000 :
COMP.           : COMPANY
WELL.  7/8-1 T2   : WELL
FLD.            : FIELD
LOC.            : LOCATION
SRVC.           : SERVICE COMPANY
DATE.  2018-09-11 21:49:23   : Log Export Date {yyyy-MM-dd HH:mm:ss}
PROV.           : PROVINCE
UWI.   7/8-1 T2   : UNIQUE WELL ID
API.            : API NUMBER
#==================================================================
~Curve
DEPT .m                   : DEPTH
CALI .in                  : CALI
BS .in                    : BS
DRHO .g/cm3               : DRHO
NPHI .m3/m3               : NPHI
RHOB .g/cm3               : RHOB
GR .gAPI                  : GR
DTC .us/ft                : DTC
RDEP .ohm.m               : RDEP
SP .mV                    : SP
RSHA .ohm.m               : RSHA
RMIC .ohm.m               : RMIC
RMED .ohm.m               : RMED
~Parameter
#==================================================================
~Ascii
# ...
 3063.3925781 8.4626998901 8.5000000000  -999.250000  -999.250000  -999.250000 15.606731415 68.689903259 4.6152300835 65.672348022 4.4745535851  -999.250000 3.0180177689
 3063.5449219 8.4568004608 8.5000000000  -999.250000  -999.250000  -999.250000 15.747200012 68.355827332 4.8835158348 67.013389587 4.5703454018  -999.250000 3.0291626453
 3063.6972656 8.4686002731 8.5000000000  -999.250000  -999.250000  -999.250000 14.949614525 68.675964355 5.1430158615 66.816589355 4.6612458229  -999.250000 3.0683629513
 3063.8498535 8.4804000854 8.5000000000  -999.250000  -999.250000  -999.250000 15.172730446 68.919227600 5.4030199051 66.619346619 4.7523894310  -999.250000 3.1077253819
 3064.0021973 8.4918003082 8.5000000000  -999.250000  -999.250000  -999.250000 15.747423172 69.157730103 5.6584143639 66.414695740 4.8425908089  -999.250000 3.1468675137
 3064.1545410 8.4802999496 8.5000000000  -999.250000  -999.250000  -999.250000 16.839441299 69.060623169 5.6674141884 65.663291931 4.8991909027  -999.250000 3.1889674664
 3064.3068848 8.4687004089 8.5000000000  -999.250000  -999.250000  -999.250000 17.115345001 68.933517456 5.6764144897 64.911895752 4.9558906555  -999.250000 3.2310674191
 3064.4594727 8.4570999146 8.5000000000  -999.250000  -999.250000  -999.250000 17.108654022 68.699073792 5.6848487854 64.162117004 5.0124101639  -999.250000 3.2732329369
 3064.6118164 8.4541997910 8.5000000000  -999.250000  -999.250000  -999.250000 17.594539642 68.231246948 5.5127177238 64.293823242 5.0154738426  -999.250000 3.3147661686
 3064.7641602 8.4545001984 8.5000000000  -999.250000  -999.250000  -999.250000 18.196691513 68.565879822 5.2742176056 64.748023987 4.9991736412  -999.250000 3.3561663628
 3064.9165039 8.4547996521 8.5000000000  -999.250000  -999.250000  -999.250000 18.315040588 68.456542969 5.0356678963 65.201423645 4.9827580452  -999.250000 3.3975481987
 3065.0690918 8.4553003311 8.5000000000  -999.250000  -999.250000  -999.250000 18.957462311 67.992752075 4.8284606934 65.088455200 4.9563770294  -999.250000 3.4275517464
 3065.2214355 8.4558000565 8.5000000000  -999.250000  -999.250000  -999.250000 18.461845398 67.745071411 4.6602296829 64.292922974 4.9180383682  -999.250000 3.4437258244
 3065.3737793 8.4563999176 8.5000000000  -999.250000  -999.250000  -999.250000 17.353500366 68.194549561 4.4916639328 63.496017456 4.8796534538  -999.250000 3.4598169327
 3065.5261230 8.4584999084 8.5000000000  -999.250000  -999.250000  -999.250000 17.129520416 68.793891907 4.3445296288 62.696804047 4.8504238129  -999.250000 3.4703738689
 3065.6784668 8.4680004120 8.5000000000  -999.250000  -999.250000  -999.250000 17.652843475 69.610816956 4.3006296158 61.885700226 4.8652238846  -999.250000 3.4540739059
 3065.8310547 8.4776000977 8.5000000000  -999.250000  -999.250000  -999.250000 18.264423370 70.331970215 4.2566595078 61.073406219 4.8801474571  -999.250000 3.4378478527
 3065.9833984 8.4871997833 8.5000000000  -999.250000  -999.250000  -999.250000 18.366846085 70.588729858 4.2130680084 60.264190674 4.8951349258  -999.250000 3.4215784073
 3066.1357422 8.4841003418 8.5000000000  -999.250000  -999.250000  -999.250000 18.882638931 71.175338745 4.3804097176 59.758853912 4.9793486595  -999.250000 3.4080786705
 3066.2880859 8.4793996811 8.5000000000  -999.250000  -999.250000  -999.250000 17.453536987 71.308929443 4.5738101006 59.291351318 5.0722489357  -999.250000 3.3948788643
 3066.4406738 8.4746999741 8.5000000000  -999.250000  -999.250000  -999.250000 18.068962097 71.313499451 4.7677450180 58.824432373 5.1652660370  -999.250000 3.3816308975
 3066.5930176 8.4707002640 8.5000000000  -999.250000  -999.250000  -999.250000 19.894077301 71.313499451 5.0313954353 58.772441864 5.2795057297  -999.250000 3.3913388252
 3066.7453613 8.4671001434 8.5000000000  -999.250000  -999.250000  -999.250000 19.937154770 70.854850769 5.3405957222 58.986644745 5.4076056480  -999.250000 3.4156389236
 3066.8977051 8.4633998871 8.5000000000  -999.250000  -999.250000  -999.250000 18.098560333 70.956207275 5.6498603821 59.200771332 5.5356917381  -999.250000 3.4398500919
 3067.0502930 8.4611997604 8.5000000000  -999.250000  -999.250000  -999.250000 16.306615829 71.529281616 5.9372735023 59.370857239 5.6554260254  -999.250000 3.4711451530
 3067.2026367 8.4617996216 8.5000000000  -999.250000  -999.250000  -999.250000 16.573575974 72.010650635 6.1785869598 59.450630188 5.7571635246  -999.250000 3.5164725780
 3067.3549805 8.4624004364 8.5000000000  -999.250000  -999.250000  -999.250000 17.135076523 71.799667358 6.4202928543 59.530433655 5.8591604233  -999.250000 3.5617737770
 3067.5073242 8.4629001617 8.5000000000  -999.250000  -999.250000  -999.250000 17.734920502 71.451622009 6.6656045914 59.614566803 5.9589924812  -999.250000 3.6076886654
 3067.6596680 8.4621000290 8.5000000000  -999.250000  -999.250000  -999.250000 18.903244019 70.402687073 6.9805049896 59.781166077 6.0165925026  -999.250000 3.6630887985
 3067.8122559 8.4611997604 8.5000000000  -999.250000  -999.250000  -999.250000 19.199075699 69.212768555 7.2960081100 59.948032379 6.0742845535  -999.250000 3.7185773849
 3067.9645996 8.4603996277 8.5000000000  -999.250000  -999.250000  -999.250000 21.219575882 68.937568665 7.6100320816 60.113647461 6.1317753792  -999.250000 3.7738878727
 3068.1169434 8.4614000320 8.5000000000  -999.250000  -999.250000  -999.250000 24.127201080 68.822509766 7.6297874451 59.829425812 6.1786699295  -999.250000 3.8287878036
 3068.2692871 8.4630002975 8.5000000000  -999.250000  -999.250000  -999.250000 25.469877243 68.237144470 7.5596880913 59.408023834 6.2222700119  -999.250000 3.8835880756
 3068.4218750 8.4646997452 8.5000000000  -999.250000  -999.250000  -999.250000 24.523883820 68.212898254 7.4898772240 58.984706879 6.2659859657  -999.250000 3.9385695457
 3068.5742188 8.4608001709 8.5000000000  -999.250000  -999.250000  -999.250000 23.336885452 67.983573914 7.5141987801 58.175037384 6.2927145958  -999.250000 3.9914817810
 3068.7265625 8.4510002136 8.5000000000  -999.250000  -999.250000  -999.250000 22.148693085 67.745071411 7.6383986473 56.952640533 6.3018140793  -999.250000 4.0424818993
 3068.8789063 8.4412002563 8.5000000000  -999.250000  -999.250000  -999.250000 23.139801025 69.232063293 7.7623825073 55.730922699 6.3108115196  -999.250000 4.0935735703
 3069.0314941 8.4355001450 8.5000000000  -999.250000  -999.250000  -999.250000 24.887807846 70.318534851 7.8130617142 54.936515808 6.3179998398  -999.250000 4.1393809319
 3069.1838379 8.4455003738 8.5000000000  -999.250000  -999.250000  -999.250000 25.211769104 69.900749207 7.5827302933 55.783660889 6.3179998398  -999.250000 4.1646404266
 3069.3361816 8.4554996490 8.5000000000  -999.250000  -999.250000  -999.250000 23.417192459 68.735771179 7.3520298004 56.632259369 6.3180999756  -999.250000 4.1900405884
 3069.4885254 8.4653997421 8.5000000000  -999.250000  -999.250000  -999.250000 21.058279037 67.441413879 7.1213307381 57.477809906 6.3180465698  -999.250000 4.2154235840
 3069.6408691 8.4666996002 8.5000000000  -999.250000  -999.250000  -999.250000 19.781318665 67.722015381 6.9533390999 56.485767365 6.2847423553  -999.250000 4.2300219536
 3069.7934570 8.4673004150 8.5000000000  -999.250000  -999.250000  -999.250000 21.944499969 69.111862183 6.7902789116 55.340641022 6.2486844063  -999.250000 4.2437438965
 3069.9458008 8.4679002762 8.5000000000  -999.250000  -999.250000  -999.250000 24.584922791 70.084213257 6.6278438568 54.199924469 6.2127466202  -999.250000 4.2574000359
 3070.0981445 8.4638996124 8.5000000000  -999.250000  -999.250000  -999.250000 28.314840317 69.556037903 6.5307025909 53.590396881 6.1795492172  -999.250000 4.2573876381
 3070.2504883 8.4575004578 8.5000000000  -999.250000  -999.250000  -999.250000 30.417551041 68.952598572 6.4700026512 53.276294708 6.1479487419  -999.250000 4.2496876717
 3070.4030762 8.4511003494 8.5000000000  -999.250000  -999.250000  -999.250000 29.961500168 69.157730103 6.4092683792 52.963050842 6.1162500381  -999.250000 4.2419533730
 3070.5554199 8.4455003738 8.5000000000  -999.250000  -999.250000  -999.250000 29.371730804 69.854881287 6.3996276855 53.042835236 6.1007199287  -999.250000 4.2273569107
