# LAS format log file from PETREL
# Project units are specified as depth units
#==================================================================
~Version information
VERS.   2.0:
WRAP.   NO:
#==================================================================
~Well
STRT .m      2674.6198730 :
STOP .m      4399.4833984 :
STEP .m     0.00000000 :
NULL .        -999.250000 :
COMP.           : COMPANY
WELL.  7/8-4 T2   : WELL
FLD.            : FIELD
LOC.            : LOCATION
SRVC.           : SERVICE COMPANY
DATE.  2018-09-11 21:49:25   : Log Export Date {yyyy-MM-dd HH:mm:ss}
PROV.           : PROVINCE
UWI.   7/8-4 T2   : UNIQUE WELL ID
API.            : API NUMBER
#==================================================================
~Curve
DEPT .m                   : DEPTH
DCAL .in                  : DCAL
CALI .in                  : CALI
BS .in                    : BS
ROP .m/h                  : ROP
DRHO .g/cm3               : DRHO
NPHI .m3/m3               : NPHI
RHOB .g/cm3               : RHOB
PEF .b/e                  : PEF
GR .gAPI                  : GR
DTC .us/ft                : DTC
RDEP .ohm.m               : RDEP
SP .mV                    : SP
RSHA .ohm.m               : RSHA
RMED .ohm.m               : RMED
~Parameter
#==================================================================
~Ascii
# ...
 3018.2819824 -0.023500001 12.226498604 12.250000954 98.148292542 -0.023453595 0.2442169935 2.4672999382 3.4773914814 94.731269836 102.52459717 0.9596834779 36.982700348 1.7857999802 1.3422000408
 3018.4345703 -0.019800000 12.230199814 12.250000954 98.469818115 -0.022577586 0.2511810064 2.4686000347 3.5344858170 95.147773743 102.89579773 0.9493551850 37.020900726 1.7410000563 1.3063000441
 3018.5869141 -0.006900000 12.243100166 12.250000954 98.247375488 -0.022136817 0.2549740076 2.4679999352 3.5300183296 94.920753479 103.16540527 0.9353730679 36.516601563 1.7538000345 1.2992000580
 3018.7392578 0.0131999999 12.263198853 12.250000954 97.613189697 -0.022022817 0.2563700080 2.4658999443 3.4790182114 94.207153320 103.35829926 0.9185730815 35.602199554 1.8099999428 1.3137999773
 3018.8916016 0.0331999995 12.283201218 12.250000954 96.979003906 -0.021910014 0.2577669919 2.4637000561 3.4280147552 93.493865967 103.55120087 0.9017789960 34.687900543 1.8660999537 1.3282999992
 3019.0441895 0.0450000018 12.295000076 12.250000954 96.423561096 -0.022548893 0.2600190043 2.4600000381 3.3747129440 92.976486206 103.97059631 0.8886878490 33.984600067 1.8930000067 1.3263000250
 3019.1965332 0.0362999998 12.286299706 12.250000954 96.061027527 -0.025011955 0.2643789947 2.4523000717 3.3163063526 92.939941406 104.94799805 0.8848937154 33.801399231 1.8479000330 1.2834000587
 3019.3488770 0.0276999995 12.277700424 12.250000954 95.698822021 -0.027478900 0.2687399983 2.4446001053 3.2578079700 92.903343201 105.92539978 0.8809939027 33.618301392 1.8027000427 1.2404999733
 3019.5012207 0.0188999996 12.268900871 12.250000954 95.335304260 -0.029907247 0.2730279863 2.4370999336 3.2006175518 92.870223999 106.88980103 0.8772022724 33.443199158 1.7578999996 1.1979999542
 3019.6535645 0.0000000000 12.250000954 12.250000954 94.849411011 -0.028189253 0.2682099938 2.4414999485 3.2740175724 93.197830200 106.21959686 0.8786022663 34.287799835 1.7580000162 1.2082999945
 3019.8061523 -0.018800000 12.231200218 12.250000954 94.363517761 -0.026472246 0.2633909881 2.4458999634 3.3475177288 93.525329590 105.54940033 0.8800023794 35.132301331 1.7581000328 1.2185000181
 3019.9584961 -0.037700001 12.212300301 12.250000954 93.877296448 -0.024755044 0.2585729957 2.4502999783 3.4209766388 93.855278015 104.87920380 0.8815037012 35.976799011 1.7582000494 1.2287000418
 3020.1108398 -0.043800000 12.206199646 12.250000954 93.738845825 -0.023535343 0.2561759949 2.4532999992 3.4687612057 95.652359009 104.63090515 0.8838042021 36.626598358 1.8092000484 1.2594000101
 3020.2631836 -0.045000002 12.204999924 12.250000954 93.730644226 -0.022500342 0.2546859980 2.4558000565 3.5070612431 98.000061035 104.54100800 0.8864041567 37.203201294 1.8792999983 1.2977999449
 3020.4157715 -0.046200000 12.203800201 12.250000954 93.722114563 -0.021466497 0.2531970143 2.4584000111 3.5453605652 100.34677124 104.45120239 0.8890073299 37.779800415 1.9493999481 1.3361999989
 3020.5681152 -0.046900004 12.203100204 12.250000954 94.141075134 -0.020998370 0.2529050112 2.4576001167 3.5641918182 101.23825073 104.61730194 0.8913028836 37.680099487 1.9451999664 1.3370000124
 3020.7204590 -0.046900004 12.203100204 12.250000954 95.089897156 -0.021229371 0.2540970147 2.4526998997 3.5590915680 100.33205414 105.10119629 0.8931028843 36.740898132 1.8489999771 1.2912000418
 3020.8728027 -0.046900004 12.203100204 12.250000954 96.038383484 -0.021460006 0.2552889884 2.4477000237 3.5538764000 99.425811768 105.58499908 0.8949027658 35.801700592 1.7526999712 1.2453999519
 3021.0253906 -0.046900004 12.203100204 12.250000954 96.903877258 -0.021459328 0.2560740113 2.4437003136 3.5389983654 98.433593750 105.93810272 0.8966035247 34.880199432 1.6777000427 1.2086999416
 3021.1777344 -0.046900004 12.203100204 12.250000954 97.347114563 -0.020314159 0.2548039854 2.4439001083 3.4760990143 97.026542664 105.63089752 0.8977017999 34.048198700 1.7101000547 1.2179000378
 3021.3300781 -0.046900004 12.203100204 12.250000954 97.790687561 -0.019166162 0.2535350025 2.4440999031 3.4129989147 95.617340088 105.32380676 0.8988018036 33.216201782 1.7424999475 1.2271000147
 3021.4824219 -0.046900004 12.203100204 12.250000954 98.234252930 -0.018022571 0.2522650063 2.4442999363 3.3501560688 94.209312439 105.01660919 0.8999186158 32.384101868 1.7748999596 1.2361999750
 3021.6350098 -0.046900004 12.203100204 12.250000954 98.784774780 -0.019005029 0.2527779937 2.4442000389 3.4478790760 93.525512695 105.09339905 0.9115415812 33.758399963 1.7920999527 1.2611000538
 3021.7873535 -0.046900004 12.203100204 12.250000954 99.349411011 -0.020262016 0.2535229921 2.4440000057 3.5661900043 92.938255310 105.22039795 0.9245208502 35.420700073 1.8072999716 1.2879999876
 3021.9396973 -0.046900004 12.203100204 12.250000954 99.914047241 -0.021517133 0.2542679906 2.4437999725 3.6844470501 92.353248596 105.34729004 0.9375128150 37.083099365 1.8224999905 1.3149000406
 3022.0920410 -0.046799999 12.203200340 12.250000954 100.15058899 -0.020974237 0.2538790107 2.4435000420 3.6512875557 93.761146545 105.19309998 0.9455072284 38.159500122 1.8371000290 1.3308000565
 3022.2443848 -0.046599999 12.203399658 12.250000954 100.17224121 -0.019250240 0.2527439892 2.4432001114 3.5187878609 96.476150513 104.85430145 0.9500073791 38.851200104 1.8514000177 1.3394999504
 3022.3969727 -0.046399999 12.203600883 12.250000954 100.19356537 -0.017525138 0.2516100109 2.4428000450 3.3863599300 99.191024780 104.51550293 0.9545941949 39.542900085 1.8655999899 1.3481999636
 3022.5493164 -0.045299996 12.204701424 12.250000954 100.09252167 -0.016009251 0.2504630089 2.4440000057 3.3116726875 100.50392151 104.34690094 0.9527755976 39.926101685 1.8533999920 1.3500000238
 3022.7016602 -0.042499997 12.207500458 12.250000954 99.733924866 -0.014918252 0.2492910028 2.4482998848 3.3570728302 98.897018433 104.53549194 0.9375758171 39.661899567 1.7855999470 1.3372999430
 3022.8540039 -0.039600000 12.210399628 12.250000954 99.375328064 -0.013827535 0.2481179982 2.4526000023 3.4024705887 97.290328979 104.72409821 0.9224758148 39.397701263 1.7178000212 1.3244999647
 3023.0065918 -0.037000000 12.213000298 12.250000954 98.957679749 -0.012924988 0.2469210029 2.4567999840 3.4465374947 95.818298340 104.92320251 0.9073561430 39.088199615 1.6519999504 1.3109999895
 3023.1589355 -0.038300000 12.211699486 12.250000954 97.193901062 -0.016041001 0.2451670021 2.4567000866 3.4582188129 97.254402161 105.36420441 0.8936780691 37.745601654 1.6309000254 1.2795000076
 3023.3112793 -0.039500002 12.210499763 12.250000954 95.430450439 -0.019162001 0.2434130013 2.4567000866 3.4700188637 98.692802429 105.80519867 0.8799778819 36.402900696 1.6097999811 1.2480000257
 3023.4636230 -0.040800001 12.209199905 12.250000954 93.666671753 -0.022278728 0.2416590005 2.4567000866 3.4817719460 100.12999725 106.24620056 0.8662011027 35.060199738 1.5887000561 1.2165000439
 3023.6162109 -0.042300001 12.207699776 12.250000954 93.668632507 -0.022731779 0.2461030036 2.4581999779 3.4642145634 100.75448608 106.05799866 0.8669163585 35.335601807 1.6075999737 1.2152999640
 3023.7685547 -0.044000000 12.206000328 12.250000954 94.224082947 -0.022351392 0.2524920106 2.4601998329 3.4375572205 101.12278748 105.67230225 0.8720081449 36.118801117 1.6391999722 1.2235000134
 3023.9208984 -0.045600001 12.204399109 12.250000954 94.779525757 -0.021973200 0.2588799894 2.4621999264 3.4109594822 101.49082947 105.28659821 0.8771142364 36.902099609 1.6706999540 1.2316999435
 3024.0732422 -0.046500001 12.203499794 12.250000954 95.651573181 -0.022724159 0.2563349903 2.4611999989 3.3856618404 101.32530975 104.79519653 0.8860206604 37.781501770 1.7180000544 1.2602000237
 3024.2255859 -0.046700001 12.203300476 12.250000954 96.865814209 -0.024695160 0.2441239953 2.4568998814 3.3618619442 100.58351135 104.18939972 0.8989206553 38.765098572 1.7824000120 1.3106000423
 3024.3781738 -0.046799999 12.203200340 12.250000954 98.080055237 -0.026667448 0.2319130003 2.4526000023 3.3380651474 99.842620850 103.58350372 0.9118387699 39.748699188 1.8467999697 1.3609999418
