# LAS format log file from PETREL
# Project units are specified as depth units
#==================================================================
~Version information
VERS.   2.0:
WRAP.   NO:
#==================================================================
~Well
STRT .m      2126.7421875 :
STOP .m      3314.5480957 :
STEP .m     0.00000000 :
NULL .        -999.250000 :
COMP.           : COMPANY
WELL.  7/8-1   : WELL
FLD.            : FIELD
LOC.            : LOCATION
SRVC.           : SERVICE COMPANY
DATE.  2018-09-11 21:49:23   : Log Export Date {yyyy-MM-dd HH:mm:ss}
PROV.           : PROVINCE
UWI.   7/8-1   : UNIQUE WELL ID
API.            : API NUMBER
#==================================================================
~Curve
DEPT .m                   : DEPTH
CALI .in                  : CALI
DRHO .g/cm3               : DRHO
NPHI .m3/m3               : NPHI
RHOB .g/cm3               : RHOB
GR .gAPI                  : GR
DTC .us/ft                : DTC
RDEP .ohm.m               : RDEP
SP .mV                    : SP
RSHA .ohm.m               : RSHA
RMIC .ohm.m               : RMIC
RMED .ohm.m               : RMED
~Parameter
#==================================================================
~Ascii
# ...
 2834.0307617 9.1759996414 0.0030000000 0.2190999985 2.3090000153 8.2840003967 80.984001160 0.4700999856 83.935501099 0.8330000043 0.5596274137 0.7875000238
 2834.1831055 9.1319999695 0.0040000002 0.2153999954 2.3229999542 8.4250001907 80.219001770 0.4982999861 83.650901794 0.8669999838 0.5905503631 0.8026999831
 2834.3354492 9.0889997482 0.0030000000 0.1981000006 2.3340001106 8.3879995346 79.112991333 0.5296999812 82.956802368 0.9150000215 0.6696730852 0.8190000057
 2834.4877930 9.0500001907 -0.007000000 0.1793999970 2.3480000496 8.3929996490 76.839996338 0.5611000061 82.841598511 0.9739999771 0.6094936132 0.8410000205
 2834.6403809 9.0170001984 -0.010000000 0.1759999990 2.3710000515 8.5679998398 74.566001892 0.6208000183 81.748001099 1.0349999666 0.6480378509 0.8748999834
 2834.7927246 8.9840002060 -0.002000000 0.1782999933 2.4030001163 8.8590002060 73.332000732 0.6970999837 81.739501953 1.1230000257 0.7575243711 0.9142000079
 2834.9450684 8.9589996338 0.0080000004 0.1756000072 2.4200000763 9.1409997940 72.400001526 0.7746000290 81.359100342 1.2150000334 1.0057020187 0.9563000202
 2835.0974121 8.9449996948 0.0099999998 0.1706999987 2.4260001183 9.5699996948 72.253997803 0.8517000079 80.654701233 1.3059999943 1.2898889780 1.0074000359
 2835.2500000 8.9350004196 0.0089999996 0.1635999978 2.4230000973 9.1090002060 72.291000366 0.9375000000 80.532203674 1.3999999762 1.0520831347 1.0635999441
 2835.4023438 8.9510002136 0.0060000001 0.1597000062 2.4149999619 9.1660003662 72.122001648 1.0306999683 80.655403137 1.4910000563 1.0720673800 1.1197999716
 2835.5546875 8.9910001755 0.0000000000 0.1569000036 2.4049999714 9.0819997787 71.806999207 1.1245000362 80.779800415 1.5509999990 1.1622552872 1.1638000011
 2835.7070313 9.0170001984 -0.009000000 0.1499000043 2.3980000019 9.1459999084 71.394996643 1.1806999445 81.180603027 1.6030000448 1.0288287401 1.1936999559
 2835.8596191 9.0290002823 -0.009000000 0.1464000046 2.4110000134 9.6560001373 70.691001892 1.2039999962 81.912002563 1.6299999952 1.0982878208 1.2187999487
 2836.0119629 9.0389995575 -0.003000000 0.1430999935 2.4210000038 9.9040002823 70.079002380 1.1892000437 82.180603027 1.6670000553 1.1607998610 1.2423000336
 2836.1643066 9.0430002213 0.0000000000 0.1402000040 2.4300000668 9.7580003738 70.055999756 1.1761000156 82.325103760 1.6900000572 1.3675682545 1.2651000023
 2836.3166504 9.0450000763 -0.003000000 0.1397999972 2.4360001087 9.3170003891 70.031997681 1.1907000542 82.386901855 1.7000000477 1.2748494148 1.2850999832
 2836.4689941 9.0170001984 -0.009000000 0.1424999982 2.4270000458 8.6560001373 70.165000916 1.2063000202 82.192497253 1.7079999447 1.2623397112 1.2989000082
 2836.6215820 8.9709997177 -0.008000000 0.1409000009 2.4200000763 7.9759998322 70.161003113 1.1804000139 82.043998718 1.6950000525 1.2241612673 1.3020000458
 2836.7739258 8.9409999847 0.0010000000 0.1440999955 2.4179999828 7.5260000229 70.375999451 1.1361000538 82.200401306 1.6779999733 1.2006376982 1.2960000038
 2836.9262695 8.9940004349 0.0020000001 0.1504999995 2.4200000763 7.7769999504 70.943000793 1.0577000380 81.845100403 1.6460000277 1.2896000147 1.2817000151
 2837.0786133 9.0340003967 0.0080000004 0.1642999947 2.4379999638 8.3940000534 71.926002502 0.9743000269 81.647399902 1.6169999838 1.3207999468 1.2609000206
 2837.2312012 9.0500001907 0.0240000002 0.1720999926 2.4340000153 8.4250001907 73.551002502 0.8917000294 81.617103577 1.5829999447 1.2994999886 1.2326999903
 2837.3835449 9.0290002823 0.0120000001 0.1824000031 2.3880000114 8.2089996338 75.071998596 0.8093000054 81.819396973 1.5180000067 1.1390000582 1.1986999512
 2837.5358887 8.9879999161 0.0010000000 0.1888000071 2.3580000401 7.8930001259 76.001998901 0.7730000019 81.426597595 1.4539999962 1.0183999538 1.1631000042
 2837.6882324 8.9560003281 0.0049999999 0.2009000033 2.3619999886 7.6929998398 75.978996277 0.7454000115 81.628997803 1.4099999666 0.8938999772 1.1262999773
 2837.8408203 8.9409999847 0.0250000004 0.1911000013 2.3650000095 7.9679999352 75.320999146 0.7233999968 80.867996216 1.3960000277 0.7856000066 1.0946999788
 2837.9931641 8.9799995422 0.0170000009 0.1881999969 2.3719999790 8.4600000381 74.527000427 0.7082999945 80.665901184 1.3739999533 0.7820000052 1.0750000477
 2838.1455078 8.9790000916 0.0060000001 0.1855999976 2.3870000839 8.8290004730 74.489997864 0.6949999928 79.860900879 1.3509999514 0.7965999842 1.0643999577
 2838.2978516 8.9799995422 0.0070000002 0.1861999929 2.3989999294 8.3479995728 74.452003479 0.6818000078 79.859100342 1.3400000334 0.8503000140 1.0583000183
 2838.4504395 9.0190000534 0.0010000000 0.1834000051 2.3810000420 7.5040001869 75.203002930 0.6952000260 81.255798340 1.3430000544 0.9646000266 1.0556999445
 2838.6027832 9.0880002975 -0.001000000 0.1886000037 2.3529999256 6.8769998550 75.652000427 0.6988000274 81.052696228 1.3389999866 0.9412999749 1.0529999733
 2838.7551270 9.1280002594 -0.001000000 0.1912000030 2.3440001011 6.8379998207 75.830001831 0.6923999786 80.664703369 1.3400000334 0.8220999837 1.0490000248
 2838.9074707 9.0839996338 -0.005000000 0.1844000071 2.3410000801 7.1739997864 75.957000732 0.6700999737 80.483596802 1.3420000076 0.7889000177 1.0456000566
 2839.0598145 9.0439996719 -0.001000000 0.1887000054 2.3469998837 7.6659998894 76.024009705 0.6445999742 81.664703369 1.3470000029 0.7753999829 1.0425000191
 2839.2124023 9.0170001984 0.0030000000 0.1851000041 2.3480000496 8.3610000610 76.088996887 0.6269000173 80.875000000 1.3630000353 0.6620000005 1.0419000387
 2839.3647461 9.0050001144 0.0060000001 0.1811999977 2.3610000610 8.7770004272 75.749000549 0.6111000180 81.474197388 1.3940000534 0.7128999829 1.0476000309
 2839.5170898 8.9989995956 -0.004000000 0.1828999966 2.3659999371 8.2100000381 74.689002991 0.6427000165 81.478202820 1.5210000277 0.7745000124 1.0657999516
 2839.6694336 9.0120000839 -0.010000000 0.1732999980 2.3580000401 7.4359998703 73.208999634 0.7322999835 81.482101440 1.6569999456 0.7972999811 1.1137000322
 2839.8220215 9.0260000229 0.0040000002 0.1490000039 2.3710000515 6.7550001144 71.387001038 0.8604000211 81.324302673 1.7899999619 0.7703999877 1.1887999773
 2839.9743652 9.0270004272 0.0170000009 0.1280000061 2.4219999313 7.0789999962 69.066001892 1.0167000294 81.688499451 1.9240000248 0.8391000032 1.2683000565
 2840.1267090 9.0200004578 0.0160000008 0.1089000031 2.4649999142 7.9359998703 67.101997375 1.2750999928 81.494003296 2.1080000401 0.9067000151 1.3680000305
 2840.2790527 9.0010004044 0.0030000000 0.0894000009 2.5039999485 11.253000259 65.089996338 1.6395000219 81.498001099 2.3640000820 1.1112999916 1.5355000496
 2840.4316406 8.9820003510 -0.013000000 0.0769999996 2.5230000019 11.796999931 63.125000000 2.3578000069 81.357002258 2.5880000591 1.5678999424 1.5468000174
 2840.5839844 8.9670000076 -0.008000000 0.0759000033 2.5629999638 12.307000160 62.560001373 3.7139000893 81.109100342 2.7590000629 2.7539999485 1.5845999718
 2840.7363281 8.9580001831 -0.002000000 0.0745000020 2.5780000687 12.156000137 61.995998383 6.0226001740 80.914703369 2.8680000305 4.7094001770 1.6426000595
 2840.8886719 8.9569997787 -0.005000000 0.0806000009 2.5720000267 11.130000114 62.213001251 9.6681995392 80.654998779 2.9030001163 6.5590000153 1.6936999559
 2841.0410156 8.9600000381 -0.007000000 0.0925000012 2.5320000648 12.142999649 63.759998322 9.9162998199 80.724197388 2.8819999695 6.3838000298 1.7265000343
 2841.1936035 8.9549999237 0.0070000002 0.1093999967 2.5099999905 13.746000290 65.193000793 7.4450001717 80.728202820 2.8629999161 6.3832001686 1.7409000397
 2841.3459473 8.9630002975 0.0060000001 0.1221999973 2.5039999485 14.435000420 66.387001038 4.5395998955 80.930496216 2.8050000668 4.3123002052 1.7252000570
 2841.4982910 8.9820003510 0.0020000001 0.1321000010 2.4839999676 13.852000237 67.410003662 3.0304999352 80.934501648 2.7360000610 2.6289999485 1.6785000563
 2841.6506348 9.0069999695 0.0089999996 0.1350000054 2.4679999352 13.291000366 68.008003235 2.0646998882 80.603500366 2.6659998894 2.0908999443 1.6098999977
