# LAS format log file from PETREL
# Project units are specified as depth units
#==================================================================
~Version information
VERS.   2.0:
WRAP.   NO:
#==================================================================
~Well
STRT .m      2127.0468750 :
STOP .m      3314.3952637 :
STEP .m     0.00000000 :
NULL .        -999.250000 :
COMP.           : COMPANY
WELL.  7/8-1 T2   : WELL
FLD.            : FIELD
LOC.            : LOCATION
SRVC.           : SERVICE COMPANY
DATE.  2018-09-11 21:49:23   : Log Export Date {yyyy-MM-dd HH:mm:ss}
PROV.           : PROVINCE
UWI.   7/8-1 T2   : UNIQUE WELL ID
API.            : API NUMBER
#==================================================================
~Curve
DEPT .m                   : DEPTH
CALI .in                  : CALI
BS .in                    : BS
DRHO .g/cm3               : DRHO
NPHI .m3/m3               : NPHI
RHOB .g/cm3               : RHOB
GR .gAPI                  : GR
DTC .us/ft                : DTC
RDEP .ohm.m               : RDEP
SP .mV                    : SP
RSHA .ohm.m               : RSHA
RMIC .ohm.m               : RMIC
RMED .ohm.m               : RMED
~Parameter
#==================================================================
~Ascii
# ...
 2207.5141602 9.3018999100 8.5000000000 -0.001245192 0.3521060944 2.2738881111 58.538162231 125.04248047 0.4887110591 47.575939178 0.8327823281 0.7836999893 0.8301719427
 2207.6665039 9.2976999283 8.5000000000 0.0087119993 0.3590281010 2.2664880753 60.159328461 125.70832062 0.4956108630 47.037536621 0.8217824101 0.6500999928 0.8126719594
 2207.8188477 9.2934999466 8.5000000000 0.0177403837 0.3659400046 2.2590000629 64.357742310 130.09494019 0.5023999810 46.500000000 0.8108000159 0.5166000128 0.7951999903
 2207.9711914 9.2892999649 8.5000000000 0.0257692318 0.3728620112 2.2514998913 71.836517334 136.71015930 0.5091999769 45.961601257 0.7997999787 0.3831000030 0.7777000070
 2208.1237793 9.2558002472 8.5000000000 0.0133541673 0.3742621839 2.2421844006 78.982002258 140.38291931 0.4983762801 45.934650421 0.7708471417 0.3582000136 0.7697910070
 2208.2761230 9.2154998779 8.5000000000 -0.004481600 0.3743751645 2.2324843407 83.021957397 141.64973450 0.4835761487 46.026649475 0.7378472090 0.3587000072 0.7641910315
 2208.4284668 9.1752004623 8.5000000000 -0.016653847 0.3744879961 2.2227001190 84.600494385 141.44161987 0.4686999917 46.118598938 0.7049000263 0.3591000140 0.7585999966
 2208.5808105 9.1702003479 8.5000000000 -0.014086539 0.3786959946 2.2179999352 84.291465759 141.43440247 0.4605999887 46.161300659 0.6876999736 0.3657000065 0.7541000247
 2208.7333984 9.1964998245 8.5000000000 -0.006217949 0.3865435421 2.2177996635 82.283927917 141.66639709 0.4584966302 46.160499573 0.6843948960 0.3776000142 0.7505943775
 2208.8857422 9.2228002548 8.5000000000 0.0007984000 0.3943741322 2.2176041603 80.669227600 142.37779236 0.4563926458 46.159511566 0.6811947227 0.3894999921 0.7470953465
 2209.0380859 9.2433004379 8.5000000000 0.0048846151 0.3994418681 2.2201170921 81.509666443 142.85194397 0.4517809451 46.104652405 0.6778948903 0.3964999914 0.7441980839
 2209.1904297 9.2465000153 8.5000000000 0.0098557686 0.3962369859 2.2309000492 82.120635986 142.86540222 0.4399000108 45.888698578 0.6747000217 0.3890999854 0.7429999709
 2209.3430176 9.2496004105 8.5000000000 0.0148637816 0.3930208385 2.2416174412 79.134132385 141.47338867 0.4278809130 45.671951294 0.6713947058 0.3817000091 0.7418981194
 2209.4953613 9.2526998520 8.5000000000 0.0257003214 0.3898132741 2.2523965836 76.756240845 140.50637817 0.4159806073 45.454891205 0.6680992246 0.3741999865 0.7406852841
 2209.6477051 9.2919998169 8.5000000000 0.0046336004 0.3887263536 2.2502958775 77.146522522 139.79959106 0.4038806260 44.763366699 0.6675992012 0.4070999920 0.7314850092
 2209.8000488 9.3324003220 8.5000000000 0.0020576925 0.3877089918 2.2478001118 77.888366699 139.07035828 0.3917999864 44.057498932 0.6671000123 0.4413000047 0.7221000195
 2209.9523926 9.3727998734 8.5000000000 0.0165673085 0.3866899908 2.2453999519 77.318572998 139.04930115 0.3797000051 43.350498199 0.6665999889 0.4754999876 0.7127000093
 2210.1049805 9.3872003555 8.5000000000 0.0208910257 0.3866235912 2.2416932583 76.483886719 140.44140625 0.3712891042 42.876712799 0.6596843004 0.4810999930 0.7061918378
 2210.2573242 9.3898000717 8.5000000000 0.0132304002 0.3869875968 2.2374930382 75.664611816 140.03083801 0.3644892573 42.509513855 0.6498843431 0.4736999869 0.7010916471
 2210.4096680 9.3924999237 8.5000000000 0.0081442315 0.3873510063 2.2332003117 75.529319763 139.07722473 0.3578000069 42.142898560 0.6401000023 0.4663999975 0.6959000230
 2210.5620117 9.3872003555 8.5000000000 0.0186826922 0.3851419985 2.2284998894 77.708183289 138.58605957 0.3544000089 41.854598999 0.6312999725 0.4623999894 0.6934999824
 2210.7145996 9.3702001572 8.5000000000 0.0073269233 0.3791714311 2.2229914665 77.892654419 139.26831055 0.3559022248 41.680721283 0.6238883138 0.4634000063 0.6950023770
 2210.8669434 9.3533000946 8.5000000000 -0.002712000 0.3732116818 2.2175931931 77.660972595 139.76524353 0.3573029041 41.507278442 0.6165894270 0.4643000066 0.6965023875
 2211.0192871 9.3402004242 8.5000000000 -0.006884615 0.3680373132 2.2133064270 76.303123474 139.99694824 0.3591054678 41.369373322 0.6099982262 0.4652000070 0.6980030537
 2211.1716309 9.3529996872 8.5000000000 -0.005057692 0.3682509959 2.2172999382 75.387992859 139.54016113 0.3625000119 41.475898743 0.6089000106 0.4652000070 0.6998999715
 2211.3242188 9.3657999039 8.5000000000 -0.003054487 0.3684653640 2.2212064266 75.987480164 139.52639771 0.3660055995 41.582771301 0.6078982353 0.4652999938 0.7017030120
 2211.4765625 9.3786001205 8.5000000000 0.0008910257 0.3686842322 2.2252020836 77.590591431 139.29429626 0.3695046604 41.688625336 0.6068131328 0.4654000103 0.7036062479
 2211.6289063 9.3854999542 8.5000000000 0.0087695997 0.3713289499 2.2266011238 78.064277649 139.07142639 0.3724046350 41.330188751 0.6150158644 0.4684000015 0.7075067163
 2211.7812500 9.3913002014 8.5000000000 0.0070576924 0.3744130135 2.2274000645 76.791191101 139.04975891 0.3752999902 40.887298584 0.6248999834 0.4720000029 0.7117000222
 2211.9335938 9.3971996307 8.5000000000 -0.002711538 0.3775019944 2.2283000946 78.362205505 139.51263428 0.3781999946 40.443698883 0.6348000169 0.4754999876 0.7159000039
 2212.0861816 9.3943004608 8.5000000000 0.0018637822 0.3687845170 2.2387280464 76.661956787 140.22241211 0.3863195479 40.133167267 0.6493290067 0.4842999876 0.7274272442
 2212.2385254 9.3846998215 8.5000000000 0.0097695999 0.3510015309 2.2563283443 73.905288696 140.48645020 0.3985193670 39.925868988 0.6674289703 0.4970000088 0.7444270849
 2212.3908691 9.3751001358 8.5000000000 0.0099999998 0.3332470059 2.2739999294 71.626304626 139.32258606 0.4106000066 39.718898773 0.6855000257 0.5097000003 0.7613000274
 2212.5432129 9.3641004562 8.5000000000 0.0099999998 0.3225109875 2.2923998833 67.672500610 130.94927979 0.4198000133 39.589199066 0.7020000219 0.5442000031 0.7743999958
 2212.6958008 9.3496999741 8.5000000000 0.0012451924 0.3296003640 2.3125321865 61.668907166 120.49320984 0.4215028882 39.655506134 0.7143198252 0.6338999867 0.7777051330
 2212.8481445 9.3353996277 8.5000000000 -0.008711999 0.3366773427 2.3326320648 58.438892365 117.70781708 0.4233027101 39.721702576 0.7267197371 0.7235000134 0.7809051275
 2213.0004883 9.3211002350 8.5000000000 0.0055673076 0.3437731862 2.3525297642 61.701393127 118.51172638 0.4249774516 39.786533356 0.7389721870 0.8126000166 0.7840564847
 2213.1528320 9.3474998474 8.5000000000 0.0176538453 0.3551220000 2.3087000847 69.250724792 125.71822357 0.4108999968 39.495098114 0.7215999961 0.6912000179 0.7569000125
 2213.3054199 9.3739004135 8.5000000000 -0.001455128 0.3665072024 2.2646296024 73.668472290 134.97978210 0.3967774212 39.202831268 0.7041723132 0.5698000193 0.7297564149
 2213.4577637 9.4003000259 8.5000000000 -0.002972757 0.3778629601 2.2207796574 76.462059021 140.10543823 0.3826732337 38.911521912 0.6868577003 0.4483999908 0.7025812268
 2213.6101074 9.3906002045 8.5000000000 0.0067120004 0.3822036088 2.2080988884 76.723464966 141.41151428 0.3659715056 38.926212311 0.6604521275 0.4199999869 0.6908907294
 2213.7624512 9.3669996262 8.5000000000 0.0031153846 0.3838399947 2.2072999477 77.124259949 142.12960815 0.3481999934 39.058601379 0.6305999756 0.4273000062 0.6851000190
 2213.9147949 9.3434000015 8.5000000000 -0.001855769 0.3854779899 2.2065999508 78.503379822 142.61323547 0.3305000067 39.191101074 0.6007999778 0.4345999956 0.6793000102
 2214.0673828 9.3313999176 8.5000000000 -0.002972757 0.3843265176 2.2097127438 76.766777039 141.93090820 0.3254177868 39.292098999 0.5846018791 0.4323000014 0.6787097454
 2214.2197266 9.3339996338 8.5000000000 0.0018560000 0.3796535134 2.2176127434 74.927078247 140.99711609 0.3365177512 39.352897644 0.5858018994 0.4178000093 0.6848098040
 2214.3720703 9.3366003036 8.5000000000 0.0058846152 0.3749870062 2.2255001068 74.188362122 141.18939209 0.3476000130 39.413600922 0.5870000124 0.4032000005 0.6909000278
 2214.5244141 9.3394002914 8.5000000000 0.0098846154 0.3694930077 2.2332003117 75.197418213 140.03779602 0.3587999940 39.494201660 0.5918999910 0.3932000101 0.6977000237
 2214.6770020 9.3431997299 8.5000000000 0.0158365387 0.3596782982 2.2396101952 78.362220764 138.84329224 0.3703182638 39.679496765 0.6160386205 0.4066999853 0.7083171606
