# LAS format log file from PETREL
# Project units are specified as depth units
#==================================================================
~Version information
VERS.   2.0:
WRAP.   NO:
#==================================================================
~Well
STRT .m      1216.1519775 :
STOP .m      3001.3652344 :
STEP .m     0.00000000 :
NULL .        -999.250000 :
COMP.           : COMPANY
WELL.  7/8-2 Cero   : WELL
FLD.            : FIELD
LOC.            : LOCATION
SRVC.           : SERVICE COMPANY
DATE.  2018-09-11 21:49:23   : Log Export Date {yyyy-MM-dd HH:mm:ss}
PROV.           : PROVINCE
UWI.   7/8-2   : UNIQUE WELL ID
API.            : API NUMBER
#==================================================================
~Curve
DEPT .m                   : DEPTH
CALI .in                  : CALI
BS .in                    : BS
DRHO .g/cm3               : DRHO
RHOB .g/cm3               : RHOB
GR .gAPI                  : GR
DTC .us/ft                : DTC
RDEP .ohm.m               : RDEP
SP .mV                    : SP
RSHA .ohm.m               : RSHA
RMED .ohm.m               : RMED
~Parameter
#==================================================================
~Ascii
# ...
 2163.4702148 12.817199707 12.250000954  -999.250000  -999.250000 57.791034698 133.45114136 0.5283935666 -32.67699432 0.6936051250 0.6403018832
 2163.6225586 12.776200294 12.250000954  -999.250000  -999.250000 58.105499268 133.05792236 0.5343903899 -32.70046234 0.6906048059 0.6349086165
 2163.7751465 12.734299660 12.250000954  -999.250000  -999.250000 58.122798920 132.72619629 0.5410000086 -32.72880173 0.6876000166 0.6284999847
 2163.9274902 12.692500114 12.250000954  -999.250000  -999.250000 58.139701843 132.39520264 0.5475999713 -32.75719833 0.6844999790 0.6220999956
 2164.0798340 12.706000328 12.250000954  -999.250000  -999.250000 58.042255402 132.40808105 0.5511941910 -32.72904587 0.6823034883 0.6179067492
 2164.2321777 12.769499779 12.250000954  -999.250000  -999.250000 57.841224670 132.73167419 0.5522981882 -32.64972687 0.6809022427 0.6158033609
 2164.3847656 12.833100319 12.250000954  -999.250000  -999.250000 57.639701843 133.05639648 0.5533999801 -32.57020187 0.6794000268 0.6137999892
 2164.5371094 12.887700081 12.250000954  -999.250000  -999.250000 57.954299927 133.51049805 0.5529999733 -32.51570129 0.6776999831 0.6105999947
 2164.6894531 12.914799690 12.250000954  -999.250000  -999.250000 59.863239288 134.36552429 0.5480079651 -32.53826523 0.6755034924 0.6039107442
 2164.8417969 12.941900253 12.250000954  -999.250000  -999.250000 61.775238037 135.22192383 0.5430079699 -32.56076431 0.6733035445 0.5973105431
 2164.9943848 12.969000816 12.250000954  -999.250000  -999.250000 63.690200806 136.07969666 0.5379999876 -32.58340073 0.6711000204 0.5906999707
 2165.1467285 12.946499825 12.250000954  -999.250000  -999.250000 63.895000458 137.29280090 0.5353999734 -32.21160126 0.6692000031 0.5752999783
 2165.2990723 12.922100067 12.250000954  -999.250000  -999.250000 64.034477234 138.51753235 0.5329039693 -31.82532120 0.6673030257 0.5596250892
 2165.4514160 12.897700310 12.250000954  -999.250000  -999.250000 64.174079895 139.74423218 0.5304039717 -31.43841934 0.6655028462 0.5438253284
 2165.6037598 12.890000343 12.250000954  -999.250000  -999.250000 62.505279541 140.07786560 0.5181197524 -31.41394043 0.6555160284 0.5364118814
 2165.7563477 12.890000343 12.250000954  -999.250000  -999.250000 59.987998962 139.99440002 0.5012999773 -31.55890083 0.6417000294 0.5327000022
 2165.9086914 12.890000343 12.250000954  -999.250000  -999.250000 57.477424622 139.91064453 0.4845268726 -31.70356750 0.6279220581 0.5291057825
 2166.0610352 12.885299683 12.250000954  -999.250000  -999.250000 55.584133148 139.96281433 0.4705224335 -31.81142426 0.6153202057 0.5252062678
 2166.2133789 12.873500824 12.250000954  -999.250000  -999.250000 54.617843628 140.21809387 0.4606158435 -31.86371803 0.6047170162 0.5210067630
 2166.3659668 12.861700058 12.250000954  -999.250000  -999.250000 53.651500702 140.47419739 0.4508000016 -31.91610146 0.5939999819 0.5167000294
 2166.5183105 12.840300560 12.250000954  -999.250000  -999.250000 52.985000610 140.64959717 0.4408000112 -31.99059868 0.5842999816 0.5134000182
 2166.6706543 12.748800278 12.250000954  -999.250000  -999.250000 54.488990784 140.24105835 0.4303168058 -32.22692108 0.5814046264 0.5167945623
 2166.8229980 12.657401085 12.250000954  -999.250000  -999.250000 55.995285034 139.83186340 0.4198168516 -32.46372223 0.5786044598 0.5201945901
 2166.9755859 12.565898895 12.250000954  -999.250000  -999.250000 57.504100800 139.42199707 0.4093999863 -32.70090103 0.5758000016 0.5235999823
 2167.1279297 12.460100174 12.250000954  -999.250000  -999.250000 58.154998779 139.42250061 0.4068999887 -32.74029922 0.5724999905 0.5218999982
 2167.2802734 12.351499557 12.250000954  -999.250000  -999.250000 58.642219543 139.50097656 0.4059016109 -32.74209595 0.5690056086 0.5192043185
 2167.4326172 12.242899895 12.250000954  -999.250000  -999.250000 59.130119324 139.57957458 0.4050014317 -32.74379730 0.5655056238 0.5165043473
 2167.5849609 12.190999985 12.250000954  -999.250000  -999.250000 59.159053802 139.89779663 0.4006070495 -32.77654648 0.5648011565 0.5120072365
 2167.7375488 12.183699608 12.250000954  -999.250000  -999.250000 58.824600220 140.40640259 0.3935000002 -32.83380127 0.5662000179 0.5060999990
 2167.8898926 12.176400185 12.250000954  -999.250000  -999.250000 58.490734100 140.91369629 0.3864113688 -32.89080811 0.5676976442 0.5002093911
 2168.0422363 12.174698830 12.250000954  -999.250000  -999.250000 58.240901947 141.18995667 0.3802099228 -32.89629364 0.5681992173 0.4956073463
 2168.1945801 12.187500000 12.250000954  -999.250000  -999.250000 58.210750580 140.86442566 0.3761065602 -32.76750565 0.5661033392 0.4945017695
 2168.3471680 12.200200081 12.250000954  -999.250000  -999.250000 58.180900574 140.53739929 0.3720999956 -32.63830185 0.5641000271 0.4934000075
 2168.4995117 12.213000298 12.250000954  -999.250000  -999.250000 58.151100159 140.21090698 0.3680000007 -32.50930023 0.5619999766 0.4921999872
 2168.6518555 12.260999680 12.250000954  -999.250000  -999.250000 58.251239777 140.08619690 0.3685990572 -32.36942673 0.5547116995 0.4920003414
 2168.8041992 12.309200287 12.250000954  -999.250000  -999.250000 58.351940155 139.96189880 0.3691990376 -32.22922516 0.5473118424 0.4918003380
 2168.9567871 12.357399940 12.250000954  -999.250000  -999.250000 58.452800751 139.83740234 0.3698000014 -32.08890152 0.5400000215 0.4916000068
 2169.1091309 12.413998604 12.250000954  -999.250000  -999.250000 57.703498840 134.66290283 0.3736000061 -31.91209984 0.5357999802 0.4979999959
 2169.2614746 12.473898888 12.250000954  -999.250000  -999.250000 56.619735718 127.50206757 0.3785920143 -31.72100449 0.5329046249 0.5069856048
 2169.4138184 12.533799171 12.250000954  -999.250000  -999.250000 55.534137726 120.32978821 0.3835919797 -31.52970695 0.5299048424 0.5159855485
 2169.5661621 12.632100105 12.250000954  -999.250000  -999.250000 55.450134277 117.54524994 0.3873939216 -31.52420807 0.5366891026 0.5136038661
 2169.7187500 12.780099869 12.250000954  -999.250000  -999.250000 56.666599274 120.45520020 0.3894999921 -31.76020050 0.5558999777 0.4964999855
 2169.8710938 12.928199768 12.250000954  -999.250000  -999.250000 57.881355286 123.36483765 0.3916964829 -31.99572372 0.5751691461 0.4794273674
 2170.0234375 13.038000107 12.250000954  -999.250000  -999.250000 58.738727570 126.66800690 0.3926983774 -32.22443390 0.5892773867 0.4646237195
 2170.1757813 12.939800262 12.250000954  -999.250000  -999.250000 57.634372711 132.09350586 0.3874084949 -32.41320038 0.5754222870 0.4623036981
 2170.3283691 12.841600418 12.250000954  -999.250000  -999.250000 56.525100708 137.53109741 0.3819999993 -32.60229874 0.5615000129 0.4600999951
 2170.4807129 12.743398666 12.250000954  -999.250000  -999.250000 55.417598724 142.96000671 0.3767000139 -32.79100037 0.5475999713 0.4578999877
 2170.6330566 12.758999825 12.250000954  -999.250000  -999.250000 54.986789703 142.83909607 0.3724068701 -32.94176102 0.5355193615 0.4590981007
 2170.7854004 12.791000366 12.250000954  -999.250000  -999.250000 54.652534485 141.91937256 0.3682067394 -33.08726883 0.5236190557 0.4608971179
 2170.9379883 12.823100090 12.250000954  -999.250000  -999.250000 54.317901611 140.99690247 0.3641000092 -33.23289871 0.5116999745 0.4627000093
 2171.0903320 12.901700020 12.250000954  -999.250000  -999.250000 53.605998993 140.45199585 0.3653999865 -33.22489929 0.5078999996 0.4657000005
 2171.2426758 13.012398720 12.250000954  -999.250000  -999.250000 52.636653900 140.16555786 0.3703920245 -33.11187744 0.5097969770 0.4695937634
 2171.3950195 13.123100281 12.250000954  -999.250000  -999.250000 51.665756226 139.87866211 0.3753919899 -32.99858475 0.5117967725 0.4733939171
 2171.5473633 13.219699860 12.250000954  -999.250000  -999.250000 51.035011292 139.97863770 0.3812905550 -32.83236694 0.5154941082 0.4741987288
 2171.6999512 13.285300255 12.250000954  -999.250000  -999.250000 51.153999329 140.93240356 0.3889000118 -32.54899979 0.5234000087 0.4681999981
 2171.8522949 13.350998878 12.250000954  -999.250000  -999.250000 51.273910522 141.88447571 0.3964878321 -32.26635361 0.5311875343 0.4622095823
