# LAS format log file from PETREL
# Project units are specified as depth units
#==================================================================
~Version information
VERS.   2.0:
WRAP.   NO:
#==================================================================
~Well
STRT .m      1216.1519775 :
STOP .m      3001.3652344 :
STEP .m     0.00000000 :
NULL .        -999.250000 :
COMP.           : COMPANY
WELL.  7/8-2 Cero   : WELL
FLD.            : FIELD
LOC.            : LOCATION
SRVC.           : SERVICE COMPANY
DATE.  2018-09-11 21:49:23   : Log Export Date {yyyy-MM-dd HH:mm:ss}
PROV.           : PROVINCE
UWI.   7/8-2   : UNIQUE WELL ID
API.            : API NUMBER
#==================================================================
~Curve
DEPT .m                   : DEPTH
CALI .in                  : CALI
BS .in                    : BS
DRHO .g/cm3               : DRHO
RHOB .g/cm3               : RHOB
GR .gAPI                  : GR
DTC .us/ft                : DTC
RDEP .ohm.m               : RDEP
SP .mV                    : SP
RSHA .ohm.m               : RSHA
RMED .ohm.m               : RMED
~Parameter
#==================================================================
~Ascii
# ...
 1574.5968018 12.575899124 12.250000954  -999.250000  -999.250000 82.672096252 153.34620667 0.7247999907 -39.51670074 0.8632000089 0.8690999746
 1574.7492676 12.592700005 12.250000954  -999.250000  -999.250000 84.435203552 153.22862244 0.7343999743 -39.69139862 0.8668000102 0.8680999875
 1574.9016113 12.609499931 12.250000954  -999.250000  -999.250000 86.198303223 153.11099243 0.7440000176 -39.86610031 0.8704000115 0.8671000004
 1575.0540771 12.628999710 12.250000954  -999.250000  -999.250000 87.403800964 152.17129517 0.7572000027 -39.91180038 0.8797000051 0.8705999851
 1575.2064209 12.653499603 12.250000954  -999.250000  -999.250000 87.593399048 149.73370361 0.7768999934 -39.72249985 0.8992999792 0.8823999763
 1575.3587646 12.677899361 12.250000954  -999.250000  -999.250000 87.783096313 147.29600525 0.7967000008 -39.53319931 0.9189000130 0.8941000104
 1575.5112305 12.701000214 12.250000954  -999.250000  -999.250000 87.765998840 145.01080322 0.8154000044 -39.35779953 0.9375000000 0.9057999849
 1575.6635742 12.706700325 12.250000954  -999.250000  -999.250000 85.142898560 144.64739990 0.8208000064 -39.35820007 0.9424999952 0.9168999791
 1575.8160400 12.712400436 12.250000954  -999.250000  -999.250000 82.519699097 144.28399658 0.8262000084 -39.35850143 0.9476000071 0.9280999899
 1575.9683838 12.718099594 12.250000954  -999.250000  -999.250000 79.896598816 143.92050171 0.8316000104 -39.35889816 0.9526000023 0.9391999841
 1576.1208496 12.722200394 12.250000954  -999.250000  -999.250000 80.188598633 146.19720459 0.8187999725 -39.21989822 0.9462000132 0.9326000214
 1576.2731934 12.725900650 12.250000954  -999.250000  -999.250000 81.243301392 149.16439819 0.8012999892 -39.04449844 0.9366999865 0.9214000106
 1576.4256592 12.729701042 12.250000954  -999.250000  -999.250000 82.297897339 152.13169861 0.7839000225 -38.86909866 0.9272999763 0.9100999832
 1576.5780029 12.745200157 12.250000954  -999.250000  -999.250000 82.928100586 153.27879333 0.7688000202 -38.79639816 0.9178000093 0.8996999860
 1576.7304688 12.771900177 12.250000954  -999.250000  -999.250000 83.153503418 152.68969727 0.7560999990 -38.82180023 0.9082000256 0.8899999857
 1576.8828125 12.798600197 12.250000954  -999.250000  -999.250000 83.378898621 152.10060120 0.7433999777 -38.84709930 0.8985999823 0.8802999854
 1577.0352783 12.822899818 12.250000954  -999.250000  -999.250000 83.701103210 151.57002258 0.7337999940 -38.86780167 0.8913999796 0.8723999858
 1577.1876221 12.838999748 12.250000954  -999.250000  -999.250000 84.345703125 151.23449707 0.7343999743 -38.87279892 0.8921999931 0.8707000017
 1577.3400879 12.855098724 12.250000954  -999.250000  -999.250000 84.990402222 150.89900208 0.7350000143 -38.87779999 0.8930000067 0.8690000176
 1577.4924316 12.871199608 12.250000954  -999.250000  -999.250000 85.635002136 150.56350708 0.7357000113 -38.88270187 0.8938000202 0.8672000170
 1577.6447754 12.880998611 12.250000954  -999.250000  -999.250000 84.725303650 150.48829651 0.7440999746 -39.00419998 0.8896999955 0.8680999875
 1577.7972412 12.890501022 12.250000954  -999.250000  -999.250000 83.734001160 150.42671204 0.7529000044 -39.13190079 0.8852000237 0.8690000176
 1577.9495850 12.899999619 12.250000954  -999.250000  -999.250000 82.742599487 150.36511230 0.7616999745 -39.25949860 0.8808000088 0.8700000048
 1578.1020508 12.944699287 12.250000954  -999.250000  -999.250000 83.503898621 150.47340393 0.7638000250 -39.33489990 0.8806999922 0.8711000085
 1578.2543945 13.006799698 12.250000954  -999.250000  -999.250000 85.131202698 150.66560364 0.7626000047 -39.38449860 0.8827000260 0.8723000288
 1578.4068604 13.069000244 12.250000954  -999.250000  -999.250000 86.758499146 150.85780334 0.7613999844 -39.43420029 0.8847000003 0.8736000061
 1578.5592041 13.118999481 12.250000954  -999.250000  -999.250000 87.558097839 151.03939819 0.7667999864 -39.47190094 0.8881000280 0.8747000098
 1578.7114258 13.149700165 12.250000954  -999.250000  -999.250000 87.055610657 151.20393372 0.7824748755 -39.49106979 0.8938906789 0.8756983876
 1578.8638916 13.180499077 12.250000954  -999.250000  -999.250000 86.551902771 151.36886597 0.7981874347 -39.51018524 0.8996953368 0.8767991066
 1579.0162354 13.212200165 12.250000954  -999.250000  -999.250000 86.059783936 150.88739014 0.8141743541 -39.50450897 0.9057902098 0.8779981136
 1579.1687012 13.250900269 12.250000954  -999.250000  -999.250000 85.657318115 145.04168701 0.8328850269 -39.29376602 0.9153923392 0.8802981377
 1579.3210449 13.289699554 12.250000954  -999.250000  -999.250000 85.255638123 139.19676208 0.8515700698 -39.08293915 0.9249846339 0.8826962113
 1579.4735107 13.328499794 12.250000954  -999.250000  -999.250000 84.853317261 133.34248352 0.8702850342 -38.87186813 0.9344923496 0.8850980997
 1579.6258545 13.340200424 12.250000954  -999.250000  -999.250000 82.637878418 135.22679138 0.8687013388 -38.75289536 0.9331011176 0.8894965053
 1579.7783203 13.346199989 12.250000954  -999.250000  -999.250000 80.041084290 138.73779297 0.8628047109 -38.65327835 0.9294030070 0.8942961693
 1579.9306641 13.352299690 12.250000954  -999.250000  -999.250000 77.443885803 142.25009155 0.8569046855 -38.55368042 0.9257029891 0.8990961313
 1580.0831299 13.334699631 12.250000954  -999.250000  -999.250000 77.188102722 145.33073425 0.8380151391 -38.62114716 0.9131100774 0.8923054338
 1580.2354736 13.297600746 12.250000954  -999.250000  -999.250000 78.881439209 148.05212402 0.8083238006 -38.82763672 0.8930160999 0.8757132888
 1580.3879395 13.260399818 12.250000954  -999.250000  -999.250000 80.576339722 150.77322388 0.7785238624 -39.03423691 0.8730160594 0.8592132330
 1580.5402832 13.217100143 12.250000954  -999.250000  -999.250000 81.422920227 152.85513306 0.7497230768 -39.24662781 0.8572126627 0.8448115587
 1580.6926270 13.156900406 12.250000954  -999.250000  -999.250000 79.918411255 153.16430664 0.7236417532 -39.47493362 0.8532063961 0.8361139297
 1580.8450928 13.096600533 12.250000954  -999.250000  -999.250000 78.409606934 153.47254944 0.6975209117 -39.70371628 0.8492032290 0.8275068998
 1580.9974365 13.036299706 12.250000954  -999.250000  -999.250000 76.903213501 153.78031921 0.6714417934 -39.93203354 0.8452063799 0.8188139200
 1581.1499023 12.995100021 12.250000954  -999.250000  -999.250000 78.955551147 154.02340698 0.6725990176 -39.85676193 0.8471983671 0.8168016076
 1581.3022461 12.954199791 12.250000954  -999.250000  -999.250000 81.067314148 154.26502991 0.6742972732 -39.77613068 0.8493964672 0.8148032427
 1581.4547119 12.913400650 12.250000954  -999.250000  -999.250000 83.182403564 154.50700378 0.6759986281 -39.69546509 0.8514983058 0.8129015565
 1581.6070557 12.966601372 12.250000954  -999.250000  -999.250000 82.837677002 154.38211060 0.6819951534 -39.66872406 0.8566958308 0.8118008971
 1581.7595215 13.059499741 12.250000954  -999.250000  -999.250000 81.454505920 154.10223389 0.6898936629 -39.66490555 0.8630948663 0.8109006882
 1581.9118652 13.152400017 12.250000954  -999.250000  -999.250000 80.070503235 153.82223511 0.6977936625 -39.66100311 0.8695948124 0.8101006746
 1582.0643311 13.229999542 12.250000954  -999.250000  -999.250000 79.538124084 153.42031860 0.7073923349 -39.57996368 0.8741962910 0.8104997277
 1582.2166748 13.286700249 12.250000954  -999.250000  -999.250000 80.170196533 152.85185242 0.7195902467 -39.39344788 0.8762983084 0.8122985959
 1582.3691406 13.343500137 12.250000954  -999.250000  -999.250000 80.803199768 152.28326416 0.7316902876 -39.20684814 0.8783983588 0.8141984344
 1582.5214844 13.399600983 12.250000954  -999.250000  -999.250000 81.284912109 151.71115112 0.7426911592 -39.07590485 0.8807981014 0.8161984086
 1582.6739502 13.451800346 12.250000954  -999.250000  -999.250000 80.850952148 151.11787415 0.7464969754 -39.28223419 0.8856960535 0.8186979890
 1582.8262939 13.504099846 12.250000954  -999.250000  -999.250000 80.416252136 150.52467346 0.7502969503 -39.48883438 0.8904961348 0.8211979866
 1582.9786377 13.556300163 12.250000954  -999.250000  -999.250000 79.981895447 149.93183899 0.7539941072 -39.69526672 0.8952922821 0.8236960173
