# LAS format log file from PETREL
# Project units are specified as depth units
#==================================================================
~Version information
VERS.   2.0:
WRAP.   NO:
#==================================================================
~Well
STRT .m      1216.1519775 :
STOP .m      3001.3652344 :
STEP .m     0.00000000 :
NULL .        -999.250000 :
COMP.           : COMPANY
WELL.  7/8-2 Cero   : WELL
FLD.            : FIELD
LOC.            : LOCATION
SRVC.           : SERVICE COMPANY
DATE.  2018-09-11 21:49:23   : Log Export Date {yyyy-MM-dd HH:mm:ss}
PROV.           : PROVINCE
UWI.   7/8-2   : UNIQUE WELL ID
API.            : API NUMBER
#==================================================================
~Curve
DEPT .m                   : DEPTH
CALI .in                  : CALI
BS .in                    : BS
DRHO .g/cm3               : DRHO
RHOB .g/cm3               : RHOB
GR .gAPI                  : GR
DTC .us/ft                : DTC
RDEP .ohm.m               : RDEP
SP .mV                    : SP
RSHA .ohm.m               : RSHA
RMED .ohm.m               : RMED
~Parameter
#==================================================================
~Ascii
# ...
 2752.3437500 10.178700447 8.5000000000 0.0065130000 2.3991000652 64.245300293 106.29191589 0.8406999707 -12.52980042 1.0279999971 1.1607453823
 2752.4963379 10.272000313 8.5000000000 0.0079429997 2.3979001045 63.944301605 107.56835175 0.8363999724 -12.34309959 1.0211999416 1.1464228630
 2752.6486816 10.220199585 8.5000000000 0.0078410003 2.3910000324 65.904098511 108.14228821 0.8515999913 -12.21030045 1.0386999846 1.1510925293
 2752.8010254 10.164899826 8.5000000000 0.0077030002 2.3838999271 67.918601990 108.69820404 0.8672999740 -12.07890034 1.0569000244 1.1563999653
 2752.9533691 10.109499931 8.5000000000 0.0075639999 2.3768999577 69.933097839 109.25312042 0.8830000162 -11.94740009 1.0750999451 1.1615999937
 2753.1059570 10.110199928 8.5000000000 0.0068270001 2.3810000420 71.464103699 108.59645844 0.9104999900 -11.90120029 1.0903999805 1.1790000200
 2753.2583008 10.135299683 8.5000000000 0.0058280001 2.3898999691 72.783599854 107.40580750 0.9431999922 -11.89249992 1.1045000553 1.2016999722
 2753.4106445 10.160400391 8.5000000000 0.0048290002 2.3989000320 74.102996826 106.21421814 0.9760000110 -11.88370037 1.1186000109 1.2244000435
 2753.5629883 10.154299736 8.5000000000 0.0043060002 2.4079000950 74.205101013 105.21769714 1.0059000254 -11.92259979 1.1299999952 1.2409000397
 2753.7153320 10.104200363 8.5000000000 0.0044549997 2.4168000221 72.589103699 104.49790192 1.0317000151 -12.02880001 1.1378999949 1.2486000061
 2753.8679199 10.053999901 8.5000000000 0.0046029999 2.4258000851 70.973197937 103.77625275 1.0576000214 -12.13500023 1.1456999779 1.2563999891
 2754.0202637 10.008798599 8.5000000000 0.0048139999 2.4351000786 69.537399292 103.10407257 1.0786000490 -12.21140003 1.1540999413 1.2647999525
 2754.1726074 9.9952001572 8.5000000000 0.0054239999 2.4468998909 69.267601013 102.74427032 1.0679999590 -12.09490013 1.1664999723 1.2771999836
 2754.3249512 9.9816007614 8.5000000000 0.0060349996 2.4586999416 68.997802734 102.38555908 1.0573999882 -11.97830009 1.1789000034 1.2897000313
 2754.4775391 9.9680004120 8.5000000000 0.0066450001 2.4704999924 68.727996826 102.02557373 1.0468000174 -11.86170006 1.1914000511 1.3021999598
 2754.6298828 9.9965000153 8.5000000000 0.0098489998 2.4698998928 68.345901489 101.61595917 1.0499000549 -11.83469963 1.1986000538 1.3087999821
 2754.7822266 10.032199860 8.5000000000 0.0134990001 2.4672000408 67.944503784 101.19757080 1.0551999807 -11.82299995 1.2049000263 1.3143999577
 2754.9345703 10.067898750 8.5000000000 0.0171499997 2.4644000530 67.543098450 100.77983856 1.0606000423 -11.81140041 1.2113000154 1.3200999498
 2755.0871582 10.076999664 8.5000000000 0.0173220001 2.4763000011 67.369300842 100.41877747 1.0507999659 -11.87150002 1.2139999866 1.3233000040
 2755.2395020 10.066300392 8.5000000000 0.0148949996 2.4990999699 67.365600586 100.10170746 1.0298000574 -11.98530006 1.2139999866 1.3248000145
 2755.3918457 10.055499077 8.5000000000 0.0124680009 2.5218999386 67.361900330 99.784706116 1.0088000298 -12.09899998 1.2141000032 1.3263000250
 2755.5441895 10.085399628 8.5000000000 0.0097160004 2.5343999863 67.128501892 99.772705078 0.9939000010 -12.15610027 1.2171000242 1.3262000084
 2755.6967773 10.214400291 8.5000000000 0.0061740000 2.5216000080 66.336502075 100.50323486 0.9937999845 -12.07509995 1.2274999619 1.3223999739
 2755.8491211 10.343400955 8.5000000000 0.0026310000 2.5088999271 65.544601440 101.23482513 0.9937999845 -11.99409962 1.2379000187 1.3186000586
 2756.0014648 10.471500397 8.5000000000 -0.000833000 2.4960999489 64.782096863 101.96483612 0.9940000176 -11.91489983 1.2482000589 1.3148000240
 2756.1538086 10.510399818 8.5000000000 0.0030330000 2.4723000526 66.798599243 102.53957367 1.0202000141 -12.00539970 1.2438999414 1.3049999475
 2756.3061523 10.549300194 8.5000000000 0.0068990001 2.4484999180 68.815200806 103.11315918 1.0463000536 -12.09580040 1.2395999432 1.2951999903
 2756.4587402 10.588199615 8.5000000000 0.0107659996 2.4247000217 70.831802368 103.68867493 1.0723999739 -12.18630028 1.2352999449 1.2855000496
 2756.6110840 10.363699913 8.5000000000 0.0118439998 2.4514999390 69.233596802 103.30901337 1.0816999674 -12.23900032 1.2431000471 1.3016999960
 2756.7634277 10.041600227 8.5000000000 0.0118899997 2.4971001148 66.296096802 102.57437134 1.0849000216 -12.27760029 1.2553000450 1.3276000023
 2756.9157715 9.7194004059 8.5000000000 0.0119350003 2.5427000523 63.358699799 101.84034729 1.0880000591 -12.31620026 1.2676000595 1.3533999920
 2757.0683594 9.6023998260 8.5000000000 0.0163199995 2.5631000996 61.868900299 100.64910889 1.1015000343 -12.35610008 1.2749999762 1.3736000061
 2757.2207031 9.7371997833 8.5000000000 0.0260320008 2.5525000095 62.157001495 98.899696350 1.1276999712 -12.39750004 1.2764999866 1.3867000341
 2757.3730469 9.8720998764 8.5000000000 0.0357440002 2.5418999195 62.445098877 97.149414063 1.1540000439 -12.43889999 1.2779999971 1.3997999430
 2757.5253906 9.9849996567 8.5000000000 0.0440500006 2.5299999714 62.807399750 95.952033997 1.1655999422 -12.48760033 1.2733999491 1.4063999653
 2757.6779785 9.9898004532 8.5000000000 0.0453910008 2.5122001171 63.536800385 97.481338501 1.1042000055 -12.57289982 1.2388000488 1.3803000450
 2757.8303223 9.9946002960 8.5000000000 0.0467329994 2.4943997860 64.266197205 99.016937256 1.0428999662 -12.65820026 1.2041000128 1.3540999889
 2757.9826660 9.9993991852 8.5000000000 0.0480739996 2.4765000343 64.995697021 100.55254364 0.9815999866 -12.74339962 1.1694999933 1.3279999495
 2758.1350098 10.034099579 8.5000000000 0.0368819982 2.4533998966 64.546401978 101.77433777 0.9703999758 -12.72799969 1.1611000299 1.3051999807
 2758.2873535 10.072600365 8.5000000000 0.0240959991 2.4296000004 63.947101593 102.95372009 0.9656000137 -12.69979954 1.1560000181 1.2827999592
 2758.4399414 10.111000061 8.5000000000 0.0113100000 2.4056999683 63.347900391 104.13681030 0.9607999921 -12.67150021 1.1509000063 1.2604000568
 2758.5922852 10.191100121 8.5000000000 0.0054990002 2.3940999508 62.441501617 104.84326935 0.9739999771 -12.62749958 1.1588000059 1.2559000254
 2758.7446289 10.298101425 8.5000000000 0.0042170002 2.3905000687 61.335601807 105.24076843 0.9988999963 -12.57320023 1.1750999689 1.2630000114
 2758.8969727 10.405200005 8.5000000000 0.0029350000 2.3868000507 60.229698181 105.63703156 1.0238000154 -12.51889992 1.1914000511 1.2700999975
 2759.0495605 10.461999893 8.5000000000 0.0023699999 2.3896000385 59.639900208 105.12612152 1.0456999540 -12.48330021 1.2007000446 1.2767000198
 2759.2019043 10.414500237 8.5000000000 0.0032899999 2.4059000015 60.119701385 102.73014832 1.0613000393 -12.48620033 1.1957999468 1.2819000483
 2759.3542480 10.366999626 8.5000000000 0.0042099999 2.4221999645 60.599601746 100.33114624 1.0769000053 -12.48919964 1.1907999516 1.2871999741
 2759.5065918 10.328799248 8.5000000000 0.0051859999 2.4377000332 61.174598694 98.054100037 1.0907000303 -12.49139977 1.1865999699 1.2918000221
 2759.6591797 10.488699913 8.5000000000 0.0073650000 2.4358999729 63.787498474 98.303390503 1.0686000586 -12.47939968 1.1996999979 1.2822999954
 2759.8115234 10.648500443 8.5000000000 0.0095429998 2.4340000153 66.400497437 98.560485840 1.0464999676 -12.46730042 1.2128000259 1.2726999521
 2759.9638672 10.808400154 8.5000000000 0.0117220003 2.4321999550 69.013397217 98.817497253 1.0242999792 -12.45530033 1.2258000374 1.2632000446
 2760.1162109 10.901000023 8.5000000000 0.0124300001 2.4237999916 69.894203186 100.35682678 0.9797999859 -12.44890022 1.2043999434 1.2458000183
 2760.2685547 10.972900391 8.5000000000 0.0126839997 2.4133999348 70.239196777 102.29178619 0.9283000231 -12.44429970 1.1722999811 1.2259999514
 2760.4211426 11.044699669 8.5000000000 0.0129370000 2.4028999805 70.584297180 104.23370361 0.8768000007 -12.43959999 1.1403000355 1.2063000202
 2760.5734863 11.092300415 8.5000000000 0.0126480004 2.3945000172 70.710502625 106.13465881 0.8478000164 -12.37279987 1.1160999537 1.1848000288
 2760.7258301 11.113899231 8.5000000000 0.0117769996 2.3882999420 70.602203369 107.99531555 0.8428000212 -12.23950005 1.1004999876 1.1614999771
