# LAS format log file from PETREL
# Project units are specified as depth units
#==================================================================
~Version information
VERS.   2.0:
WRAP.   NO:
#==================================================================
~Well
STRT .m      1216.1519775 :
STOP .m      3001.3652344 :
STEP .m     0.00000000 :
NULL .        -999.250000 :
COMP.           : COMPANY
WELL.  7/8-2 Cero   : WELL
FLD.            : FIELD
LOC.            : LOCATION
SRVC.           : SERVICE COMPANY
DATE.  2018-09-11 21:49:23   : Log Export Date {yyyy-MM-dd HH:mm:ss}
PROV.           : PROVINCE
UWI.   7/8-2   : UNIQUE WELL ID
API.            : API NUMBER
#==================================================================
~Curve
DEPT .m                   : DEPTH
CALI .in                  : CALI
BS .in                    : BS
DRHO .g/cm3               : DRHO
RHOB .g/cm3               : RHOB
GR .gAPI                  : GR
DTC .us/ft                : DTC
RDEP .ohm.m               : RDEP
SP .mV                    : SP
RSHA .ohm.m               : RSHA
RMED .ohm.m               : RMED
~Parameter
#==================================================================
~Ascii
# ...
 1455.1151123 12.787400246 12.250000954  -999.250000  -999.250000 78.544296265 162.49676514 0.8580999970 -38.94889832 0.9847999811 0.9197999835
 1455.2675781 12.774800301 12.250000954  -999.250000  -999.250000 78.791900635 162.62669373 0.8553000093 -39.02109909 0.9807999730 0.9218000174
 1455.4199219 12.762100220 12.250000954  -999.250000  -999.250000 79.039497375 162.75669861 0.8524000049 -39.09329987 0.9768999815 0.9239000082
 1455.5723877 12.745200157 12.250000954  -999.250000  -999.250000 79.327499390 163.20533752 0.8495000005 -39.24349976 0.9653999805 0.9229999781
 1455.7247314 12.723600388 12.250000954  -999.250000  -999.250000 79.660301208 164.00636292 0.8465999961 -39.47990036 0.9455999732 0.9186999798
 1455.8770752 12.701899529 12.250000954  -999.250000  -999.250000 79.993103027 164.80702209 0.8435999751 -39.71630096 0.9258000255 0.9144999981
 1456.0295410 12.695500374 12.250000954  -999.250000  -999.250000 80.411003113 165.44857788 0.8429999948 -39.89730072 0.9103000164 0.9101999998
 1456.1818848 12.752200127 12.250000954  -999.250000  -999.250000 81.182197571 165.42375183 0.8525000215 -39.84859848 0.9124000072 0.9057999849
 1456.3343506 12.808899879 12.250000954  -999.250000  -999.250000 81.953399658 165.39842224 0.8618999720 -39.79990005 0.9143999815 0.9014000297
 1456.4866943 12.865500450 12.250000954  -999.250000  -999.250000 82.724601746 165.37304688 0.8713999987 -39.75120163 0.9164999723 0.8970000148
 1456.6391602 12.861499786 12.250000954  -999.250000  -999.250000 82.960998535 164.61451721 0.8852000237 -39.75899887 0.9361000061 0.8998000026
 1456.7915039 12.851699829 12.250000954  -999.250000  -999.250000 83.146697998 163.78576660 0.8995000124 -39.77199936 0.9574999809 0.9034000039
 1456.9439697 12.841898918 12.250000954  -999.250000  -999.250000 83.332397461 162.95706177 0.9138000011 -39.78509903 0.9787999988 0.9068999887
 1457.0963135 12.811599731 12.250000954  -999.250000  -999.250000 83.472702026 162.75654602 0.9243000150 -39.71849823 0.9921000004 0.9133999944
 1457.2487793 12.769499779 12.250000954  -999.250000  -999.250000 83.586601257 162.92156982 0.9326999784 -39.60559845 1.0006999969 0.9217000008
 1457.4011230 12.727399826 12.250000954  -999.250000  -999.250000 83.700599670 163.08676147 0.9411000013 -39.49269867 1.0092999935 0.9298999906
 1457.5535889 12.705800056 12.250000954  -999.250000  -999.250000 84.054100037 163.03764343 0.9448999763 -39.37120056 1.0149999857 0.9373999834
 1457.7059326 12.721799850 12.250000954  -999.250000  -999.250000 84.849296570 162.59295654 0.9404000044 -39.23389816 1.0151000023 0.9437000155
 1457.8583984 12.737899780 12.250000954  -999.250000  -999.250000 85.644500732 162.14805603 0.9358999729 -39.09659958 1.0151000023 0.9498999715
 1458.0107422 12.752400398 12.250000954  -999.250000  -999.250000 86.315299988 161.74551392 0.9308000207 -38.97539902 1.0152000189 0.9559000134
 1458.1630859 12.746398926 12.250000954  -999.250000  -999.250000 85.355796814 161.89965820 0.9175000191 -39.06529999 1.0151000023 0.9591000080
 1458.3155518 12.740300179 12.250000954  -999.250000  -999.250000 84.396202087 162.05447388 0.9042000175 -39.15520096 1.0148999691 0.9621999860
 1458.4678955 12.734299660 12.250000954  -999.250000  -999.250000 83.436698914 162.20895386 0.8909000158 -39.24499893 1.0147999525 0.9653000236
 1458.6203613 12.736499786 12.250000954  -999.250000  -999.250000 82.379898071 162.14775085 0.8783000112 -39.19520187 1.0080000162 0.9610999823
 1458.7727051 12.740900040 12.250000954  -999.250000  -999.250000 81.297203064 162.02888489 0.8659999967 -39.10820007 0.9994000196 0.9549999833
 1458.9251709 12.745300293 12.250000954  -999.250000  -999.250000 80.214599609 161.90979004 0.8536000252 -39.02119827 0.9908000231 0.9488000274
 1459.0775146 12.742500305 12.250000954  -999.250000  -999.250000 79.933998108 162.44575500 0.8482000232 -39.11209869 0.9868000150 0.9472000003
 1459.2299805 12.732700348 12.250000954  -999.250000  -999.250000 80.426597595 163.61366272 0.8493999839 -39.37450027 0.9873999953 0.9498000145
 1459.3823242 12.722900391 12.250000954  -999.250000  -999.250000 80.919197083 164.78216553 0.8506000042 -39.63690186 0.9879000187 0.9524000287
 1459.5347900 12.712300301 12.250000954  -999.250000  -999.250000 81.399101257 165.65579224 0.8532999754 -39.86130142 0.9896000028 0.9555000067
 1459.6871338 12.698900223 12.250000954  -999.250000  -999.250000 81.836196899 165.53338623 0.8608999848 -39.95719910 0.9951000214 0.9600999951
 1459.8395996 12.685400009 12.250000954  -999.250000  -999.250000 82.273200989 165.41009521 0.8686000109 -40.05310059 1.0006999969 0.9646999836
 1459.9919434 12.671999931 12.250000954  -999.250000  -999.250000 82.710296631 165.28689575 0.8762000203 -40.14899826 1.0061999559 0.9692999721
 1460.1442871 12.692299843 12.250000954  -999.250000  -999.250000 81.793296814 164.60998535 0.8889999986 -40.08499908 1.0120999813 0.9747999907
 1460.2967529 12.714500427 12.250000954  -999.250000  -999.250000 80.801300049 163.90077209 0.9020000100 -40.01219940 1.0178999901 0.9804000258
 1460.4490967 12.736599922 12.250000954  -999.250000  -999.250000 79.809303284 163.19273376 0.9150000215 -39.93930054 1.0236999989 0.9860000014
 1460.6015625 12.760100365 12.250000954  -999.250000  -999.250000 79.926002502 162.38504028 0.9322000146 -39.84310150 1.0329999924 0.9890999794
 1460.7539063 12.784099579 12.250000954  -999.250000  -999.250000 80.597000122 161.52937317 0.9516000152 -39.73529816 1.0441000462 0.9908999801
 1460.9063721 12.808200836 12.250000954  -999.250000  -999.250000 81.267997742 160.67218018 0.9710000157 -39.62749863 1.0551999807 0.9926999807
 1461.0587158 12.832900047 12.250000954  -999.250000  -999.250000 81.790397644 159.73704529 0.9934999943 -39.53350067 1.0685000420 0.9976999760
 1461.2111816 12.858499527 12.250000954  -999.250000  -999.250000 82.076301575 158.67636108 1.0209000111 -39.46139908 1.0853999853 1.0076999664
 1461.3635254 12.884200096 12.250000954  -999.250000  -999.250000 82.362197876 157.61555481 1.0483000278 -39.38940048 1.1023000479 1.0176999569
 1461.5159912 12.905300140 12.250000954  -999.250000  -999.250000 82.977600098 156.87879944 1.0700999498 -39.33020020 1.1167000532 1.0283999443
 1461.6683350 12.888298988 12.250000954  -999.250000  -999.250000 86.401298523 158.90447998 1.0428999662 -39.38019943 1.1097999811 1.0451999903
 1461.8208008 12.871298790 12.250000954  -999.250000  -999.250000 89.825103760 160.93228149 1.0157999992 -39.43009949 1.1029000282 1.0619000196
 1461.9731445 12.854298592 12.250000954  -999.250000  -999.250000 93.248901367 162.96020508 0.9886999726 -39.48009872 1.0959999561 1.0786999464
 1462.1254883 12.888199806 12.250000954  -999.250000  -999.250000 93.926902771 163.66798401 0.9825999737 -39.38209915 1.0934000015 1.0715999603
 1462.2779541 12.932999611 12.250000954  -999.250000  -999.250000 94.019096375 164.09426880 0.9811000228 -39.25249863 1.0915999413 1.0592999458
 1462.4302979 12.977800369 12.250000954  -999.250000  -999.250000 94.111297607 164.51953125 0.9794999957 -39.12300110 1.0899000168 1.0470000505
 1462.5827637 12.995100021 12.250000954  -999.250000  -999.250000 94.476402283 165.89161682 0.9785000086 -39.08950043 1.0951000452 1.0414999723
 1462.7351074 12.989198685 12.250000954  -999.250000  -999.250000 95.070899963 168.05772400 0.9779000282 -39.13679886 1.1060999632 1.0418000221
 1462.8875732 12.983301163 12.250000954  -999.250000  -999.250000 95.665496826 170.22805786 0.9774000049 -39.18420029 1.1171000004 1.0420000553
 1463.0399170 12.985899925 12.250000954  -999.250000  -999.250000 95.849800110 171.57281494 0.9774000049 -39.24330139 1.1258000135 1.0434000492
 1463.1923828 13.012398720 12.250000954  -999.250000  -999.250000 94.881401062 170.60217285 0.9789999723 -39.33570099 1.1282999516 1.0480999947
 1463.3447266 13.038800240 12.250000954  -999.250000  -999.250000 93.913002014 169.62969971 0.9804999828 -39.42810059 1.1306999922 1.0528000593
 1463.4971924 13.065199852 12.250000954  -999.250000  -999.250000 92.944602966 168.65718079 0.9819999933 -39.52050018 1.1331000328 1.0575000048
