# LAS format log file from PETREL
# Project units are specified as depth units
#==================================================================
~Version information
VERS.   2.0:
WRAP.   NO:
#==================================================================
~Well
STRT .m      2674.6198730 :
STOP .m      4399.4833984 :
STEP .m     0.00000000 :
NULL .        -999.250000 :
COMP.           : COMPANY
WELL.  7/8-4 T2   : WELL
FLD.            : FIELD
LOC.            : LOCATION
SRVC.           : SERVICE COMPANY
DATE.  2018-09-11 21:49:25   : Log Export Date {yyyy-MM-dd HH:mm:ss}
PROV.           : PROVINCE
UWI.   7/8-4 T2   : UNIQUE WELL ID
API.            : API NUMBER
#==================================================================
~Curve
DEPT .m                   : DEPTH
DCAL .in                  : DCAL
CALI .in                  : CALI
BS .in                    : BS
ROP .m/h                  : ROP
DRHO .g/cm3               : DRHO
NPHI .m3/m3               : NPHI
RHOB .g/cm3               : RHOB
PEF .b/e                  : PEF
GR .gAPI                  : GR
DTC .us/ft                : DTC
RDEP .ohm.m               : RDEP
SP .mV                    : SP
RSHA .ohm.m               : RSHA
RMED .ohm.m               : RMED
~Parameter
#==================================================================
~Ascii
# ...
 3593.1347656 -0.148399994 12.101600647 12.250000954 95.349739075 -0.029882545 0.0203680005 2.6654999256 5.2664723396 49.954101563 57.620700836 7.9755997658 42.778400421 17.667299271 23.680799484
 3593.2873535 -0.148399994 12.101600647 12.250000954 95.046585083 -0.028348098 0.0199480001 2.6696000099 5.1866455078 49.113998413 57.597198486 8.1093997955 41.675701141 17.801500320 24.977699280
 3593.4396973 -0.148399994 12.101600647 12.250000954 94.743766785 -0.026817171 0.0195289999 2.6737000942 5.1072974205 48.273899078 57.573699951 8.2433004379 40.573001862 17.935699463 26.274700165
 3593.5920410 -0.148399994 12.101600647 12.250000954 91.816932678 -0.024426265 0.0208720006 2.6756000519 5.1059799194 48.207698822 57.667198181 8.2500000000 40.430099487 17.665199280 25.896799088
 3593.7443848 -0.148399994 12.101600647 12.250000954 87.167655945 -0.021472268 0.0233730003 2.6760001183 5.1558799744 48.649600983 57.837398529 8.1732997894 40.917198181 17.129199982 24.419399261
 3593.8967285 -0.148399994 12.101600647 12.250000954 82.518051147 -0.018521013 0.0258740000 2.6763000488 5.2058806419 49.091400146 58.007598877 8.0965003967 41.404300690 16.593099594 22.941999435
 3594.0493164 -0.148399994 12.101600647 12.250000954 79.166336060 -0.016661353 0.0280859992 2.6770000458 5.2561626434 49.705799103 58.212501526 8.0204000473 41.896301270 15.994400024 21.418100357
 3594.2016602 -0.148399994 12.101600647 12.250000954 78.536422729 -0.017083678 0.0296919998 2.6784000397 5.3068809509 50.682300568 58.489997864 7.9454998970 42.398399353 15.264300346 19.796600342
 3594.3540039 -0.148399994 12.101600647 12.250000954 77.906494141 -0.017506670 0.0312989987 2.6796998978 5.3575749397 51.658699036 58.767501831 7.8706998825 42.900501251 14.534099579 18.175100327
 3594.5063477 -0.148399994 12.101600647 12.250000954 76.843177795 -0.017924488 0.0327260010 2.6809000969 5.4041290283 52.597499847 59.019294739 7.7968997955 43.400501251 13.907199860 16.714199066
 3594.6589355 -0.148399994 12.101600647 12.250000954 65.882873535 -0.018229976 0.0300880000 2.6795001030 5.3598585129 52.677700043 58.686599731 7.7473001480 43.850101471 15.635499954 18.916299820
 3594.8112793 -0.148399994 12.101600647 12.250000954 54.922573090 -0.018534487 0.0274490006 2.6779999733 5.3157291412 52.757801056 58.353801727 7.6978001595 44.299701691 17.363800049 21.118499756
 3594.9636230 -0.148399994 12.101600647 12.250000954 43.962272644 -0.018840011 0.0248109996 2.6765999794 5.2713546753 52.838001251 58.020996094 7.6483001709 44.749401093 19.092100143 23.320699692
 3595.1159668 -0.148399994 12.101600647 12.250000954 41.522640228 -0.019471178 0.0248290002 2.6733999252 5.1185007095 52.255100250 58.098598480 7.6642999649 45.192699432 18.578100204 22.884700775
 3595.2685547 -0.148399994 12.101600647 12.250000954 41.756233215 -0.020207349 0.0256800000 2.6696000099 4.9312019348 51.464199066 58.304996490 7.7007999420 45.634201050 17.360399246 21.621000290
 3595.4208984 -0.148399994 12.101600647 12.250000954 41.990158081 -0.020940242 0.0265309997 2.6658000946 4.7448635101 50.673301697 58.511394501 7.7374000549 46.075599670 16.142700195 20.357200623
 3595.5732422 -0.148399994 12.101600647 12.250000954 46.871719360 -0.021715309 0.0269179996 2.6649000645 4.7222480774 50.347900391 58.687099457 7.7235999107 46.229698181 15.597999573 19.669000626
 3595.7255859 -0.148399994 12.101600647 12.250000954 56.781494141 -0.022532312 0.0268040001 2.6670999527 4.8768477440 50.525901794 58.829700470 7.6554999352 46.073200226 15.781399727 19.603700638
 3595.8779297 -0.148399994 12.101600647 12.250000954 66.691604614 -0.023349855 0.0266890004 2.6693000793 5.0315098763 50.703899384 58.972400665 7.5872998238 45.916599274 15.964799881 19.538299561
 3596.0305176 -0.148399994 12.101600647 12.250000954 74.828086853 -0.023881070 0.0270920005 2.6707999706 5.1622138023 50.666500092 59.081901550 7.5272998810 45.636798859 16.007499695 19.322399139
 3596.1828613 -0.148399994 12.101600647 12.250000954 75.846130371 -0.023279034 0.0295679998 2.6691999435 5.1977572441 49.764499664 59.058601379 7.5001001358 44.862701416 15.485500336 18.502399445
 3596.3352051 -0.148399994 12.101600647 12.250000954 76.864173889 -0.022676034 0.0320440009 2.6675999165 5.2333574295 48.862400055 59.035400391 7.4730000496 44.088600159 14.963500023 17.682399750
 3596.4875488 -0.148399994 12.101600647 12.250000954 77.882545471 -0.022073148 0.0345200002 2.6659998894 5.2689447403 47.960300446 59.012104034 7.4457998276 43.314498901 14.441499710 16.862400055
 3596.6401367 -0.148399994 12.101600647 12.250000954 81.087921143 -0.021540320 0.0336810015 2.6640999317 5.2970871925 47.657501221 59.058300018 7.3034000397 44.687198639 14.680000305 17.543500900
 3596.7924805 -0.148399994 12.101600647 12.250000954 84.486877441 -0.021016158 0.0325479992 2.6621999741 5.3243436813 47.407798767 59.110599518 7.1508002281 46.250000000 14.985899925 18.357700348
 3596.9448242 -0.148399994 12.101600647 12.250000954 87.886154175 -0.020491770 0.0314159989 2.6603000164 5.3518433571 47.158100128 59.162998199 6.9981999397 47.812900543 15.291700363 19.171800613
 3597.0971680 -0.148399994 12.101600647 12.250000954 89.243438721 -0.020348117 0.0343779996 2.6528999805 5.4416003227 48.194499969 59.302402496 6.8385000229 48.502998352 14.507100105 18.231700897
 3597.2497559 -0.148399994 12.101600647 12.250000954 89.441604614 -0.020421237 0.0396660008 2.6422998905 5.5669007301 49.961299896 59.491100311 6.6747999191 48.697601318 13.103199959 16.295400620
 3597.4020996 -0.148399994 12.101600647 12.250000954 89.639434814 -0.020493992 0.0449529998 2.6317000389 5.6918416023 51.728099823 59.679901123 6.5110998154 48.892101288 11.699299812 14.359100342
 3597.5544434 -0.148399994 12.101600647 12.250000954 89.237533569 -0.019862967 0.0490179993 2.6242001057 5.7801356316 52.525798798 59.807003021 6.3439998627 48.889099121 10.766099930 12.911199570
 3597.7067871 -0.148399994 12.101600647 12.250000954 87.755249023 -0.017969966 0.0508800000 2.6219999790 5.8025355339 51.577499390 59.822998047 6.1710000038 48.530300140 10.680600166 12.343400002
 3597.8591309 -0.148399994 12.101600647 12.250000954 86.272636414 -0.016077338 0.0527420007 2.6198999882 5.8249049187 50.629199982 59.838901520 5.9979000092 48.171600342 10.595100403 11.775699615
 3598.0117188 -0.148399994 12.101600647 12.250000954 84.928802490 -0.014417790 0.0544370003 2.6180999279 5.8276295662 49.693061829 59.861999512 5.8308000565 47.885601044 10.489100456 11.246199608
 3598.1640625 -0.148399994 12.101600647 12.250000954 85.266075134 -0.015534792 0.0541069992 2.6205000877 5.5964293480 48.920261383 59.970699310 5.7360000610 48.483200073 10.133899689 11.181400299
 3598.3164063 -0.148399994 12.101600647 12.250000954 85.603347778 -0.016652791 0.0537759997 2.6229000092 5.3652296066 48.147460938 60.079399109 5.6410999298 49.080799103 9.7786998749 11.116700172
 3598.4687500 -0.148399994 12.101600647 12.250000954 85.940620422 -0.017769698 0.0534450002 2.6252999306 5.1343526840 47.376487732 60.188098907 5.5461835861 49.678298950 9.4235000610 11.052000046
 3598.6213379 -0.148399994 12.101600647 12.250000954 90.373687744 -0.018831348 0.0539029986 2.6275000572 5.1049718857 47.744510651 60.527198792 5.4733853340 49.259399414 9.1590995789 10.840600014
 3598.7736816 -0.148399994 12.101600647 12.250000954 95.860893250 -0.019875675 0.0545650013 2.6296999454 5.1274361610 48.403255463 60.925498962 5.4064927101 48.578899384 8.9180002213 10.591400146
 3598.9260254 -0.148399994 12.101600647 12.250000954 101.34842682 -0.020919204 0.0552270003 2.6317999363 5.1499280930 49.062610626 61.323898315 5.3396091461 47.898300171 8.6768999100 10.342300415
 3599.0783691 -0.148399994 12.101600647 12.250000954 104.15256500 -0.021044815 0.0568279997 2.6328999996 5.1675205231 49.442886353 61.637699127 5.2828245163 47.173400879 8.5530004501 10.081100464
 3599.2309570 -0.148399994 12.101600647 12.250000954 104.42421722 -0.020304633 0.0593149997 2.6329998970 5.1804413795 49.560173035 61.871700287 5.2357492447 46.406799316 8.5396003723 9.8086996078
