# LAS format log file from PETREL
# Project units are specified as depth units
#==================================================================
~Version information
VERS.   2.0:
WRAP.   NO:
#==================================================================
~Well
STRT .m      2126.7421875 :
STOP .m      3314.5480957 :
STEP .m     0.00000000 :
NULL .        -999.250000 :
COMP.           : COMPANY
WELL.  7/8-1   : WELL
FLD.            : FIELD
LOC.            : LOCATION
SRVC.           : SERVICE COMPANY
DATE.  2018-09-11 21:49:23   : Log Export Date {yyyy-MM-dd HH:mm:ss}
PROV.           : PROVINCE
UWI.   7/8-1   : UNIQUE WELL ID
API.            : API NUMBER
#==================================================================
~Curve
DEPT .m                   : DEPTH
CALI .in                  : CALI
DRHO .g/cm3               : DRHO
NPHI .m3/m3               : NPHI
RHOB .g/cm3               : RHOB
GR .gAPI                  : GR
DTC .us/ft                : DTC
RDEP .ohm.m               : RDEP
SP .mV                    : SP
RSHA .ohm.m               : RSHA
RMIC .ohm.m               : RMIC
RMED .ohm.m               : RMED
~Parameter
#==================================================================
~Ascii
# ...
 2282.1901855 8.9340000153 -0.048935898 0.3292314112 2.4049069881 60.069999695 107.98278809 0.6571000218 53.144199371 0.9109695554 0.5630581975 0.9338999987
 2282.3425293 9.0050001144 -0.049998399 0.3454738557 2.4109904766 65.513000488 119.07619476 0.6304000020 53.108501434 0.9349615574 0.6540543437 0.9391999841
 2282.4951172 9.2030000687 -0.011000000 0.4246000051 2.3410000801 78.111999512 134.34399414 0.6141999960 53.323799133 0.9409999847 0.7224000096 0.9314000010
 2282.6474609 9.2760000229 -0.003012800 0.4212054610 2.1832528114 88.404998779 137.68965149 0.6129999757 53.617000580 0.9429967999 1.6293466091 0.9201999903
 2282.7998047 9.3579998016 -0.002001603 0.4217990339 2.1839983463 94.060997009 137.75889587 0.6169000268 54.405799866 1.0029038191 0.6313043237 0.9327999949
 2282.9521484 9.3809995651 0.0069855773 0.4298869967 2.1820030212 95.886001587 137.82289124 0.5903000236 54.656700134 0.9420977235 0.2658839822 0.9247000217
 2283.1047363 9.3159999847 0.0070000002 0.4226999879 2.1619999409 96.045997620 137.80400085 0.5297999978 54.081001282 0.8600000143 0.3323999941 0.8848999739
 2283.2570801 9.2720003128 0.0010000000 0.4181999862 2.1710000038 96.375999451 137.19700623 0.5018000007 54.037700653 0.8069999814 0.3619000018 0.8671000004
 2283.4094238 9.2270002365 0.0239631999 0.4196975827 2.2059440613 96.991996765 136.55203247 0.4943000078 53.405799866 0.7770479918 0.2810296118 0.8607000113
 2283.5617676 9.1780004501 0.0140160257 0.3915451765 2.2079968452 95.658996582 135.72332764 0.4893999994 53.403800964 0.7779983878 0.3124493659 0.8504999876
 2283.7143555 9.2100000381 0.0000000000 0.3835000098 2.2039999962 92.901000977 135.87500000 0.4894999862 52.560001373 0.7770000100 0.3206999898 0.8470000029
 2283.8666992 9.2200002670 -0.005000000 0.3713999987 2.2300000191 92.333999634 137.16600037 0.4885999858 52.054000854 0.7739999890 0.2951999903 0.8460999727
 2284.0190430 9.2209997177 -0.001006400 0.3827817738 2.2409822941 93.949996948 138.18836975 0.4860000014 52.189498901 0.7799903750 0.2884108722 0.8375999928
 2284.1713867 9.2080001831 0.0029935897 0.3814022243 2.2290194035 95.905998230 138.00929260 0.4833999872 51.560298920 0.7809984088 0.3508996964 0.8284999728
 2284.3239746 9.1510000229 0.0070000002 0.3774999976 2.2239999771 97.194999695 137.82800293 0.4808000028 51.696201324 0.7870000005 0.3867000043 0.8273000121
 2284.4763184 9.1020002365 -0.006000000 0.3806000054 2.2269999981 96.494003296 136.40600586 0.4781999886 51.606098175 0.8009999990 0.4158999920 0.8292999864
 2284.6286621 9.1350002289 0.0069792001 0.3840000033 2.2459695339 95.335998535 135.92178345 0.4756000042 51.993198395 0.8199695945 0.3344305754 0.8350999951
 2284.7810059 9.2650003433 0.0099951923 0.3779000044 2.2719583511 94.885002136 132.44358826 0.4778999984 52.494098663 0.8359743953 0.3226187527 0.8429999948
 2284.9333496 9.3690004349 0.0010144231 0.3898999989 2.2799870968 94.162002563 131.70716858 0.4986000061 52.592300415 0.8399935365 0.4001754820 0.8514999747
 2285.0859375 9.3889999390 -0.009000000 0.4072000086 2.2780001163 90.189002991 130.97500610 0.5288000107 52.576698303 0.8439999819 0.4670000076 0.8629000187
 2285.2382813 9.3509998322 -0.018999999 0.4097999930 2.2839999199 85.303001404 131.28100586 0.5576000214 52.628898621 0.8579999804 0.4219999909 0.8773000240
 2285.3906250 9.3059997559 -0.013009600 0.4079000056 2.3089599609 84.777999878 134.74444580 0.5789999962 53.294799805 0.8719775677 0.3842604756 0.8910999894
 2285.5429688 9.2989997864 0.0199471153 0.4129000008 2.3139917850 88.912002563 138.55987549 0.5874999762 53.792598724 0.8879743814 0.3978780210 0.9028000236
 2285.6955566 9.3489999771 0.0120000001 0.4146000147 2.2599999905 94.099998474 138.41400146 0.5824999809 53.574401855 0.8870000243 0.5784000158 0.9017000198
 2285.8479004 9.2670001984 0.0149999997 0.4018999934 2.2630000114 96.194999695 137.68200684 0.5670999885 54.490398407 0.8590000272 0.7088999748 0.8942000270
 2286.0002441 9.1260004044 0.0229871999 0.3693000078 2.2639982700 96.607002258 137.89566040 0.5522999763 54.437500000 0.8480175734 0.3705422580 0.8784999847
 2286.1525879 9.1859998703 0.0120176282 0.3528999984 2.2580094337 96.206001282 137.91397095 0.5394999981 54.496498108 0.8559871912 0.4384900630 0.8636999726
 2286.3051758 9.3339996338 0.0030000000 0.3549999893 2.2590000629 94.430000305 137.66999817 0.5268999934 54.506099701 0.8550000191 0.4352000058 0.8540999889
 2286.4575195 9.3839998245 0.0080000004 0.3583999872 2.2620000839 90.833000183 137.82400513 0.5157999992 54.305900574 0.8489999771 0.4070000052 0.8463000059
 2286.6098633 9.3179998398 0.0169856008 0.3580000103 2.2689888477 88.375999451 137.82699585 0.5101000071 53.804599762 0.8529936075 0.4974550307 0.8399000168
 2286.7622070 9.3299999237 0.0010256411 0.3684000075 2.2520272732 88.443000793 137.82899475 0.5044000149 52.384700775 0.8629839420 0.5118771195 0.8386999965
 2286.9145508 9.3789997101 0.0000016026 0.3616000116 2.2500030994 91.054000854 136.93743896 0.4984000027 53.075298309 0.8629999757 0.4035738707 0.8404999971
 2287.0671387 9.3760004044 0.0000000000 0.3655000031 2.2490000725 94.436996460 136.44200134 0.4912999868 53.369201660 0.8489999771 0.3887999952 0.8400999904
 2287.2194824 9.3389997482 -0.000998400 0.3797999918 2.2450063229 96.634002686 136.64167786 0.4842000008 52.596199036 0.8320271969 0.3958886564 0.8363000154
 2287.3718262 9.2720003128 -0.011982372 0.3935000002 2.2420048714 97.579002380 137.12422180 0.4771000147 52.117000580 0.8180224299 0.4087793231 0.8330000043
 2287.5241699 9.2220001221 -0.010003204 0.3946999907 2.2489888668 97.178001404 137.58326721 0.4699000120 52.323299408 0.8110111952 0.4074022472 0.8325999975
 2287.6767578 9.2229995728 -0.003000000 0.3914999962 2.2409999371 96.032997131 137.74400330 0.4638000131 52.312698364 0.8159999847 0.4508000016 0.8295000196
 2287.8291016 9.2690000534 0.0030000000 0.4011000097 2.2420001030 97.778999329 136.67599487 0.4659000039 53.048900604 0.8090000153 0.4620000124 0.8316000104
 2287.9814453 9.2069997787 0.0039984002 0.4058000147 2.2519841194 100.67700195 135.51586914 0.4690999985 52.260101318 0.8090000153 0.3678508997 0.8335000277
 2288.1337891 9.2069997787 -0.001990385 0.4086999893 2.2470080853 101.14199829 135.36123657 0.4722000062 52.218498230 0.8159887791 0.3647047877 0.8335999846
 2288.2863770 9.2950000763 0.0000000000 0.4111999869 2.2639999390 99.361000061 135.75100708 0.4754000008 52.861198425 0.8119999766 0.3630000055 0.8330000043
 2288.4387207 9.2720003128 0.0060000001 0.3903000057 2.2739999294 96.626998901 137.26600647 0.4785000086 53.316600800 0.8080000281 0.3675999939 0.8335999846
 2288.5910645 9.2150001526 0.0079968004 0.3842000067 2.2710046768 94.407997131 139.13400269 0.4817000031 53.294601440 0.8089984059 0.3757869005 0.8300999999
 2288.7434082 9.1920003891 -0.001983974 0.3750000000 2.2610158920 92.991996765 139.08908081 0.4846999943 52.872501373 0.7990160584 0.4008597732 0.8223000169
 2288.8957520 9.1689996719 -0.001001603 0.3806999922 2.2530128956 92.872001648 139.04107666 0.4855999947 52.895999908 0.7750384212 0.3667548001 0.8162000179
 2289.0483398 9.1510000229 0.0109999999 0.3932999969 2.2560000420 94.011001587 138.71800232 0.4790999889 53.063098907 0.7620000243 0.3605000079 0.8080999851
 2289.2006836 9.1750001907 0.0259760004 0.4072000086 2.2709758282 94.686996460 138.02210999 0.4744000137 53.217300415 0.7540128231 0.3678881824 0.7987999916
 2289.3530273 9.2489995956 0.0100256409 0.3970000148 2.2520306110 93.819000244 137.09747314 0.4997999966 53.089500427 0.7340320945 0.3532235324 0.7968999743
 2289.5053711 9.3009996414 0.0010144231 0.3822000027 2.2360258102 91.519996643 136.41708374 0.4997999966 53.022800446 0.7439839840 0.3411194086 0.7932999730
 2289.6579590 9.3190002441 -0.006000000 0.3815999925 2.2249999046 89.328002930 136.57800293 0.4997999966 52.764099121 0.7570000291 0.3707999885 0.7933999896
 2289.8103027 9.3760004044 -0.001000000 0.3896000087 2.2279999256 88.418998718 136.52200317 0.4997999966 53.295501709 0.7570000291 0.4101000130 0.7947000265
