# LAS format log file from PETREL
# Project units are specified as depth units
#==================================================================
~Version information
VERS.   2.0:
WRAP.   NO:
#==================================================================
~Well
STRT .m      2127.0468750 :
STOP .m      3314.3952637 :
STEP .m     0.00000000 :
NULL .        -999.250000 :
COMP.           : COMPANY
WELL.  7/8-1 T2   : WELL
FLD.            : FIELD
LOC.            : LOCATION
SRVC.           : SERVICE COMPANY
DATE.  2018-09-11 21:49:23   : Log Export Date {yyyy-MM-dd HH:mm:ss}
PROV.           : PROVINCE
UWI.   7/8-1 T2   : UNIQUE WELL ID
API.            : API NUMBER
#==================================================================
~Curve
DEPT .m                   : DEPTH
CALI .in                  : CALI
BS .in                    : BS
DRHO .g/cm3               : DRHO
NPHI .m3/m3               : NPHI
RHOB .g/cm3               : RHOB
GR .gAPI                  : GR
DTC .us/ft                : DTC
RDEP .ohm.m               : RDEP
SP .mV                    : SP
RSHA .ohm.m               : RSHA
RMIC .ohm.m               : RMIC
RMED .ohm.m               : RMED
~Parameter
#==================================================================
~Ascii
# ...
 3143.8596191 8.8432998657 8.5000000000  -999.250000  -999.250000  -999.250000 67.738121033 87.064819336 2.2406001091 59.283798218 2.4646999836  -999.250000 1.9300210476
 3144.0119629 8.8395996094 8.5000000000  -999.250000  -999.250000  -999.250000 65.835662842 86.369216919 2.2527000904 59.462200165 2.4814999104  -999.250000 1.9432157278
 3144.1645508 8.8498001099 8.5000000000  -999.250000  -999.250000  -999.250000 63.558544159 86.663955688 2.2637000084 60.154499054 2.4753999710  -999.250000 1.9530316591
 3144.3168945 8.8600997925 8.5000000000  -999.250000  -999.250000  -999.250000 63.821216583 87.039779663 2.2746999264 60.846698761 2.4693000317  -999.250000 1.9629157782
 3144.4692383 8.8703002930 8.5000000000  -999.250000  -999.250000  -999.250000 64.085182190 87.054901123 2.2857999802 61.538898468 2.4632000923  -999.250000 1.9727092981
 3144.6215820 8.8865003586 8.5000000000  -999.250000  -999.250000  -999.250000 64.012626648 86.597778320 2.2878000736 61.315601349 2.4721999168  -999.250000 1.9785075188
 3144.7739258 8.9041004181 8.5000000000  -999.250000  -999.250000  -999.250000 64.956794739 85.892211914 2.2874999046 60.860401154 2.4849998951  -999.250000 1.9832077026
 3144.9265137 8.9217996597 8.5000000000  -999.250000  -999.250000  -999.250000 64.925041199 85.044723511 2.2871000767 60.405200958 2.4978001118  -999.250000 1.9880146980
 3145.0788574 8.9231004715 8.5000000000  -999.250000  -999.250000  -999.250000 63.792045593 84.683975220 2.2969000340 59.962501526 2.5011000633  -999.250000 1.9926066399
 3145.2312012 8.9091997147 8.5000000000  -999.250000  -999.250000  -999.250000 63.172790527 84.898460388 2.3159999847 59.531700134 2.4955999851  -999.250000 1.9968068600
 3145.3835449 8.8954000473 8.5000000000  -999.250000  -999.250000  -999.250000 63.847579956 85.136955261 2.3350999355 59.100898743 2.4900000095  -999.250000 2.0011074543
 3145.5361328 8.8858995438 8.5000000000  -999.250000  -999.250000  -999.250000 65.153755188 85.473281860 2.3501000404 58.775901794 2.4856998920  -999.250000 2.0057179928
 3145.6884766 8.8905000687 8.5000000000  -999.250000  -999.250000  -999.250000 65.213714600 85.847351074 2.3519001007 58.793399811 2.4853999615  -999.250000 2.0113091469
 3145.8408203 8.8951997757 8.5000000000  -999.250000  -999.250000  -999.250000 67.808387756 86.090980530 2.3536000252 58.810901642 2.4851000309  -999.250000 2.0169091225
 3145.9931641 8.8998003006 8.5000000000  -999.250000  -999.250000  -999.250000 70.966583252 86.100898743 2.3554000854 58.828399658 2.4846999645  -999.250000 2.0225052834
 3146.1457520 8.8838996887 8.5000000000  -999.250000  -999.250000  -999.250000 72.328674316 85.968620300 2.2922999859 58.997798920 2.4690999985  -999.250000 2.0257101059
 3146.2980957 8.8669996262 8.5000000000  -999.250000  -999.250000  -999.250000 73.041397095 85.637489319 2.2262001038 59.174400330 2.4526998997  -999.250000 2.0288050175
 3146.4504395 8.8500003815 8.5000000000  -999.250000  -999.250000  -999.250000 75.818649292 85.395317078 2.1600000858 59.351001740 2.4363999367  -999.250000 2.0318818092
 3146.6027832 8.8400001526 8.5000000000  -999.250000  -999.250000  -999.250000 79.729164124 85.385398865 2.0883998871 59.140701294 2.4212999344  -999.250000 2.0205709934
 3146.7551270 8.8332996368 8.5000000000  -999.250000  -999.250000  -999.250000 80.571540833 85.385398865 2.0139999390 58.743598938 2.4066998959  -999.250000 2.0023708344
 3146.9077148 8.8267002106 8.5000000000  -999.250000  -999.250000  -999.250000 79.881042480 85.939949036 1.9397000074 58.346599579 2.3921999931  -999.250000 1.9841500521
 3147.0600586 8.8254003525 8.5000000000  -999.250000  -999.250000  -999.250000 80.383865356 86.323745728 1.9005999565 58.398799896 2.3940000534  -999.250000 1.9685813189
 3147.2124023 8.8325004578 8.5000000000  -999.250000  -999.250000  -999.250000 81.143005371 87.025085449 1.9157999754 59.142799377 2.4210999012  -999.250000 1.9568812847
 3147.3647461 8.8395004272 8.5000000000  -999.250000  -999.250000  -999.250000 80.392997742 87.969154358 1.9309999943 59.886901855 2.4481000900  -999.250000 1.9451818466
 3147.5173340 8.8468999863 8.5000000000  -999.250000  -999.250000  -999.250000 79.288673401 88.559516907 1.9498000145 60.551399231 2.4711999893  -999.250000 1.9338715076
 3147.6696777 8.8563995361 8.5000000000  -999.250000  -999.250000  -999.250000 79.495498657 89.176696777 1.9969999790 60.590698242 2.4633998871  -999.250000 1.9249858856
 3147.8220215 8.8660001755 8.5000000000  -999.250000  -999.250000  -999.250000 79.737930298 89.658653259 2.0443000793 60.629901886 2.4554998875  -999.250000 1.9161857367
 3147.9743652 8.8755998611 8.5000000000  -999.250000  -999.250000  -999.250000 80.046997070 90.135627747 2.0915000439 60.669200897 2.4475998878  -999.250000 1.9073070288
 3148.1269531 8.8808002472 8.5000000000  -999.250000  -999.250000  -999.250000 79.459075928 90.474205017 2.1422998905 59.986801147 2.4504001141  -999.250000 1.9117227793
 3148.2792969 8.8851003647 8.5000000000  -999.250000  -999.250000  -999.250000 77.120559692 90.626693726 2.1937999725 59.158699036 2.4553000927  -999.250000 1.9188113213
 3148.4316406 8.8893995285 8.5000000000  -999.250000  -999.250000  -999.250000 78.221046448 89.489608765 2.2453000546 58.330600739 2.4602000713  -999.250000 1.9259194136
 3148.5839844 8.8936996460 8.5000000000  -999.250000  -999.250000  -999.250000 81.623329163 88.754318237 2.2648000717 57.979400635 2.4702000618  -999.250000 1.9380260706
 3148.7363281 8.8978996277 8.5000000000  -999.250000  -999.250000  -999.250000 81.283126831 88.038719177 2.2583999634 58.016601563 2.4842998981  -999.250000 1.9543260336
 3148.8889160 8.9021997452 8.5000000000  -999.250000  -999.250000  -999.250000 76.482475281 88.102302551 2.2520000935 58.053798676 2.4985001087  -999.250000 1.9705355167
 3149.0412598 8.9049997330 8.5000000000  -999.250000  -999.250000  -999.250000 73.744201660 88.698783875 2.2441999912 57.960700989 2.5032999516  -999.250000 1.9815957546
 3149.1936035 8.9040002823 8.5000000000  -999.250000  -999.250000  -999.250000 75.030296326 88.953063965 2.2327001095 57.516201019 2.4830000401  -999.250000 1.9788956642
 3149.3459473 8.9031000137 8.5000000000  -999.250000  -999.250000  -999.250000 75.142745972 88.277214050 2.2212998867 57.071701050 2.4625999928  -999.250000 1.9761954546
 3149.4985352 8.9020996094 8.5000000000  -999.250000  -999.250000  -999.250000 73.077293396 87.197517395 2.2098000050 56.627101898 2.4421999454  -999.250000 1.9733923674
 3149.6508789 8.8961000443 8.5000000000  -999.250000  -999.250000  -999.250000 71.308227539 86.143081665 2.1988999844 55.967498779 2.4423000813  -999.250000 1.9709961414
 3149.8032227 8.8901996613 8.5000000000  -999.250000  -999.250000  -999.250000 71.653945923 86.329483032 2.1879999638 55.305599213 2.4426000118  -999.250000 1.9685959816
 3149.9555664 8.8842000961 8.5000000000  -999.250000  -999.250000  -999.250000 74.786582947 86.567962646 2.1772000790 54.643798828 2.4428999424  -999.250000 1.9660981894
 3150.1081543 8.8914003372 8.5000000000  -999.250000  -999.250000  -999.250000 79.554649353 87.130630493 2.1661000252 54.780998230 2.4414999485  -999.250000 1.9649984837
 3150.2604980 8.9040002823 8.5000000000  -999.250000  -999.250000  -999.250000 83.408233643 87.058860779 2.1549999714 55.246799469 2.4395000935  -999.250000 1.9644991159
 3150.4128418 8.9166002274 8.5000000000  -999.250000  -999.250000  -999.250000 84.288421631 87.054901123 2.1438999176 55.712600708 2.4375000000  -999.250000 1.9640020132
 3150.5651855 8.9219999313 8.5000000000  -999.250000  -999.250000  -999.250000 81.807250977 87.283462524 2.1335000992 56.354801178 2.4365000725  -999.250000 1.9653060436
 3150.7175293 8.9177999496 8.5000000000  -999.250000  -999.250000  -999.250000 79.176628113 87.521957397 2.1240000725 57.232799530 2.4368999004  -999.250000 1.9691059589
 3150.8701172 8.9135999680 8.5000000000  -999.250000  -999.250000  -999.250000 77.961151123 87.854629517 2.1145000458 58.110801697 2.4372999668  -999.250000 1.9728045464
 3151.0224609 8.9118003845 8.5000000000  -999.250000  -999.250000  -999.250000 78.027130127 88.003044128 2.1045000553 58.876098633 2.4314999580  -999.250000 1.9755953550
