# LAS format log file from PETREL
# Project units are specified as depth units
#==================================================================
~Version information
VERS.   2.0:
WRAP.   NO:
#==================================================================
~Well
STRT .m      2674.6198730 :
STOP .m      4399.4833984 :
STEP .m     0.00000000 :
NULL .        -999.250000 :
COMP.           : COMPANY
WELL.  7/8-4 T2   : WELL
FLD.            : FIELD
LOC.            : LOCATION
SRVC.           : SERVICE COMPANY
DATE.  2018-09-11 21:49:25   : Log Export Date {yyyy-MM-dd HH:mm:ss}
PROV.           : PROVINCE
UWI.   7/8-4 T2   : UNIQUE WELL ID
API.            : API NUMBER
#==================================================================
~Curve
DEPT .m                   : DEPTH
DCAL .in                  : DCAL
CALI .in                  : CALI
BS .in                    : BS
ROP .m/h                  : ROP
DRHO .g/cm3               : DRHO
NPHI .m3/m3               : NPHI
RHOB .g/cm3               : RHOB
PEF .b/e                  : PEF
GR .gAPI                  : GR
DTC .us/ft                : DTC
RDEP .ohm.m               : RDEP
SP .mV                    : SP
RSHA .ohm.m               : RSHA
RMED .ohm.m               : RMED
~Parameter
#==================================================================
~Ascii
# ...
 3361.9440918 -0.250099987 11.999900818 12.250000954 60.362491608 -0.034284011 0.1770442873 2.4253332615 12.856420517 51.339038849 70.613601685 0.7879995108 80.878875732 0.5623000264 0.8363000154
 3362.0966797 -0.227699995 12.022300720 12.250000954 57.473476410 -0.033663765 0.1703241169 2.4463102818 11.929786682 50.111766815 69.084999084 0.9129080176 80.611083984 0.7487000227 1.0247999430
 3362.2490234 -0.193700001 12.056301117 12.250000954 55.954254150 -0.032966878 0.1563195139 2.4807550907 10.365689278 48.291679382 66.697601318 1.1026045084 80.202346802 1.0556000471 1.3580000401
 3362.4013672 -0.159799993 12.090200424 12.250000954 54.426261902 -0.032265522 0.1422802508 2.5151538849 8.7997541428 46.469165802 64.310203552 1.2928998470 79.793205261 1.3625999689 1.6913000345
 3362.5537109 -0.128199995 12.121800423 12.250000954 48.934246063 -0.030091178 0.1211944520 2.5487511158 7.6488785744 44.951766968 62.081401825 1.6677442789 79.546081543 2.4451000690 2.8390998840
 3362.7062988 -0.101199992 12.148798943 12.250000954 36.136608124 -0.025201375 0.0871030837 2.5807020664 7.2604589462 43.993434906 60.145004272 2.3828845024 79.596656799 4.9573998451 5.4883999825
 3362.8586426 -0.074199997 12.175799370 12.250000954 23.381204605 -0.020326942 0.0531250425 2.6125490665 6.8732671738 43.038291931 58.208499908 3.0958514214 79.647148132 7.4696998596 8.1377000809
 3363.0109863 -0.048999999 12.201000214 12.250000954 11.507747650 -0.015933009 0.0213740803 2.6431212425 6.5420336723 42.223716736 56.391704559 3.9417669773 79.672935486 9.9256000519 10.708600044
 3363.1633301 -0.048300002 12.201699257 12.250000954 11.223955154 -0.017810008 0.0189280808 2.6564211845 6.9373331070 43.231918335 56.143901825 6.4795670509 79.381134033 11.641900063 12.251999855
 3363.3156738 -0.047699999 12.202300072 12.250000954 10.940162659 -0.019687008 0.0164820813 2.6696212292 7.3325338364 44.240116119 55.896198273 9.0172672272 79.089332581 13.358300209 13.795299530
 3363.4682617 -0.047100000 12.202899933 12.250000954 10.668472290 -0.021563413 0.0140367188 2.6829018593 7.7261919975 45.244522095 55.648399353 11.551951408 78.796371460 15.074700356 15.338700294
 3363.6206055 -0.046900004 12.203100204 12.250000954 14.406663895 -0.022315729 0.0127013279 2.6834957600 7.4113926888 44.532825470 55.318298340 11.847922325 78.320358276 17.357999802 22.093999863
 3363.7729492 -0.046900004 12.203100204 12.250000954 19.218997955 -0.022771729 0.0116583286 2.6807954311 6.9076929092 43.363628387 54.966400146 11.549821854 77.794357300 19.791799545 30.234699249
 3363.9252930 -0.046900004 12.203100204 12.250000954 24.029497147 -0.023227273 0.0106155481 2.6779978275 6.4041838646 42.195407867 54.614398956 11.251801491 77.268478394 22.225700378 38.375301361
 3364.0778809 -0.046900004 12.203100204 12.250000954 27.697166443 -0.023396658 0.0097085265 2.6765992641 6.0196380615 41.638702393 54.380500793 11.002553940 76.752891541 25.958799362 51.178501129
 3364.2302246 -0.046900004 12.203100204 12.250000954 30.252790451 -0.023289831 0.0089367591 2.6763997078 5.7506685257 41.670551300 54.260200500 10.801076889 76.249694824 30.944200516 68.475898743
 3364.3825684 -0.046900004 12.203100204 12.250000954 32.815376282 -0.023184683 0.0081638107 2.6761987209 5.4814186096 41.702358246 54.139900208 10.599493980 75.745941162 35.929599762 85.773399353
 3364.5349121 -0.046900004 12.203100204 12.250000954 37.384925842 -0.023613568 0.0080493689 2.6754968166 5.3063263893 41.738281250 54.069095612 10.471390724 75.339172363 38.280300140 95.462898254
 3364.6875000 -0.046900004 12.203100204 12.250000954 48.715663910 -0.025844127 0.0101547232 2.6735937595 5.4478526115 41.787860870 54.165000916 10.590881348 75.258644104 31.727600098 79.442398071
 3364.8398438 -0.046900004 12.203100204 12.250000954 60.010585785 -0.028067570 0.0122523671 2.6716969013 5.5890264511 41.837379456 54.261001587 10.709990501 75.178367615 25.174900055 63.421901703
 3364.9921875 -0.046900004 12.203100204 12.250000954 71.306991577 -0.030290870 0.0143513447 2.6697947979 5.7299780846 41.885040283 54.356994629 10.829154015 75.099845886 18.622200012 47.401401520
 3365.1445313 -0.046900004 12.203100204 12.250000954 72.266693115 -0.029584607 0.0151902325 2.6664943695 5.6536583900 40.787139893 54.600200653 10.862846375 76.192253113 19.093000412 49.626399994
 3365.2968750 -0.046900004 12.203100204 12.250000954 72.653503418 -0.028715609 0.0159592312 2.6629946232 5.5652585030 39.625637054 54.851501465 10.891846657 77.349456787 19.952999115 52.862201691
 3365.4494629 -0.046900004 12.203100204 12.250000954 73.040603638 -0.027843887 0.0167287234 2.6596028805 5.4772815704 38.468379974 55.102901459 10.922345161 78.503295898 20.812900543 56.097999573
 3365.6018066 -0.047400001 12.202599525 12.250000954 73.320571899 -0.026247855 0.0175784286 2.6605048180 5.5340075493 39.182144165 55.307800293 11.373462677 78.032943726 20.390600204 82.391502380
 3365.7541504 -0.048099998 12.201899529 12.250000954 73.547607422 -0.024285855 0.0184704307 2.6635046005 5.6633071899 40.832847595 55.489601135 12.036362648 76.749542236 19.327299118 120.21379852
 3365.9064941 -0.048800003 12.201199532 12.250000954 73.774749756 -0.022325078 0.0193635970 2.6663966179 5.7930541039 42.483222961 55.671302795 12.697329521 75.467529297 18.263900757 158.03610229
 3366.0590820 -0.053199999 12.196800232 12.250000954 74.067214966 -0.021756228 0.0203617178 2.6642665863 6.2032265663 43.871700287 56.000900269 12.210036278 75.052566528 16.495199203 381.54000854
 3366.2114258 -0.063500002 12.186499596 12.250000954 74.461921692 -0.023387620 0.0215218626 2.6538834572 7.0538654327 44.839153290 56.565700531 9.9127120972 76.008934021 13.604000092 900.61871338
 3366.3637695 -0.073899999 12.176099777 12.250000954 74.857147217 -0.025022801 0.0226877723 2.6435782909 7.9060559273 45.807834625 57.130599976 7.6117916107 76.966644287 10.712699890 1419.6973877
 3366.5161133 -0.088299997 12.161700249 12.250000954 75.179649353 -0.026772371 0.0263230968 2.6299335957 8.8153266907 46.638370514 57.901100159 5.4240183830 77.865341187 7.9482002258 1826.8638916
 3366.6687012 -0.138300002 12.111700058 12.250000954 74.890151978 -0.029503727 0.0507590696 2.5883672237 10.207346916 46.306140900 60.424499512 4.1853427887 78.267684937 6.2635998726 1279.9787598
 3366.8210449 -0.188199997 12.061800003 12.250000954 74.601242065 -0.032226369 0.0751171038 2.5469336510 11.594926834 45.974967957 62.947998047 2.9506180286 78.668739319 4.5791001320 733.09362793
 3366.9733887 -0.238199994 12.011799812 12.250000954 74.312461853 -0.034948565 0.0995144472 2.5055601597 12.983328819 45.644893646 65.471496582 1.7152539492 79.069168091 2.8945999146 186.20840454
 3367.1257324 -0.249599993 12.000398636 12.250000954 74.186859131 -0.034676544 0.1241315231 2.4805657864 13.500431061 46.329040527 67.344398499 1.3124392033 78.737411499 2.1173999310 67.712402344
 3367.2780762 -0.252900004 11.997099876 12.250000954 74.096313477 -0.033766542 0.1487965286 2.4591653347 13.831830978 47.229541779 69.078498840 1.0872391462 78.249412537 1.5338000059 40.624198914
 3367.4306641 -0.256099999 11.993900299 12.250000954 74.005767822 -0.032856226 0.1734605283 2.4376683235 14.162621498 48.129161835 70.812500000 0.8620243073 77.760177612 0.9502000213 13.536000252
 3367.5830078 -0.257499993 11.992500305 12.250000954 73.963912964 -0.032303594 0.1857772171 2.4277997017 14.137681007 48.303707123 71.561996460 0.7449572086 77.129493713 0.6600999832 1.1886999607
 3367.7353516 -0.257400006 11.992600441 12.250000954 73.962928772 -0.032049589 0.1877812147 2.4275994301 13.814081192 47.870304108 71.483901978 0.7182571888 76.377395630 0.6165999770 1.2323000431
 3367.8876953 -0.257400006 11.992600441 12.250000954 73.961944580 -0.031794049 0.1897762269 2.4273104668 13.489947319 47.436393738 71.405899048 0.6916142702 75.625877380 0.5730999708 1.2757999897
 3368.0402832 -0.256599993 11.993398666 12.250000954 73.959632874 -0.031197058 0.1861201078 2.4339814186 12.829202652 46.680732727 70.816299438 0.7008494735 75.236686707 0.5618000031 1.3094999790
