# LAS format log file from PETREL
# Project units are specified as depth units
#==================================================================
~Version information
VERS.   2.0:
WRAP.   NO:
#==================================================================
~Well
STRT .m      1216.1519775 :
STOP .m      3001.3652344 :
STEP .m     0.00000000 :
NULL .        -999.250000 :
COMP.           : COMPANY
WELL.  7/8-2 Cero   : WELL
FLD.            : FIELD
LOC.            : LOCATION
SRVC.           : SERVICE COMPANY
DATE.  2018-09-11 21:49:23   : Log Export Date {yyyy-MM-dd HH:mm:ss}
PROV.           : PROVINCE
UWI.   7/8-2   : UNIQUE WELL ID
API.            : API NUMBER
#==================================================================
~Curve
DEPT .m                   : DEPTH
CALI .in                  : CALI
BS .in                    : BS
DRHO .g/cm3               : DRHO
RHOB .g/cm3               : RHOB
GR .gAPI                  : GR
DTC .us/ft                : DTC
RDEP .ohm.m               : RDEP
SP .mV                    : SP
RSHA .ohm.m               : RSHA
RMED .ohm.m               : RMED
~Parameter
#==================================================================
~Ascii
# ...
 2043.9887695 12.940999985 12.250000954  -999.250000  -999.250000 80.172401428 136.01533508 0.6553000212 -34.73659897 0.8396999836 0.8155010343
 2044.1411133 12.890200615 12.250000954  -999.250000  -999.250000 81.085098267 136.09693909 0.6535000205 -34.72719955 0.8385000229 0.8135015965
 2044.2935791 12.830400467 12.250000954  -999.250000  -999.250000 82.064102173 136.19812012 0.6517999768 -34.72209930 0.8367000222 0.8114016652
 2044.4459229 12.770500183 12.250000954  -999.250000  -999.250000 83.042999268 136.29931641 0.6502000093 -34.71689987 0.8349000216 0.8093016744
 2044.5982666 12.810900688 12.250000954  -999.250000  -999.250000 82.775802612 136.42878723 0.6489999890 -34.71469879 0.8321999907 0.8091002703
 2044.7507324 12.906400681 12.250000954  -999.250000  -999.250000 81.824699402 136.57397461 0.6481000185 -34.71409988 0.8288999796 0.8099992871
 2044.9030762 13.001799583 12.250000954  -999.250000  -999.250000 80.873596191 136.71907043 0.6471999884 -34.71360016 0.8256000280 0.8107987642
 2045.0555420 13.043299675 12.250000954  -999.250000  -999.250000 80.095901489 136.84080505 0.6474000216 -34.69660187 0.8233000040 0.8120989799
 2045.2078857 12.990799904 12.250000954  -999.250000  -999.250000 79.620002747 136.92147827 0.6496000290 -34.65119934 0.8223999739 0.8139969707
 2045.3603516 12.938400269 12.250000954  -999.250000  -999.250000 79.143997192 137.00224304 0.6517999768 -34.60570145 0.8216000199 0.8159983754
 2045.5126953 12.894700050 12.250000954  -999.250000  -999.250000 78.544998169 137.07513428 0.6535000205 -34.57910156 0.8210999966 0.8178984523
 2045.6651611 12.946800232 12.250000954  -999.250000  -999.250000 76.602897644 137.06291199 0.6500999928 -34.75749969 0.8237000108 0.8197984695
 2045.8175049 12.998900414 12.250000954  -999.250000  -999.250000 74.660797119 137.05061340 0.6467000246 -34.93600082 0.8263000250 0.8215985894
 2045.9699707 13.050900459 12.250000954  -999.250000  -999.250000 72.718803406 137.03831482 0.6432999969 -35.11449814 0.8288999796 0.8234984279
 2046.1223145 13.023300171 12.250000954  -999.250000  -999.250000 72.349601746 136.90361023 0.6409999728 -35.19219971 0.8374999762 0.8248988390
 2046.2747803 12.976099968 12.250000954  -999.250000  -999.250000 72.365898132 136.73893738 0.6389999986 -35.24520111 0.8476999998 0.8262988925
 2046.4271240 12.928899765 12.250000954  -999.250000  -999.250000 72.382202148 136.57423401 0.6369000077 -35.29819870 0.8578000069 0.8275989890
 2046.5794678 12.921198845 12.250000954  -999.250000  -999.250000 73.328598022 136.64747620 0.6412000060 -35.24330139 0.8644000292 0.8281000257
 2046.7319336 12.949798584 12.250000954  -999.250000  -999.250000 75.125701904 136.93876648 0.6510999799 -35.08969879 0.8676999807 0.8277000189
 2046.8842773 12.978300095 12.250000954  -999.250000  -999.250000 76.922798157 137.22982788 0.6610000134 -34.93619919 0.8709999919 0.8273000121
 2047.0367432 12.986599922 12.250000954  -999.250000  -999.250000 78.129203796 137.35090637 0.6686000228 -34.78310013 0.8713999987 0.8260999918
 2047.1890869 12.931400299 12.250000954  -999.250000  -999.250000 77.479896545 136.93597412 0.6683999896 -34.63159943 0.8626999855 0.8227999806
 2047.3415527 12.876099586 12.250000954  -999.250000  -999.250000 76.830497742 136.52003479 0.6682999730 -34.47999954 0.8539000154 0.8195000291
 2047.4938965 12.820799828 12.250000954  -999.250000  -999.250000 76.181198120 136.10433960 0.6682000160 -34.32849884 0.8450999856 0.8162000179
 2047.6463623 12.825900078 12.250000954  -999.250000  -999.250000 76.525901794 135.75697327 0.6714000106 -34.47570038 0.8424000144 0.8177000284
 2047.7987061 12.833399773 12.250000954  -999.250000  -999.250000 76.911300659 135.41247559 0.6747000217 -34.63510132 0.8399000168 0.8194000125
 2047.9511719 12.840900421 12.250000954  -999.250000  -999.250000 77.296798706 135.06797791 0.6779999733 -34.79439926 0.8374999762 0.8209999800
 2048.1035156 12.855500221 12.250000954  -999.250000  -999.250000 78.690101624 135.33995056 0.6776999831 -34.81840134 0.8378000259 0.8203999996
 2048.2558594 12.873500824 12.250000954  -999.250000  -999.250000 80.558296204 135.90280151 0.6758000255 -34.77859879 0.8395000100 0.8187000155
 2048.4084473 12.891500473 12.250000954  -999.250000  -999.250000 82.426399231 136.46699524 0.6739000082 -34.73880005 0.8411999941 0.8169999719
 2048.5607910 12.910499573 12.250000954  -999.250000  -999.250000 83.509803772 136.85699463 0.6719999909 -34.75500107 0.8417999744 0.8166000247
 2048.7131348 12.930999756 12.250000954  -999.250000  -999.250000 83.411003113 136.98550415 0.6700000167 -34.85580063 0.8406999707 0.8180000186
 2048.8654785 12.951499939 12.250000954  -999.250000  -999.250000 83.312202454 137.11428833 0.6679999828 -34.95660019 0.8396000266 0.8195000291
 2049.0178223 12.967200279 12.250000954  -999.250000  -999.250000 83.089599609 137.20954895 0.6664999723 -35.02719879 0.8389000297 0.8213000298
 2049.1704102 12.946901321 12.250000954  -999.250000  -999.250000 81.943397522 137.05419922 0.6683999896 -34.87220001 0.8416000009 0.8259999752
 2049.3227539 12.926500320 12.250000954  -999.250000  -999.250000 80.797203064 136.89904785 0.6704000235 -34.71709824 0.8442999721 0.8306000233
 2049.4750977 12.906200409 12.250000954  -999.250000  -999.250000 79.651000977 136.74354553 0.6722999811 -34.56209946 0.8470000029 0.8353000283
 2049.6274414 12.950300217 12.250000954  -999.250000  -999.250000 79.749397278 135.22033691 0.6827999949 -34.56969833 0.8568999767 0.8399000168
 2049.7800293 13.006999969 12.250000954  -999.250000  -999.250000 80.089797974 133.42619324 0.6949999928 -34.60889816 0.8680999875 0.8445000052
 2049.9323730 13.063699722 12.250000954  -999.250000  -999.250000 80.430198669 131.63450623 0.7071999907 -34.64820099 0.8792999983 0.8490999937
 2050.0847168 13.118800163 12.250000954  -999.250000  -999.250000 79.735496521 131.34425354 0.7128000259 -34.67050171 0.8873999715 0.8478000164
 2050.2370605 13.172599792 12.250000954  -999.250000  -999.250000 78.215698242 132.24815369 0.7131000161 -34.67940140 0.8927999735 0.8418999910
 2050.3896484 13.226401329 12.250000954  -999.250000  -999.250000 76.695800781 133.15550232 0.7135000229 -34.68820190 0.8982999921 0.8360000253
 2050.5419922 13.259301186 12.250000954  -999.250000  -999.250000 76.140701294 134.13499451 0.7096999884 -34.70130157 0.8977000117 0.8295999765
 2050.6943359 13.237299919 12.250000954  -999.250000  -999.250000 78.121398926 135.30632019 0.6951000094 -34.72549820 0.8810999990 0.8217999935
 2050.8466797 13.215300560 12.250000954  -999.250000  -999.250000 80.101997375 136.47952271 0.6805999875 -34.74969864 0.8646000028 0.8140000105
 2050.9990234 13.193201065 12.250000954  -999.250000  -999.250000 82.082702637 137.65272522 0.6660000086 -34.77379990 0.8479999900 0.8062000275
 2051.1516113 13.241800308 12.250000954  -999.250000  -999.250000 82.266197205 137.60589600 0.6586999893 -34.70690155 0.8407999873 0.8022999763
 2051.3039551 13.290800095 12.250000954  -999.250000  -999.250000 82.440299988 137.55088806 0.6514000297 -34.63949966 0.8335999846 0.7983999848
 2051.4562988 13.339699745 12.250000954  -999.250000  -999.250000 82.614303589 137.49589539 0.6441000104 -34.57210159 0.8264999986 0.7946000099
 2051.6086426 13.294400215 12.250000954  -999.250000  -999.250000 82.450500488 137.70416260 0.6430000067 -34.37250137 0.8212000132 0.7910000086
 2051.7612305 13.211299896 12.250000954  -999.250000  -999.250000 82.151199341 138.01899719 0.6444000006 -34.11989975 0.8166999817 0.7875000238
 2051.9135742 13.128299713 12.250000954  -999.250000  -999.250000 81.851997375 138.33349609 0.6457999945 -33.86740112 0.8122000098 0.7839999795
 2052.0659180 13.020799637 12.250000954  -999.250000  -999.250000 80.816596985 138.47917175 0.6446999907 -33.91159821 0.8094999790 0.7828999758
 2052.2182617 12.881199837 12.250000954  -999.250000  -999.250000 78.817497253 138.40461731 0.6402999759 -34.34429932 0.8093000054 0.7850000262
 2052.3708496 12.741700172 12.250000954  -999.250000  -999.250000 76.818298340 138.32969666 0.6359000206 -34.77700043 0.8091999888 0.7870000005
