# LAS format log file from PETREL
# Project units are specified as depth units
#==================================================================
~Version information
VERS.   2.0:
WRAP.   NO:
#==================================================================
~Well
STRT .m      2674.6198730 :
STOP .m      4399.4833984 :
STEP .m     0.00000000 :
NULL .        -999.250000 :
COMP.           : COMPANY
WELL.  7/8-4 T2   : WELL
FLD.            : FIELD
LOC.            : LOCATION
SRVC.           : SERVICE COMPANY
DATE.  2018-09-11 21:49:25   : Log Export Date {yyyy-MM-dd HH:mm:ss}
PROV.           : PROVINCE
UWI.   7/8-4 T2   : UNIQUE WELL ID
API.            : API NUMBER
#==================================================================
~Curve
DEPT .m                   : DEPTH
DCAL .in                  : DCAL
CALI .in                  : CALI
BS .in                    : BS
ROP .m/h                  : ROP
DRHO .g/cm3               : DRHO
NPHI .m3/m3               : NPHI
RHOB .g/cm3               : RHOB
PEF .b/e                  : PEF
GR .gAPI                  : GR
DTC .us/ft                : DTC
RDEP .ohm.m               : RDEP
SP .mV                    : SP
RSHA .ohm.m               : RSHA
RMED .ohm.m               : RMED
~Parameter
#==================================================================
~Ascii
# ...
 3818.0773926 1.5937999487 10.093798637 8.5000000000 78.568878174 -0.016123880 0.3167752624 2.4612996578 3.5373904705 155.93809509 110.15010071 2.5194003582 64.992271423 6.9029002190 6.1414999962
 3818.2297363 1.5937999487 10.093798637 8.5000000000 78.970787048 -0.016048880 0.3200672865 2.4610996246 3.5313901901 156.12168884 111.15080261 2.7069003582 65.724975586 6.9257001877 5.9408998489
 3818.3820801 1.5937999487 10.093798637 8.5000000000 79.373123169 -0.015975283 0.3233575821 2.4607985020 3.5253267288 156.30857849 112.15160370 2.8942310810 66.457611084 6.9485001564 5.7403001785
 3818.5346680 1.5937999487 10.093798637 8.5000000000 80.255043030 -0.016155319 0.3255845308 2.4598896503 3.5422017574 158.50456238 113.23729706 3.0381855965 67.093070984 6.7375001907 5.4636998177
 3818.6870117 1.5937999487 10.093798637 8.5000000000 82.749740601 -0.017190663 0.3241917789 2.4566948414 3.6363508701 167.47720337 114.61430359 3.0336928368 67.394577026 5.7241001129 4.9260001183
 3818.8393555 1.5937999487 10.093798637 8.5000000000 85.248756409 -0.018228661 0.3227967620 2.4533946514 3.7305512428 176.46420288 115.99140930 3.0292928219 67.696578979 4.7108001709 4.3884000778
 3818.9916992 1.5937999487 10.093798637 8.5000000000 87.744132996 -0.019265547 0.3214284480 2.4501955509 3.8246006966 185.45576477 117.36840057 3.0247993469 67.998374939 3.6974000931 3.8506999016
 3819.1442871 1.5937999487 10.093798637 8.5000000000 87.973075867 -0.020233080 0.3367089033 2.4472906590 3.7624721527 197.30738831 118.12339783 3.0242993832 68.110122681 3.8510000706 4.1389999390
 3819.2966309 1.5937999487 10.093798637 8.5000000000 88.069381714 -0.021193542 0.3529079854 2.4443955421 3.6913859844 209.28633118 118.84210205 3.0240995884 68.210456848 4.0725998878 4.4755001068
 3819.4489746 1.5937999487 10.093798637 8.5000000000 88.165496826 -0.022153517 0.3691202700 2.4415023327 3.6203043461 221.27677917 119.56079865 3.0240015984 68.310592651 4.2943000793 4.8119997978
 3819.6013184 1.5937999487 10.093798637 8.5000000000 88.050819397 -0.021851493 0.3773918152 2.4430058002 3.5607137680 228.49960327 121.02200317 3.1500039101 68.180000305 4.4640002251 5.2810001373
 3819.7539063 1.5937999487 10.093798637 8.5000000000 87.829017639 -0.020909991 0.3816576302 2.4466114044 3.5067279339 233.31999207 122.85879517 3.3400070667 67.932403564 4.6075000763 5.8171000481
 3819.9062500 1.5937999487 10.093798637 8.5000000000 87.607627869 -0.019971715 0.3859016895 2.4502053261 3.4530658722 238.12460327 124.69560242 3.5292608738 67.685920715 4.7509999275 6.3531999588
 3820.0585938 1.5937999487 10.093798637 8.5000000000 87.206893921 -0.019171076 0.3857132494 2.4534034729 3.4318499565 242.74089050 126.26619720 3.6294302940 67.638633728 5.3120999336 6.8935999870
 3820.2109375 1.5937999487 10.093798637 8.5000000000 86.518577576 -0.018595075 0.3783952892 2.4557034969 3.4631500244 247.04249573 127.40849304 3.5860304832 67.911933899 6.5454001427 7.4407000542
 3820.3632813 1.5937999487 10.093798637 8.5000000000 85.830337524 -0.018018516 0.3710794151 2.4580035210 3.4944465160 251.34223938 128.55070496 3.5425014496 68.185104370 7.7786998749 7.9876999855
 3820.5158691 1.5937999487 10.093798637 8.5000000000 85.188560486 -0.017081194 0.3644951880 2.4602043629 3.5234255791 254.46002197 129.53570557 3.4804995060 68.438255310 8.8042001724 8.3591995239
 3820.6682129 1.5937999487 10.093798637 8.5000000000 84.955009460 -0.013085587 0.3642446101 2.4616022110 3.5314128399 247.47628784 129.14140320 3.2619490623 68.516525269 8.0069999695 7.1901001930
 3820.8205566 1.5937999487 10.093798637 8.5000000000 84.721076965 -0.009083587 0.3639945984 2.4630024433 3.5395128727 240.48127747 128.74710083 3.0429489613 68.594924927 7.2098999023 6.0209999084
 3820.9729004 1.5937999487 10.093798637 8.5000000000 84.483978271 -0.005087063 0.3637348115 2.4645025730 3.5475823879 233.47128296 128.35279846 2.8240313530 68.673675537 6.4127001762 4.8519001007
 3821.1254883 1.5935000181 10.093500137 8.5000000000 82.261535645 -0.004503499 0.3573573828 2.4661052227 3.5365514755 217.01379395 127.04161072 2.6561994553 68.969291687 5.4773998260 4.3668999672
 3821.2778320 1.5930999517 10.093099594 8.5000000000 79.617477417 -0.004659251 0.3496786654 2.4677026272 3.5213758945 198.56990051 125.53130341 2.5000493526 69.310752869 4.5120000839 4.0303997993
 3821.4301758 1.5928000212 10.092800140 8.5000000000 76.973571777 -0.004817157 0.3419892490 2.4694015980 3.5062918663 180.10627747 124.02100372 2.3437352180 69.652709961 3.5467000008 3.6940000057
 3821.5825195 1.5895999670 10.089599609 8.5000000000 77.069168091 -0.005539926 0.3352765739 2.4704010487 3.5013058186 167.75028992 122.49720001 2.2410087585 69.907989502 3.1579000950 3.5034000874
 3821.7351074 1.5841000080 10.084098816 8.5000000000 79.492652893 -0.006743846 0.3293831646 2.4710016251 3.5049114227 160.56423950 120.96189880 2.1839172840 70.090080261 3.2590000629 3.4368000031
 3821.8874512 1.5785999298 10.078599930 8.5000000000 81.907417297 -0.007943632 0.3235075772 2.4714996815 3.5085494518 153.40419006 119.42659760 2.1269464493 70.271553040 3.3601000309 3.3701999187
 3822.0397949 1.5686000586 10.068599701 8.5000000000 83.913742065 -0.008960790 0.3176255822 2.4712967873 3.5394737720 148.16740417 118.08110046 2.0935540199 70.428436279 3.4797999859 3.3317999840
 3822.1921387 1.5461000204 10.046099663 8.5000000000 84.750358582 -0.009453791 0.3117485940 2.4692966938 3.6479737759 148.41679382 117.27639771 2.1273543835 70.514839172 3.6524999142 3.3740000725
 3822.3444824 1.5235999823 10.023599625 8.5000000000 85.587287903 -0.009947791 0.3058715761 2.4671967030 3.7563736439 148.66619873 116.47160339 2.1612541676 70.601135254 3.8252999783 3.4161999226
 3822.4970703 1.5009999275 10.001000404 8.5000000000 86.415657043 -0.010441004 0.3000132442 2.4651038647 3.8648259640 148.91580200 115.66690063 2.1950092316 70.686958313 3.9981000423 3.4584999084
 3822.6494141 1.4966000319 9.9966001511 8.5000000000 82.098876953 -0.010443987 0.3057876527 2.4675040245 3.9434249401 149.35420227 115.95690155 2.2008082867 70.412147522 3.7179999352 3.4684000015
 3822.8017578 1.4926000834 9.9926004410 8.5000000000 77.671714783 -0.010435989 0.3118106425 2.4700040817 4.0213251114 149.79650879 116.27050018 2.2060084343 70.129646301 3.4282000065 3.4776000977
 3822.9541016 1.4886000156 9.9886007309 8.5000000000 73.244781494 -0.010430860 0.3178261518 2.4725100994 4.0992298126 150.23818970 116.58399963 2.2111656666 69.846977234 3.1384999752 3.4867999554
 3823.1066895 1.4615999460 9.9616003036 8.5000000000 68.960601807 -0.011595335 0.3191607893 2.4787249565 4.1179785728 150.22734070 116.66070557 2.1896946430 69.517883301 3.2230000496 3.4407999516
 3823.2590332 1.4246000051 9.9245996475 8.5000000000 64.754730225 -0.013259671 0.3184768856 2.4865124226 4.1112890244 150.02186584 116.63500214 2.1568472385 69.170043945 3.4695000648 3.3708000183
 3823.4113770 1.3876999617 9.8876991272 8.5000000000 60.538234711 -0.014925241 0.3177944422 2.4943048954 4.1045866013 149.81347656 116.60940552 2.1239166260 68.822105408 3.7158999443 3.3008000851
 3823.5637207 1.3557000160 9.8556995392 8.5000000000 53.887451172 -0.015697245 0.3186919689 2.4973945618 4.0963830948 147.98526001 116.25890350 2.0717735291 68.696800232 3.7962000370 3.1786999702
 3823.7163086 1.3308001757 9.8308000565 8.5000000000 43.829086304 -0.015224493 0.3217959106 2.4939887524 4.0859665871 143.89411926 115.45510101 1.9928479195 68.882095337 3.6445999146 2.9839000702
 3823.8686523 1.3058999777 9.8058996201 8.5000000000 33.804718018 -0.014754414 0.3248876333 2.4904959202 4.0755939484 139.81578064 114.65119934 1.9141877890 69.066818237 3.4930000305 2.7890000343
 3824.0209961 1.2842999697 9.7842998505 8.5000000000 24.968730927 -0.014389480 0.3271573186 2.4879035950 4.0717601776 135.62158203 113.92199707 1.8442767859 69.266166687 3.3355998993 2.6180999279
 3824.1733398 1.2833000422 9.7833003998 8.5000000000 23.675748825 -0.014689483 0.3242423236 2.4902036190 4.1091594696 130.74188232 113.66560364 1.8297768831 69.555068970 3.1407999992 2.5987999439
