# LAS format log file from PETREL
# Project units are specified as depth units
#==================================================================
~Version information
VERS.   2.0:
WRAP.   NO:
#==================================================================
~Well
STRT .m      2126.7421875 :
STOP .m      3314.5480957 :
STEP .m     0.00000000 :
NULL .        -999.250000 :
COMP.           : COMPANY
WELL.  7/8-1   : WELL
FLD.            : FIELD
LOC.            : LOCATION
SRVC.           : SERVICE COMPANY
DATE.  2018-09-11 21:49:23   : Log Export Date {yyyy-MM-dd HH:mm:ss}
PROV.           : PROVINCE
UWI.   7/8-1   : UNIQUE WELL ID
API.            : API NUMBER
#==================================================================
~Curve
DEPT .m                   : DEPTH
CALI .in                  : CALI
DRHO .g/cm3               : DRHO
NPHI .m3/m3               : NPHI
RHOB .g/cm3               : RHOB
GR .gAPI                  : GR
DTC .us/ft                : DTC
RDEP .ohm.m               : RDEP
SP .mV                    : SP
RSHA .ohm.m               : RSHA
RMIC .ohm.m               : RMIC
RMED .ohm.m               : RMED
~Parameter
#==================================================================
~Ascii
# ...
 2437.6381836 9.8909997940 0.0119775645 0.4332000017 2.1670529842 57.189998627 141.65869141 0.2655000091 42.785701752 0.5950914025 0.2604668140 0.6037999988
 2437.7907715 9.7749996185 0.0170000009 0.4135000110 2.1329998970 59.535999298 142.47700500 0.2955999970 42.007900238 0.5299999714 0.3016999960 0.5824000239
 2437.9431152 9.6979999542 0.0040000002 0.4320999980 2.1099998951 61.112998962 141.03199768 0.2775000036 42.023799896 0.5009999871 0.4111999869 0.5677000284
 2438.0954590 9.5920000076 -0.005984000 0.4375999868 2.1169888973 61.651000977 140.55175781 0.2878000140 42.161800385 0.4830287993 0.3973222375 0.5620999932
 2438.2478027 9.4479999542 -0.006998398 0.4420999885 2.1609294415 60.833999634 139.18319702 0.2982000113 41.857101440 0.4810032248 0.3383945525 0.5652999878
 2438.4001465 9.3800001144 0.0049807690 0.4532999992 2.1849615574 59.242000580 138.73872375 0.3084999919 41.873001099 0.4969743788 0.2893785238 0.5667999983
 2438.5527344 9.4890003204 0.0070000002 0.4250000119 2.1830000877 58.032001495 135.24000549 0.3188000023 41.755500793 0.5030000210 0.2840999961 0.5758000016
 2438.7050781 9.5579996109 0.0269680005 0.4011999965 2.1899888515 59.219001770 134.81967163 0.3291999996 41.713401794 0.5049967766 0.3174465597 0.5839999914
 2438.8574219 9.5769996643 0.0359855741 0.3971999884 2.2249438763 61.123001099 134.39767456 0.3411000073 41.731998444 0.5239695311 0.3677193820 0.5950999856
 2439.0097656 9.6040000916 0.0250176284 0.3961000144 2.2629392147 64.084999084 135.50222778 0.3562000096 41.750701904 0.5399743915 0.4755270779 0.6036000252
 2439.1623535 9.6540002823 -0.004000000 0.4115000069 2.2750000954 66.481002808 136.22399902 0.3707999885 42.119598389 0.5469999909 0.4842999876 0.6121000051
 2439.3146973 9.6359996796 -0.006000000 0.4210999906 2.2969999313 67.885002136 136.94400024 0.3802999854 42.741798401 0.5519999862 0.4138000011 0.6201000214
 2439.4670410 9.6090002060 0.0209567994 0.4009000063 2.2950031757 69.345001221 136.34495544 0.3869000077 43.736499786 0.5549951792 0.4139996767 0.6276000142
 2439.6193848 9.5570001602 0.0060240384 0.3828999996 2.2470769882 71.366996765 134.67666626 0.3935000002 44.008399963 0.5559983850 0.4433528781 0.6369000077
 2439.7719727 9.5539999008 0.0109999999 0.3740000129 2.2360000610 72.863998413 134.42399597 0.4000999928 44.225601196 0.5630000234 0.4882000089 0.6514000297
 2439.9243164 9.6090002060 0.0049999999 0.3847000003 2.2349998951 72.333000183 133.01699829 0.4066999853 44.061199188 0.5870000124 0.5209000111 0.6607999802
 2440.0766602 9.6459999084 -0.001988800 0.3894999921 2.2349998951 68.385002136 133.00202942 0.4133000076 43.667701721 0.6019759774 0.5161076784 0.6700999737
 2440.2290039 9.5469999313 0.0039903848 0.3921000063 2.2479791641 64.632003784 132.98703003 0.4199000001 43.289501190 0.6039967537 0.4355293214 0.6794999838
 2440.3813477 9.4250001907 -0.001990385 0.3761000037 2.2529919147 61.209999084 132.51075745 0.4264999926 42.730899811 0.6049984097 0.4928078651 0.6919000149
 2440.5339355 9.3229999542 -0.002000000 0.3671000004 2.2650001049 57.736999512 131.72700500 0.4330999851 42.731498718 0.6320000291 0.4190999866 0.7073000073
 2440.6862793 9.5579996109 0.0219615996 0.3483000100 2.3009424210 54.708000183 131.64514160 0.4395000041 42.551799774 0.7378304005 0.4316798449 0.7221000195
 2440.8386230 9.7799997330 0.0070240386 0.3397000134 2.3029968739 52.485000610 131.41236877 0.4458999932 42.760299683 0.7679519057 0.5686801076 0.7289999723
 2440.9909668 9.9440002441 0.0020080130 0.3409000039 2.3339505196 52.368000031 131.79737854 0.4517999887 42.596801758 0.7630079985 0.4345157146 0.7247999907
 2441.1435547 9.9340000153 0.0070000002 0.3580999970 2.3529999256 52.861000061 132.18400574 0.4546999931 41.443401337 0.7340000272 0.3321000040 0.7213000059
 2441.2958984 9.5319995880 0.0060000001 0.3571000099 2.3740000725 52.222000122 128.81300354 0.4546999931 39.575401306 0.7469999790 0.3492000103 0.7325999737
 2441.4482422 9.3809995651 -0.000988800 0.3323999941 2.3949663639 51.247001648 125.49331665 0.4550999999 40.230098724 0.7669680119 0.3831456006 0.7526000142
 2441.6005859 9.3889999390 -0.015975961 0.3167000115 2.3860142231 49.819000244 123.24160767 0.4580999911 40.860000610 0.7759855986 0.4310232401 0.7691000104
 2441.7531738 9.4460000992 0.0010000000 0.3041999936 2.3780000210 49.723999023 121.84400177 0.4648999870 41.890701294 0.7739999890 0.4458999932 0.7815999985
 2441.9055176 9.4860000610 0.0140000004 0.3030999899 2.3889999390 52.306999207 121.88500214 0.4718999863 42.304401398 0.7950000167 0.5813000202 0.7914000154
 2442.0578613 9.4659996033 0.0100063998 0.3140000105 2.3720271587 54.826999664 123.11802673 0.4812999964 42.335700989 0.8129712343 0.6761479974 0.7991999984
 2442.2102051 9.4499998093 0.0040096156 0.3163000047 2.3570241928 54.645999908 123.80889893 0.4887000024 42.556800842 0.8329679370 0.6625221372 0.8044000268
 2442.3627930 9.4440002441 -0.001000000 0.3068999946 2.3489999771 53.534000397 123.74300385 0.4774999917 43.001098633 0.8439999819 0.6736999750 0.8069000244
 2442.5151367 9.4440002441 -0.005000000 0.3100000024 2.3450000286 54.395000458 123.58499908 0.4817999899 43.371898651 0.8339999914 0.6798999906 0.8062999845
 2442.6674805 9.4580001831 -0.008993600 0.3228999972 2.3450000286 58.398998260 123.71579742 0.4753000140 43.823501587 0.8439840078 0.6737098694 0.8047999740
 2442.8198242 9.4739999771 -0.009000000 0.3472000062 2.3469967842 58.436000824 124.45182037 0.4824000001 44.489601135 0.8559807539 0.6861799955 0.8040999770
 2442.9721680 9.4849996567 -0.005006410 0.3643999994 2.3420081139 57.740001678 126.34696198 0.4957999885 45.668098450 0.8699775934 0.6807088256 0.8000000119
 2443.1247559 9.4739999771 -0.003000000 0.3709000051 2.3399999142 56.313999176 127.98000336 0.4729999900 46.226299286 0.8820000291 0.6225000024 0.7961000204
 2443.2770996 9.4449996948 -0.000004800 0.3790999949 2.3350081444 54.715999603 130.06465149 0.4408000112 46.443599701 0.8849951625 0.5871566534 0.7937999964
 2443.4294434 9.4409999847 0.0169727579 0.3883999884 2.3330030441 54.206001282 131.50569153 0.4451999962 46.391201019 0.8750160336 0.5936894417 0.7850999832
 2443.5817871 9.5080003738 0.0319759622 0.3819000125 2.3379919529 54.611000061 131.63079834 0.4278999865 46.282699585 0.8540336490 0.6201575398 0.7652000189
 2443.7343750 9.5089998245 0.0240000002 0.3643999994 2.3050000668 55.264999390 130.21499634 0.4106999934 46.500000000 0.8249999881 0.5424000025 0.7486000061
 2443.8867188 9.4779996872 0.0250000004 0.3562000096 2.2950000763 59.263999939 129.80499268 0.3934000134 45.847099304 0.7879999876 0.6085000038 0.7408999801
 2444.0390625 9.4680004120 0.0359824002 0.3637000024 2.3049840927 58.125999451 129.39665222 0.3790000081 45.469398499 0.7420735955 0.6300654411 0.7339000106
 2444.1914063 9.4659996033 0.0220224354 0.3718999922 2.3059983253 57.668998718 130.31651306 0.3758000135 45.243000031 0.7260256410 0.5618095994 0.7217000127
 2444.3439941 9.4659996033 0.0170000009 0.3688000143 2.3269999027 58.769001007 131.58799744 0.3758000135 45.185199738 0.7080000043 0.3874000013 0.7021999955
 2444.4963379 9.4709997177 0.0140000004 0.3716000021 2.3340001106 61.666000366 133.33399963 0.3758000135 44.710800171 0.6869999766 0.4007999897 0.6879000068
 2444.6486816 9.4799995422 0.0469471999 0.3725000024 2.3469791412 65.462997437 133.62353516 0.3758000135 44.002300262 0.6660336256 0.5026367903 0.6875000000
 2444.8010254 9.4860000610 0.0330224372 0.3655999899 2.2910895348 66.922996521 133.91253662 0.3758000135 43.577800751 0.6630048156 0.5193734169 0.6898999810
 2444.9533691 9.4890003204 0.0110352561 0.3693000078 2.2680368423 65.691001892 133.61048889 0.3765999973 43.472999573 0.6639983654 0.4595960081 0.6886000037
 2445.1059570 9.4809999466 0.0040000002 0.3849000037 2.2639999390 64.845001221 133.23100281 0.3804000020 43.572101593 0.6690000296 0.4726000130 0.6894999743
 2445.2583008 9.4659996033 -0.000992000 0.3876000047 2.2639999390 64.499000549 133.01034546 0.3865000010 43.510501862 0.6759887934 0.5605590343 0.6891000271
