# LAS format log file from PETREL
# Project units are specified as depth units
#==================================================================
~Version information
VERS.   2.0:
WRAP.   NO:
#==================================================================
~Well
STRT .m      2674.6198730 :
STOP .m      4399.4833984 :
STEP .m     0.00000000 :
NULL .        -999.250000 :
COMP.           : COMPANY
WELL.  7/8-4 T2   : WELL
FLD.            : FIELD
LOC.            : LOCATION
SRVC.           : SERVICE COMPANY
DATE.  2018-09-11 21:49:25   : Log Export Date {yyyy-MM-dd HH:mm:ss}
PROV.           : PROVINCE
UWI.   7/8-4 T2   : UNIQUE WELL ID
API.            : API NUMBER
#==================================================================
~Curve
DEPT .m                   : DEPTH
DCAL .in                  : DCAL
CALI .in                  : CALI
BS .in                    : BS
ROP .m/h                  : ROP
DRHO .g/cm3               : DRHO
NPHI .m3/m3               : NPHI
RHOB .g/cm3               : RHOB
PEF .b/e                  : PEF
GR .gAPI                  : GR
DTC .us/ft                : DTC
RDEP .ohm.m               : RDEP
SP .mV                    : SP
RSHA .ohm.m               : RSHA
RMED .ohm.m               : RMED
~Parameter
#==================================================================
~Ascii
 2674.6198730 2.6865000725 14.936499596 12.250000954 74.482940674 -0.023816001 0.4092969894 2.2490999699 5.8159999847 89.792503357 135.87500000 0.6360999942 45.003799438 0.4602999985 0.6294999719
 2674.7724609 2.6816000938 14.931599617 12.250000954 74.540679932 -0.020900000 0.4112370014 2.2541000843 5.8073000908 90.583801270 134.12899780 0.6161000133 46.080799103 0.4805999994 0.6043999791
 2674.9248047 2.6766998768 14.926699638 12.250000954 74.598754883 -0.017983001 0.4131770134 2.2590999603 5.7986998558 91.375198364 132.38290405 0.5960999727 47.157798767 0.5008999705 0.5792000294
 2675.0771484 2.6749999523 14.925001144 12.250000954 74.649932861 -0.016233999 0.4108569920 2.2676999569 5.9033999443 90.252799988 130.98449707 0.5763999820 47.187500000 0.5235000253 0.5728999972
 2675.2294922 2.6765003204 14.926500320 12.250000954 74.694229126 -0.015621000 0.4043900073 2.2795999050 6.1187000275 87.266197205 129.92469788 0.5568000078 46.196998596 0.5483000278 0.5849000216
 2675.3820801 2.6779999733 14.928000450 12.250000954 74.738517761 -0.015008000 0.3979220092 2.2915000916 6.3340001106 84.279701233 128.86480713 0.5371999741 45.206501007 0.5730999708 0.5968999863
 2675.5344238 2.7011001110 14.951100349 12.250000954 74.928474426 -0.014772000 0.3939929903 2.3020000458 6.5113000870 82.170997620 128.68859863 0.5180000067 44.251399994 0.5866000056 0.6049000025
 2675.6867676 2.7980997562 15.048100471 12.250000954 75.618110657 -0.015827000 0.3987750113 2.3080000877 6.5584001541 83.073402405 131.54350281 0.5000000000 43.417598724 0.5608000159 0.5989000201
 2675.8391113 2.8951003551 15.145098686 12.250000954 76.307746887 -0.016881000 0.4035570025 2.3138999939 6.6055002213 83.975898743 134.39840698 0.4819999933 42.583801270 0.5350000262 0.5929999948
 2675.9916992 2.9921000004 15.242099762 12.250000954 76.997375488 -0.017936001 0.4083380103 2.3197999001 6.6525998116 84.878402710 137.25340271 0.4639999866 41.750000000 0.5092999935 0.5871000290
 2676.1440430 2.9723000526 15.222299576 12.250000954 77.037071228 -0.018490000 0.4089359939 2.3127999306 5.8734002113 85.328498840 136.39920044 0.4478999972 42.513900757 0.5148000121 0.5787000060
 2676.2963867 2.9456999302 15.195699692 12.250000954 77.039367676 -0.019014999 0.4092890024 2.3048999310 5.0460000038 85.752197266 135.32859802 0.4320000112 43.371101379 0.5221999884 0.5701000094
 2676.4487305 2.9191000462 15.169098854 12.250000954 77.041343689 -0.019540999 0.4096420109 2.2971000671 4.2186999321 86.176002502 134.25799561 0.4160999954 44.228199005 0.5295000076 0.5616000295
 2676.6010742 2.9005000591 15.150500298 12.250000954 76.927497864 -0.019679001 0.4005050063 2.2952001095 4.8281002045 85.764099121 133.97189331 0.4135000110 44.912498474 0.5315999985 0.5625000000
 2676.7536621 2.8859000206 15.135899544 12.250000954 76.754592896 -0.019621000 0.3865669966 2.2964000702 6.1645998955 84.929397583 134.08270264 0.4176999927 45.509498596 0.5310000181 0.5681999922
 2676.9060059 2.8714001179 15.121400833 12.250000954 76.581695557 -0.019563001 0.3726280034 2.2974998951 7.5011000633 84.094802856 134.19349670 0.4219000041 46.106498718 0.5303999782 0.5738999844
 2677.0583496 2.8508000374 15.100799561 12.250000954 76.229331970 -0.020288000 0.3598299921 2.3071999550 8.2799997330 83.852897644 132.99470520 0.4330999851 46.664398193 0.5264000297 0.5952000022
 2677.2106934 2.8204998970 15.070500374 12.250000954 75.588256836 -0.022273000 0.3488689959 2.3306999207 8.1616001129 84.565200806 129.68780518 0.4553999901 47.159500122 0.5170999765 0.6416000128
 2677.3632813 2.7901999950 15.040201187 12.250000954 74.947181702 -0.024258999 0.3379069865 2.3541998863 8.0432996750 85.277397156 126.38089752 0.4776999950 47.654499054 0.5077999830 0.6880000234
 2677.5156250 2.7646000385 15.014599800 12.250000954 74.379920959 -0.025750000 0.3296679854 2.3717999458 7.8519001007 86.029899597 123.74478912 0.4995999932 48.090400696 0.4986000061 0.7269999981
 2677.6679688 2.7795999050 15.029600143 12.250000954 74.458000183 -0.022907000 0.3452959955 2.3385000229 7.0208997726 87.135101318 126.99109650 0.5180000067 48.007301331 0.4902000129 0.7016999722
 2677.8203125 2.7946999073 15.044699669 12.250000954 74.535758972 -0.020064000 0.3609249890 2.3050999641 6.1900000572 88.240402222 130.23739624 0.5364000201 47.924198151 0.4817000031 0.6762999892
 2677.9729004 2.8096997738 15.059700012 12.250000954 74.613845825 -0.017222000 0.3765540123 2.2718000412 5.3590002060 89.345596313 133.48370361 0.5547999740 47.841098785 0.4733000100 0.6510000229
 2678.1252441 2.8661999702 15.116200447 12.250000954 74.630905151 -0.016737999 0.3838300109 2.2590000629 5.6771998405 88.973197937 134.13720703 0.5594000220 46.461299896 0.4842999876 0.6371999979
 2678.2775879 2.9316999912 15.181699753 12.250000954 74.634513855 -0.016766001 0.3892920017 2.2506999969 6.2449998856 88.279701233 134.22729492 0.5611000061 44.799800873 0.4995999932 0.6259999871
 2678.4299316 2.9972000122 15.247200012 12.250000954 74.638122559 -0.016794000 0.3947539926 2.2423999310 6.8129000664 87.586303711 134.31750488 0.5627999902 43.138301849 0.5149000287 0.6147999763
 2678.5825195 3.0093998909 15.259400368 12.250000954 74.630249023 -0.017855000 0.4060919881 2.2367000580 6.7856998444 86.494300842 134.59559631 0.5637000203 43.015800476 0.5087000132 0.6118000150
 2678.7348633 2.9762001038 15.226200104 12.250000954 74.612533569 -0.019792000 0.4224219918 2.2332003117 6.2529001236 85.063697815 135.03320313 0.5638999939 44.200698853 0.4842999876 0.6157000065
 2678.8872070 2.9430000782 15.192999840 12.250000954 74.595146179 -0.021730000 0.4387530088 2.2297000885 5.7200999260 83.633102417 135.47090149 0.5641000271 45.385601044 0.4598999918 0.6195999980
 2679.0395508 2.9052000046 15.155200005 12.250000954 74.560043335 -0.023546999 0.4468289912 2.2281000614 5.2849001884 82.818603516 135.64039612 0.5623000264 46.686698914 0.4454999864 0.6263999939
 2679.1918945 2.8540999889 15.104100227 12.250000954 74.475723267 -0.025020000 0.4313969910 2.2321000099 5.1279997826 83.759002686 135.04559326 0.5547000170 48.319000244 0.4598000050 0.6414999962
 2679.3444824 2.8029999733 15.053000450 12.250000954 74.391403198 -0.026494000 0.4159640074 2.2360000610 4.9710998535 84.699302673 134.45080566 0.5471000075 49.951301575 0.4740999937 0.6564999819
 2679.4968262 2.7519001961 15.001899719 12.250000954 74.307083130 -0.027968001 0.4005309939 2.2399001122 4.8141999245 85.639701843 133.85600281 0.5394999981 51.583499908 0.4884000123 0.6715000272
 2679.6491699 2.7528998852 15.002900124 12.250000954 74.631233215 -0.028263999 0.3912520111 2.2479999065 5.1690998077 86.106101990 133.55540466 0.5629000068 51.456798553 0.4832000136 0.6729000211
 2679.8015137 2.7550001144 15.005000114 12.250000954 74.964241028 -0.028534999 0.3821049929 2.2562003136 5.5350999832 86.562400818 133.26109314 0.5871000290 51.292301178 0.4776000082 0.6739000082
 2679.9541016 2.7572000027 15.007200241 12.250000954 75.297241211 -0.028806999 0.3729569912 2.2644000053 5.9010000229 87.018699646 132.96679688 0.6111999750 51.127799988 0.4718999863 0.6750000119
 2680.1064453 2.8094997406 15.059499741 12.250000954 75.533790588 -0.027201001 0.3778620064 2.2825999260 6.0689997673 86.400802612 130.52400208 0.6506000161 50.116199493 0.4666000009 0.6736000180
 2680.2587891 2.8835003376 15.133500099 12.250000954 75.728675842 -0.024785001 0.3888419867 2.3050000668 6.1515002251 85.318496704 127.15229797 0.6965000033 48.738498688 0.4612999856 0.6711999774
 2680.4111328 2.9574999809 15.207500458 12.250000954 75.923225403 -0.022368001 0.3998210132 2.3275001049 6.2340002060 84.236198425 123.78060150 0.7423999906 47.360698700 0.4560999870 0.6686999798
 2680.5637207 2.9798998833 15.229900360 12.250000954 75.936027527 -0.020663001 0.4019849896 2.3327000141 6.5018000603 84.539001465 121.44279480 0.7814000249 46.423500061 0.4632999897 0.6920999885
 2680.7160645 2.9302000999 15.180200577 12.250000954 75.694549561 -0.019950001 0.3918389976 2.3138999939 7.0283999443 86.775596619 120.54869843 0.8105999827 46.101600647 0.4878999889 0.7516000271
