# LAS format log file from PETREL
# Project units are specified as depth units
#==================================================================
~Version information
VERS.   2.0:
WRAP.   NO:
#==================================================================
~Well
STRT .m      2127.0468750 :
STOP .m      3314.3952637 :
STEP .m     0.00000000 :
NULL .        -999.250000 :
COMP.           : COMPANY
WELL.  7/8-1 T2   : WELL
FLD.            : FIELD
LOC.            : LOCATION
SRVC.           : SERVICE COMPANY
DATE.  2018-09-11 21:49:23   : Log Export Date {yyyy-MM-dd HH:mm:ss}
PROV.           : PROVINCE
UWI.   7/8-1 T2   : UNIQUE WELL ID
API.            : API NUMBER
#==================================================================
~Curve
DEPT .m                   : DEPTH
CALI .in                  : CALI
BS .in                    : BS
DRHO .g/cm3               : DRHO
NPHI .m3/m3               : NPHI
RHOB .g/cm3               : RHOB
GR .gAPI                  : GR
DTC .us/ft                : DTC
RDEP .ohm.m               : RDEP
SP .mV                    : SP
RSHA .ohm.m               : RSHA
RMIC .ohm.m               : RMIC
RMED .ohm.m               : RMED
~Parameter
#==================================================================
~Ascii
# ...
 2441.6005859 9.4018001556 8.5000000000 -0.015543270 0.3233189583 2.3861937523 49.862480164 126.75593567 0.4837120175 40.580158234 0.7605162263 0.4494000077 0.7736160159
 2441.7529297 9.4291000366 8.5000000000 0.0004823718 0.3182989657 2.3822937012 49.726890564 124.60356903 0.4912120104 41.239955902 0.7706163526 0.5231999755 0.7836161852
 2441.9052734 9.4565000534 8.5000000000 0.0135840001 0.3132869899 2.3783910275 52.224342346 123.34730530 0.4986999929 41.898700714 0.7807999849 0.5970000029 0.7937110662
 2442.0576172 9.4701995850 8.5000000000 0.0101282047 0.3101190031 2.3727862835 54.746231079 122.38447571 0.5013999939 42.407199860 0.7935000062 0.6470999718 0.8006028533
 2442.2102051 9.4610996246 8.5000000000 0.0041826926 0.3100018203 2.3640725613 54.651512146 123.51009369 0.4963918328 42.667217255 0.8105274439 0.6582000256 0.8024054170
 2442.3625488 9.4520998001 8.5000000000 -0.000847756 0.3098874688 2.3554871082 53.567859650 124.50916290 0.4912926257 42.926975250 0.8276252747 0.6693999767 0.8041020632
 2442.5148926 9.4451999664 8.5000000000 -0.004872000 0.3114370108 2.3473958969 54.367446899 124.50164795 0.4866999984 43.224998474 0.8434000015 0.6790999770 0.8053958416
 2442.6672363 9.4569997787 8.5000000000 -0.008871795 0.3285000026 2.3447957039 58.270664215 124.03868866 0.4860999882 43.885700226 0.8482000232 0.6758000255 0.8027960062
 2442.8198242 9.4688997269 8.5000000000 -0.009000000 0.3455913663 2.3420913219 58.434875488 124.48587036 0.4854988754 44.547359467 0.8529077172 0.6725000143 0.8002916574
 2442.9721680 9.4807996750 8.5000000000 -0.005121795 0.3626407981 2.3393888474 57.761192322 125.19421387 0.4847955108 45.207618713 0.8577100635 0.6690999866 0.7976865172
 2443.1245117 9.4802999496 8.5000000000 -0.003064000 0.3706114888 2.3323872089 56.359630585 126.86605072 0.4819947183 45.593418121 0.8640105724 0.6531000137 0.7892844677
 2443.2768555 9.4770002365 8.5000000000 -0.000096154 0.3765299916 2.3243873119 54.767215729 128.50271606 0.4787000120 45.916999817 0.8705999851 0.6342999935 0.7795844674
 2443.4294434 9.4736995697 8.5000000000 0.0164823718 0.3824553192 2.3164894581 54.221530914 130.63624573 0.4753838181 46.241073608 0.8772832155 0.6154999733 0.7698673606
 2443.5817871 9.4718999863 8.5000000000 0.0315432698 0.3814096451 2.3132014275 54.598667145 132.08912659 0.4652745128 46.285583496 0.8667594790 0.6097000241 0.7596830130
 2443.7341309 9.4714002609 8.5000000000 0.0242435895 0.3743306696 2.3141014576 55.245086670 131.92764282 0.4493745565 46.088085175 0.8414596915 0.6152999997 0.7490830421
 2443.8864746 9.4708995819 8.5000000000 0.0249680001 0.3672620058 2.3150026798 59.136032104 130.04801941 0.4334999919 45.890998840 0.8162999749 0.6209999919 0.7384818792
 2444.0388184 9.4706001282 8.5000000000 0.0356474333 0.3627350032 2.3167066574 58.162475586 129.29353333 0.4194999933 45.680099487 0.7904000282 0.6082000136 0.7271791101
 2444.1914063 9.4708003998 8.5000000000 0.0224262811 0.3656847179 2.3208134174 57.682914734 129.96430969 0.4112870097 45.429298401 0.7629560828 0.5414000154 0.7141581178
 2444.3437500 9.4709997177 8.5000000000 0.0171522442 0.3686296940 2.3250067234 58.735507965 130.93887329 0.4031868875 45.178798676 0.7355561256 0.4745999873 0.7010790110
 2444.4960938 9.4711999893 8.5000000000 0.0140960002 0.3715699911 2.3290698528 61.573295593 132.78807068 0.3950000107 44.928798676 0.7081999779 0.4079000056 0.6880003214
 2444.6484375 9.4757995605 8.5000000000 0.0459423065 0.3724929988 2.3103690147 65.341300964 134.92590332 0.3921999931 44.497299194 0.6942999959 0.4232999980 0.6882007718
 2444.8010254 9.4804000854 8.5000000000 0.0334262811 0.3733623922 2.2909381390 66.878540039 134.99470520 0.3895958364 44.060100555 0.6808783412 0.4408999979 0.6887016296
 2444.9533691 9.4850997925 8.5000000000 0.0116698714 0.3742289841 2.2716884613 65.728515625 134.53222656 0.3870044947 43.624103546 0.6673995256 0.4584999979 0.6891916394
 2445.1057129 9.4906997681 8.5000000000 0.0042240000 0.3742143512 2.2644968033 64.872070313 133.84832764 0.3898085058 43.503829956 0.6671088338 0.4970999956 0.6839878559
 2445.2580566 9.4967002869 8.5000000000 -0.000839744 0.3738099933 2.2625968456 64.510093689 133.80296326 0.3950999975 43.523399353 0.6725999713 0.5450000167 0.6763876677
 2445.4106445 9.5025997162 8.5000000000 -0.009725961 0.3733981848 2.2607049942 64.322540283 133.33972168 0.4005039930 43.542873383 0.6780995131 0.5928999782 0.6686698794
 2445.5629883 9.5052003860 8.5000000000 -0.014847756 0.3691394031 2.2623107433 61.997833252 133.09396362 0.4029979110 43.526187897 0.6777862310 0.6011000276 0.6592807770
 2445.7153320 9.5029001236 8.5000000000 -0.017908653 0.3594044149 2.2690105438 60.865280151 133.80368042 0.4016979039 43.457889557 0.6691862345 0.5526999831 0.6472809315
 2445.8676758 9.5004997253 8.5000000000 -0.011224000 0.3496840000 2.2756025791 58.566879272 133.80296326 0.4004000127 43.389801025 0.6606000066 0.5042999983 0.6353816986
 2446.0200195 9.5015001297 8.5000000000 -0.002288462 0.3431560099 2.2771489620 56.575462341 132.64791870 0.3973999918 43.301300049 0.6510999799 0.4541000128 0.6239879727
 2446.1726074 9.5249004364 8.5000000000 0.0135128209 0.3578895628 2.2451980114 55.406711578 132.14723206 0.3828767538 43.078845978 0.6349740028 0.3916999996 0.6164759994
 2446.3249512 9.5482997894 8.5000000000 0.0246650651 0.3725985587 2.2133486271 52.938426971 133.31294250 0.3683768213 42.856746674 0.6187742352 0.3294000030 0.6089879870
 2446.4772949 9.5717000961 8.5000000000 0.0298400000 0.3872840106 2.1814095974 51.578430176 135.40379333 0.3538999856 42.634998322 0.6026999950 0.2669999897 0.6014969349
 2446.6296387 9.5672998428 8.5000000000 0.0367756411 0.3868130147 2.1873199940 51.119781494 138.01121521 0.3431999981 42.686698914 0.5803999901 0.2937000096 0.5995987058
 2446.7822266 9.5579996109 8.5000000000 0.0205176286 0.3836659491 2.1998400688 52.086215973 139.71405029 0.3331839740 42.786758423 0.5568625331 0.3359999955 0.5987974405
 2446.9345703 9.5488004684 8.5000000000 0.0238782056 0.3805128336 2.2123248577 51.445098877 138.60861206 0.3232039809 42.886653900 0.5334811211 0.3783000112 0.5980115533
 2447.0869141 9.5366001129 8.5000000000 0.0472320020 0.3704265058 2.2277286053 51.301063538 136.28317261 0.3257192075 42.920776367 0.5216955543 0.4054999948 0.6052211523
 2447.2392578 9.5222997665 8.5000000000 0.0596153848 0.3551310003 2.2455284595 50.702678680 134.80270386 0.3377000093 42.905498505 0.5188999772 0.4212999940 0.6184211373
 2447.3918457 9.5079002380 8.5000000000 0.0541826934 0.3397912383 2.2632517815 48.749713898 133.60002136 0.3497190773 42.890075684 0.5160049200 0.4370999932 0.6316374540
 2447.5441895 9.4989995956 8.5000000000 0.0355785266 0.3274740577 2.2794203758 46.778011322 133.33245850 0.3616184294 42.875480652 0.5191288590 0.4550999999 0.6433128119
 2447.6965332 9.5032997131 8.5000000000 0.0107999993 0.3225130737 2.2920200825 45.648357391 131.96612549 0.3731182516 42.862781525 0.5371286273 0.4787000120 0.6513128281
 2447.8488770 9.5075998306 8.5000000000 -0.000647436 0.3175610006 2.3045201302 44.676994324 129.58641052 0.3844999969 42.850200653 0.5550000072 0.5023000240 0.6593128443
 2448.0012207 9.5120000839 8.5000000000 -0.002935898 0.3127540052 2.3169956207 44.156215668 128.12387085 0.3959999979 42.837299347 0.5728999972 0.5253000259 0.6673144102
 2448.1538086 9.5264997482 8.5000000000 0.0018477564 0.3272311687 2.3142917156 44.559818268 128.30923462 0.4094214737 42.797836304 0.5840176344 0.4835000038 0.6763291359
 2448.3061523 9.5410995483 8.5000000000 -0.006725962 0.3416851163 2.3116960526 46.192150116 129.73359680 0.4228214324 42.758434296 0.5950177908 0.4417000115 0.6854144335
 2448.4584961 9.5556001663 8.5000000000 -0.007000000 0.3561159968 2.3091144562 47.294246674 130.44117737 0.4361999929 42.719100952 0.6061000228 0.4000000060 0.6944033504
 2448.6108398 9.5690002441 8.5000000000 0.0104230773 0.3553529978 2.3182218075 46.281681061 130.69395447 0.4419000149 42.768001556 0.6097000241 0.4004999995 0.6964992285
 2448.7634277 9.5818996429 8.5000000000 0.0294214729 0.3488666415 2.3318431377 45.719562531 131.39530945 0.4447045028 42.850231171 0.6106013060 0.4169000089 0.6959983706
