# LAS format log file from PETREL
# Project units are specified as depth units
#==================================================================
~Version information
VERS.   2.0:
WRAP.   NO:
#==================================================================
~Well
STRT .m      2127.0468750 :
STOP .m      3314.3952637 :
STEP .m     0.00000000 :
NULL .        -999.250000 :
COMP.           : COMPANY
WELL.  7/8-1 T2   : WELL
FLD.            : FIELD
LOC.            : LOCATION
SRVC.           : SERVICE COMPANY
DATE.  2018-09-11 21:49:23   : Log Export Date {yyyy-MM-dd HH:mm:ss}
PROV.           : PROVINCE
UWI.   7/8-1 T2   : UNIQUE WELL ID
API.            : API NUMBER
#==================================================================
~Curve
DEPT .m                   : DEPTH
CALI .in                  : CALI
BS .in                    : BS
DRHO .g/cm3               : DRHO
NPHI .m3/m3               : NPHI
RHOB .g/cm3               : RHOB
GR .gAPI                  : GR
DTC .us/ft                : DTC
RDEP .ohm.m               : RDEP
SP .mV                    : SP
RSHA .ohm.m               : RSHA
RMIC .ohm.m               : RMIC
RMED .ohm.m               : RMED
~Parameter
#==================================================================
~Ascii
# ...
 2361.1333008 9.7118997574 8.5000000000 0.0166955143 0.3842313588 2.2563035488 60.214668274 137.88839722 0.3783872128 45.892364502 0.5555971265 0.4679999948 0.6497948766
 2361.2856445 9.7438001633 8.5000000000 0.0296041667 0.3863269985 2.2585999966 59.666015625 138.08857727 0.3704000115 46.244098663 0.5537999868 0.4505999982 0.6466000080
 2361.4379883 9.7756996155 8.5000000000 0.0251522437 0.3884269893 2.2609999180 60.270515442 138.32653809 0.3623999953 46.596401215 0.5521000028 0.4332999885 0.6434999704
 2361.5905762 9.7966995239 8.5000000000 0.0085168006 0.3890564144 2.2563850880 61.781242371 138.33380127 0.3525822163 46.734085083 0.5486929417 0.4174000025 0.6383895874
 2361.7429199 9.8101997375 8.5000000000 0.0012131411 0.3886794150 2.2470853329 63.027332306 138.35008240 0.3414822519 46.724685669 0.5442929864 0.4025000036 0.6318897605
 2361.8952637 9.8236999512 8.5000000000 0.0058477563 0.3883039951 2.2377998829 63.642852783 139.49060059 0.3303999901 46.715301514 0.5399000049 0.3876000047 0.6255000234
 2362.0476074 9.8158998489 8.5000000000 0.0060000001 0.3870039880 2.2337000370 64.855484009 140.22010803 0.3246999979 46.672698975 0.5336999893 0.3810999990 0.6197999716
 2362.2001953 9.7613000870 8.5000000000 0.0050304001 0.3836656511 2.2412118912 66.376487732 140.70440674 0.3308099210 46.557113647 0.5237841606 0.3930999935 0.6157937646
 2362.3525391 9.7067003250 8.5000000000 0.0176041666 0.3803341985 2.2487111092 67.219970703 140.03886414 0.3370099366 46.441623688 0.5138857365 0.4050999880 0.6118941903
 2362.5048828 9.6546001434 8.5000000000 0.0296346154 0.3773359954 2.2557001114 67.165496826 138.84754944 0.3431999981 46.332801819 0.5049999952 0.4162000120 0.6082999706
 2362.6572266 9.6781997681 8.5000000000 0.0270913467 0.3844709992 2.2476000786 66.940002441 138.11709595 0.3519999981 46.419498444 0.5256000161 0.4014999866 0.6151999831
 2362.8098145 9.7018003464 8.5000000000 0.0075769234 0.3916164339 2.2394871712 66.400810242 137.86367798 0.3609142900 46.506336212 0.5462329984 0.3869000077 0.6221220493
 2362.9621582 9.7253999710 8.5000000000 -0.004635200 0.3987401724 2.2314026356 64.601905823 137.62554932 0.3698092997 46.592819214 0.5668208599 0.3722000122 0.6290091276
 2363.1145020 9.7274999619 8.5000000000 0.0017868591 0.3988464475 2.2330079079 63.652072906 137.63565063 0.3756075203 46.543750763 0.5798164606 0.3786999881 0.6347086430
 2363.2668457 9.7224998474 8.5000000000 -0.001878205 0.3966270089 2.2379000187 64.529556274 137.38761902 0.3802999854 46.449901581 0.5900999904 0.3923000097 0.6401084661
 2363.4194336 9.7174997330 8.5000000000 0.0018846155 0.3943975270 2.2428030968 65.712699890 136.22169495 0.3851022422 46.355865479 0.6005062461 0.4058000147 0.6454083323
 2363.5717773 9.7143001556 8.5000000000 0.0078175999 0.3909763694 2.2447981834 65.367889404 136.64981079 0.3864961565 46.397308350 0.6043948531 0.4196000099 0.6479993463
 2363.7241211 9.7129001617 8.5000000000 0.0002435898 0.3862063587 2.2435979843 64.820808411 137.14491272 0.3840961456 46.591110229 0.6011948586 0.4338000119 0.6475993395
 2363.8764648 9.7116003036 8.5000000000 -0.003878205 0.3814440072 2.2423999310 64.475318909 137.14186096 0.3817000091 46.784698486 0.5979999900 0.4480000138 0.6471980810
 2364.0288086 9.7132997513 8.5000000000 0.0037564104 0.3781859875 2.2400000095 62.917594910 137.14129639 0.3790999949 46.923801422 0.5960000157 0.4591000080 0.6459928155
 2364.1813965 9.7284002304 8.5000000000 0.0001216000 0.3814201951 2.2329885960 60.350948334 137.83505249 0.3759950101 46.827846527 0.5992051363 0.4566000104 0.6414855719
 2364.3337402 9.7434997559 8.5000000000 -0.002908654 0.3846501410 2.2258887291 59.119205475 138.79736328 0.3728948832 46.732147217 0.6024051309 0.4541000128 0.6369928122
 2364.4860840 9.7586002350 8.5000000000 -0.005908654 0.3878749907 2.2188999653 60.318206787 139.96757507 0.3697000146 46.636600494 0.6055999994 0.4517000020 0.6324971318
 2364.6384277 9.7561998367 8.5000000000 -0.002121795 0.3913460076 2.2200999260 61.192756653 140.46586609 0.3673999906 46.344600677 0.6044999957 0.4456000030 0.6306976080
 2364.7910156 9.7520999908 8.5000000000 -0.003942308 0.3948465884 2.2222032547 61.611347198 140.48039246 0.3651964962 46.032299042 0.6027974486 0.4390999973 0.6291948557
 2364.9433594 9.7480001450 8.5000000000 -0.008847999 0.3983381093 2.2243084908 63.002742767 139.55540466 0.3629983962 45.720870972 0.6011895537 0.4327000082 0.6276054382
 2365.0957031 9.7488002777 8.5000000000 -0.013847757 0.3996630609 2.2296118736 63.831336975 138.38639832 0.3619998395 45.577930450 0.5946847796 0.4596999884 0.6310100555
 2365.2480469 9.7524995804 8.5000000000 0.0073301285 0.3997020125 2.2369999886 62.328956604 136.94688416 0.3619000018 45.535198212 0.5852000117 0.5066999793 0.6373100877
 2365.4006348 9.7560997009 8.5000000000 0.0303365383 0.3997385800 2.2443079948 60.443576813 136.90280151 0.3618102372 45.492332458 0.5757971406 0.5536999702 0.6436201334
 2365.5529785 9.7361001968 8.5000000000 0.0426352024 0.3988487720 2.2493011951 58.134677887 137.36531067 0.3682299852 45.514431000 0.5740202069 0.5716999769 0.6499097943
 2365.7053223 9.6714000702 8.5000000000 0.0255480781 0.3962127864 2.2500011921 57.077968597 138.09019470 0.3869300783 45.658527374 0.5866203308 0.5347999930 0.6560097933
 2365.8576660 9.6066999435 8.5000000000 0.0259695519 0.3935819864 2.2506999969 58.848426819 139.71458435 0.4056999981 45.802299500 0.5993000269 0.4979000092 0.6621094942
 2366.0100098 9.5429000854 8.5000000000 0.0192131400 0.3913039863 2.2511999607 59.529392242 140.22737122 0.4235999882 45.956001282 0.6118000150 0.4621999860 0.6680039763
 2366.1625977 9.4907999039 8.5000000000 0.0054255999 0.3941115141 2.2492969036 59.781703949 136.54180908 0.4286081791 46.248870850 0.6224169731 0.4431000054 0.6705083251
 2366.3149414 9.4387998581 8.5000000000 -0.003725962 0.3969154954 2.2472968102 60.282501221 132.52015686 0.4337079823 46.541168213 0.6330168247 0.4239999950 0.6731041670
 2366.4672852 9.3866996765 8.5000000000 -0.004000000 0.3997150064 2.2453999519 61.087215424 129.36581421 0.4386999905 46.833000183 0.6434999704 0.4049000144 0.6757049561
 2366.6196289 9.4314002991 8.5000000000 -0.000121795 0.3974390030 2.2465999126 61.310760498 129.73307800 0.4370999932 46.945899963 0.6445999742 0.4079000056 0.6788052917
 2366.7722168 9.5024995804 8.5000000000 0.0087263994 0.3937641382 2.2487030029 61.067813873 134.37269592 0.4336943924 47.009803772 0.6428974271 0.4169000089 0.6821102500
 2366.9245605 9.5736999512 8.5000000000 0.0128782056 0.3900966048 2.2506995201 59.756923676 140.06759644 0.4301923215 47.073326111 0.6412937641 0.4259000123 0.6853004694
 2367.0769043 9.6180000305 8.5000000000 0.0081522437 0.3867280781 2.2503957748 57.780776978 142.33302307 0.4253900647 47.027557373 0.6373900771 0.4372000098 0.6855955124
 2367.2292480 9.6359996796 8.5000000000 0.0050913459 0.3836590052 2.2476999760 57.752967834 143.31376648 0.4192000031 46.874698639 0.6312000155 0.4507000148 0.6827955246
 2367.3818359 9.6539001465 8.5000000000 0.0079134619 0.3805828393 2.2449986935 60.520816803 141.72105408 0.4128905535 46.721405029 0.6249930859 0.4641999900 0.6799916625
 2367.5341797 9.6709003448 8.5000000000 0.0128480000 0.3786109388 2.2446115017 63.411930084 138.20407104 0.4069921672 46.663131714 0.6207044721 0.4670999944 0.6773964763
 2367.6865234 9.6845998764 8.5000000000 0.0217259619 0.3804479539 2.2518115044 64.265945435 136.49583435 0.4020921588 46.932830811 0.6235044599 0.4329000115 0.6751964688
 2367.8388672 9.6983003616 8.5000000000 0.0181217939 0.3822819889 2.2590117455 64.854278564 136.19515991 0.3971999884 47.202098846 0.6262999773 0.3987999856 0.6729964614
 2367.9912109 9.7119998932 8.5000000000 0.0179999992 0.3841190040 2.2663061619 66.672454834 136.41853333 0.3921999931 47.471801758 0.6291000247 0.3646000028 0.6708053946
 2368.1437988 9.7111997604 8.5000000000 0.0199391991 0.3718099296 2.2702119350 67.135261536 136.88830566 0.3953057826 47.711582184 0.6300013065 0.3869999945 0.6742115021
 2368.2961426 9.7095003128 8.5000000000 0.0180608965 0.3586569726 2.2739059925 65.592842102 136.22866821 0.3989056051 47.949081421 0.6308012605 0.4129000008 0.6778059006
