# LAS format log file from PETREL
# Project units are specified as depth units
#==================================================================
~Version information
VERS.   2.0:
WRAP.   NO:
#==================================================================
~Well
STRT .m      1216.1519775 :
STOP .m      3001.3652344 :
STEP .m     0.00000000 :
NULL .        -999.250000 :
COMP.           : COMPANY
WELL.  7/8-2 Cero   : WELL
FLD.            : FIELD
LOC.            : LOCATION
SRVC.           : SERVICE COMPANY
DATE.  2018-09-11 21:49:23   : Log Export Date {yyyy-MM-dd HH:mm:ss}
PROV.           : PROVINCE
UWI.   7/8-2   : UNIQUE WELL ID
API.            : API NUMBER
#==================================================================
~Curve
DEPT .m                   : DEPTH
CALI .in                  : CALI
BS .in                    : BS
DRHO .g/cm3               : DRHO
RHOB .g/cm3               : RHOB
GR .gAPI                  : GR
DTC .us/ft                : DTC
RDEP .ohm.m               : RDEP
SP .mV                    : SP
RSHA .ohm.m               : RSHA
RMED .ohm.m               : RMED
~Parameter
#==================================================================
~Ascii
# ...
 2402.4335938 10.883299828 8.5000000000 -0.005580000 2.4758999348 8.5411996841 69.174400330 1.7846000195 -22.49970055 2.3162000179 1.9697999954
 2402.5859375 10.927700043 8.5000000000 -0.004246000 2.4749000072 8.5368003845 69.958297729 1.7624000311 -22.46220016 2.2746999264 1.9579999447
 2402.7382813 10.991100311 8.5000000000 -0.001687101 2.4865810871 8.3978996277 69.326614380 1.7493209839 -22.34918213 2.2453470230 1.9811629057
 2402.8906250 11.054400444 8.5000000000 0.0008758926 2.4982812405 8.2590999603 68.693916321 1.7361210585 -22.23588181 2.2158472538 2.0043628216
 2403.0432129 11.106300354 8.5000000000 0.0026550000 2.5099000931 8.1567001343 67.924102783 1.7391999960 -22.14629936 2.2049999237 2.0323998928
 2403.1955566 11.129199982 8.5000000000 0.0024359999 2.5216000080 8.1464996338 66.811096191 1.7832000256 -22.11720085 2.2414000034 2.0724999905
 2403.3479004 11.152099609 8.5000000000 0.0022183487 2.5332810879 8.1361999512 65.699874878 1.8270298243 -22.08814621 2.2776417732 2.1125359535
 2403.5002441 11.175000191 8.5000000000 0.0019923623 2.5449812412 8.1265001297 64.590675354 1.8711292744 -22.05914497 2.3140416145 2.1525359154
 2403.6525879 11.192799568 8.5000000000 -0.001220843 2.5386102200 8.3273000717 64.940536499 1.9543664455 -22.08695602 2.3445510864 2.1532988548
 2403.8051758 11.210500717 8.5000000000 -0.004444000 2.5322999954 8.5281000137 65.293296814 2.0378000736 -22.11499977 2.3752000332 2.1540000439
 2403.9575195 11.228199959 8.5000000000 -0.007661000 2.5258998871 8.7288999557 65.644836426 2.1209666729 -22.14295578 2.4057512283 2.1546988487
 2404.1098633 11.262599945 8.5000000000 -0.007897000 2.5181999207 9.3538999557 66.849868774 2.1050257683 -22.23385429 2.4060995579 2.1173598766
 2404.2622070 11.303601265 8.5000000000 -0.006983000 2.5099000931 10.142399788 68.385032654 2.0506873131 -22.34911537 2.3949179649 2.0653834343
 2404.4147949 11.344499588 8.5000000000 -0.006070000 2.5016999245 10.930899620 69.923103333 1.9960999489 -22.46470070 2.3835999966 2.0132000446
 2404.5671387 11.381199837 8.5000000000 -0.004651000 2.4955000877 11.358799934 70.743797302 1.9270000458 -22.47680092 2.3503999710 1.9737999439
 2404.7194824 11.412299156 8.5000000000 -0.002591000 2.4921000004 11.329600334 70.658134460 1.8391407728 -22.35829163 2.2895975113 1.9507369995
 2404.8718262 11.443400383 8.5000000000 -0.000531000 2.4886000156 11.300499916 70.572235107 1.7512408495 -22.23959160 2.2285976410 1.9275372028
 2405.0244141 11.472199440 8.5000000000 0.0012520000 2.4858000278 11.245699883 70.513999939 1.6742000580 -22.13800049 2.1698999405 1.9072999954
 2405.1767578 11.489100456 8.5000000000 0.0015800000 2.4860000610 11.056799889 70.601196289 1.6548999548 -22.12779999 2.1236999035 1.9026999474
 2405.3291016 11.505999565 8.5000000000 0.0019080000 2.4862000942 10.867799759 70.688262939 1.6355309486 -22.11771584 2.0774741173 1.8982071877
 2405.4814453 11.522999763 8.5000000000 0.0022360000 2.4865000248 10.678899765 70.775566101 1.6162308455 -22.10751724 2.0312740803 1.8936073780
 2405.6337891 11.524700165 8.5000000000 -0.000962000 2.4844000340 10.891799927 70.312248230 1.6851892471 -22.14563942 2.0353932381 1.9087756872
 2405.7863770 11.524399757 8.5000000000 -0.004643000 2.4821000099 11.159799576 69.771697998 1.7666000128 -22.19059944 2.0464999676 1.9266999960
 2405.9387207 11.524100304 8.5000000000 -0.008325001 2.4797000885 11.427800179 69.232658386 1.8477699757 -22.23542786 2.0575823784 1.9445713758
 2406.0910645 11.536100388 8.5000000000 -0.009466000 2.4783000946 11.281000137 69.445159912 1.9003158808 -22.24188995 2.0716774464 1.9464968443
 2406.2434082 11.556300163 8.5000000000 -0.008902000 2.4774000645 10.855799675 70.163551331 1.9336465597 -22.22253036 2.0877742767 1.9377140999
 2406.3959961 11.576499939 8.5000000000 -0.008338000 2.4765000343 10.430600166 70.884002686 1.9668999910 -22.20319939 2.1038999557 1.9289000034
 2406.5483398 11.583700180 8.5000000000 -0.007190000 2.4665000439 10.243700027 71.675903320 1.9871000051 -22.17889977 2.1034998894 1.9158999920
 2406.7006836 11.562899590 8.5000000000 -0.004788000 2.4368000031 10.569000244 72.622383118 1.9792126417 -22.14415550 2.0675578117 1.8938354254
 2406.8530273 11.542099953 8.5000000000 -0.002387000 2.4070999622 10.894200325 73.570381165 1.9713126421 -22.10935593 2.0316574574 1.8717354536
 2407.0056152 11.522299767 8.5000000000 -0.000216000 2.3791000843 11.216199875 74.433998108 1.9632999897 -22.07539940 1.9963999987 1.8509999514
 2407.1579590 11.531200409 8.5000000000 -0.004081000 2.3940000534 11.454700470 73.044998169 1.9551999569 -22.06209946 1.9801000357 1.8662999868
 2407.3103027 11.540100098 8.5000000000 -0.007947000 2.4088997841 11.693200111 71.658317566 1.9470131397 -22.04892159 1.9639258385 1.8815755844
 2407.4626465 11.549099922 8.5000000000 -0.011812000 2.4238998890 11.931599617 70.269424438 1.9389129877 -22.03572083 1.9476261139 1.8968755007
 2407.6149902 11.539199829 8.5000000000 -0.011781000 2.4419999123 11.686599731 69.813423157 1.9608646631 -22.03220558 1.9870367050 1.9187649488
 2407.7675781 11.523300171 8.5000000000 -0.010491000 2.4611999989 11.285400391 69.660003662 1.9926999807 -22.03170013 2.0445001125 1.9429999590
 2407.9199219 11.507399559 8.5000000000 -0.009202000 2.4804000854 10.884300232 69.507545471 2.0243492126 -22.03129959 2.1018083096 1.9670615196
 2408.0722656 11.491499901 8.5000000000 -0.008071000 2.4930000305 10.708700180 69.465065002 2.0669317245 -21.95000076 2.1492240429 1.9750871658
 2408.2246094 11.475600243 8.5000000000 -0.007115000 2.4981999397 10.782400131 69.544570923 2.1215124130 -21.77939987 2.1854419708 1.9652158022
 2408.3771973 11.459699631 8.5000000000 -0.006159000 2.5034000874 10.856100082 69.624496460 2.1761999130 -21.60880089 2.2216999531 1.9553999901
 2408.5295410 11.434900284 8.5000000000 -0.005800000 2.5069999695 10.865400314 69.772598267 2.2128000259 -21.46199989 2.2444999218 1.9453999996
 2408.6818848 11.372699738 8.5000000000 -0.007921000 2.5034999847 10.607799530 70.203506470 2.1749606133 -21.41430092 2.2123515606 1.9348169565
 2408.8342285 11.310601234 8.5000000000 -0.010042000 2.5000998974 10.350299835 70.635108948 2.1370608807 -21.36660004 2.1801514626 1.9242169857
 2408.9868164 11.248498917 8.5000000000 -0.012163000 2.4967000484 10.092700005 71.067398071 2.0992000103 -21.31889915 2.1477999687 1.9135999680
 2409.1391602 11.290300369 8.5000000000 -0.013409000 2.4793999195 9.7815999985 70.110000610 2.0130999088 -21.45280075 2.1157999039 1.8948999643
 2409.2915039 11.342000008 8.5000000000 -0.014572000 2.4607999325 9.4654998779 69.022537231 1.9226449728 -21.60390091 2.0837512016 1.8755309582
 2409.4438477 11.393699646 8.5000000000 -0.015735000 2.4421000481 9.1493997574 67.933448792 1.8320451975 -21.75510025 2.0517513752 1.8560311794
 2409.5961914 11.417599678 8.5000000000 -0.015167000 2.4460999966 9.1844997406 67.965843201 1.8014999628 -21.90080070 2.0206000805 1.8552013636
 2409.7487793 11.425299644 8.5000000000 -0.013594000 2.4632999897 9.4238004684 68.652603149 1.8059999943 -22.04330063 1.9900000095 1.8650000095
 2409.9011230 11.432999611 8.5000000000 -0.012020000 2.4804000854 9.6630001068 69.338302612 1.8104000092 -22.18580055 1.9594999552 1.8748841286
 2410.0534668 11.421998978 8.5000000000 -0.012049000 2.4879000187 10.034799576 69.985961914 1.7951999903 -22.27389908 1.9318000078 1.8732028008
 2410.2058105 11.376299858 8.5000000000 -0.015032000 2.4776000977 10.650799751 70.561576843 1.7437000275 -22.26160049 1.9095000029 1.8500372171
 2410.3583984 11.330699921 8.5000000000 -0.018015999 2.4672999382 11.266799927 71.138099670 1.6921999454 -22.24939919 1.8870999813 1.8267999887
 2410.5107422 11.292400360 8.5000000000 -0.020873001 2.4561998844 11.885800362 71.683799744 1.6438000202 -22.22830009 1.8661999702 1.8042999506
 2410.6630859 11.349900246 8.5000000000 -0.022078000 2.4344999790 12.543999672 71.839546204 1.6361999512 -22.09180069 1.8641999960 1.7902225256
 2410.8154297 11.407400131 8.5000000000 -0.023282001 2.4128000736 13.202199936 71.995445251 1.6284999847 -21.95540047 1.8621000051 1.7762224674
