# LAS format log file from PETREL
# Project units are specified as depth units
#==================================================================
~Version information
VERS.   2.0:
WRAP.   NO:
#==================================================================
~Well
STRT .m      1216.1519775 :
STOP .m      3001.3652344 :
STEP .m     0.00000000 :
NULL .        -999.250000 :
COMP.           : COMPANY
WELL.  7/8-2 Cero   : WELL
FLD.            : FIELD
LOC.            : LOCATION
SRVC.           : SERVICE COMPANY
DATE.  2018-09-11 21:49:23   : Log Export Date {yyyy-MM-dd HH:mm:ss}
PROV.           : PROVINCE
UWI.   7/8-2   : UNIQUE WELL ID
API.            : API NUMBER
#==================================================================
~Curve
DEPT .m                   : DEPTH
CALI .in                  : CALI
BS .in                    : BS
DRHO .g/cm3               : DRHO
RHOB .g/cm3               : RHOB
GR .gAPI                  : GR
DTC .us/ft                : DTC
RDEP .ohm.m               : RDEP
SP .mV                    : SP
RSHA .ohm.m               : RSHA
RMED .ohm.m               : RMED
~Parameter
#==================================================================
~Ascii
# ...
 2521.9152832 10.427100182 8.5000000000 0.0179999992 2.4881999493 12.519100189 73.749298096 1.7677999735 -19.04949951 2.3896000385 2.2065000534
 2522.0676270 10.479700089 8.5000000000 0.0160920005 2.4676001072 12.926199913 76.074096680 1.6030000448 -18.74279976 2.2434000969 2.1012001038
 2522.2199707 10.513799667 8.5000000000 0.0067730001 2.4468998909 12.702599525 78.449996948 1.5198999643 -18.69000053 2.1108999252 2.0348000526
 2522.3723145 10.547901154 8.5000000000 -0.002546000 2.4261999130 12.479000092 80.825889587 1.4368000031 -18.63719940 1.9782999754 1.9685000181
 2522.5249023 10.585000038 8.5000000000 -0.010259000 2.4100999832 12.297800064 82.711898804 1.3736000061 -18.60440063 1.8782000542 1.9180999994
 2522.6772461 10.637199402 8.5000000000 -0.009704000 2.4179000854 12.334099770 82.076606750 1.4129999876 -18.67390060 1.9450999498 1.9502999783
 2522.8295898 10.689399719 8.5000000000 -0.009148000 2.4256999493 12.370400429 81.441299438 1.4522999525 -18.74349976 2.0120999813 1.9823999405
 2522.9819336 10.741600990 8.5000000000 -0.008593000 2.4335000515 12.406800270 80.806098938 1.4917000532 -18.81310081 2.0789999962 2.0144999027
 2523.1342773 10.772500038 8.5000000000 -0.008599000 2.4609999657 12.522999763 78.655197144 1.6435999870 -18.80540085 2.2158999443 2.0945000648
 2523.2868652 10.800499916 8.5000000000 -0.008680000 2.4911000729 12.649999619 76.301399231 1.8106000423 -18.78750038 2.3619999886 2.1809000969
 2523.4392090 10.828599930 8.5000000000 -0.008760000 2.5211999416 12.776900291 73.947601318 1.9775999784 -18.76950073 2.5081999302 2.2671999931
 2523.5915527 10.848500252 8.5000000000 -0.010963000 2.5286002159 12.703900337 72.126502991 2.1624999046 -18.98699951 2.5624001026 2.3008000851
 2523.7438965 10.863100052 8.5000000000 -0.014574000 2.5209999084 12.498100281 70.659103394 2.3592998981 -19.36079979 2.5553998947 2.2992999554
 2523.8964844 10.877699852 8.5000000000 -0.018185999 2.5132999420 12.292300224 69.191703796 2.5560998917 -19.73460007 2.5485000610 2.2978999615
 2524.0488281 10.895999908 8.5000000000 -0.022233000 2.5034000874 11.993100166 68.332199097 2.6805999279 -20.10320091 2.5283999443 2.2799000740
 2524.2011719 10.921999931 8.5000000000 -0.027208000 2.4885001183 11.495599747 68.763198853 2.6517000198 -20.46069908 2.4802000523 2.2267999649
 2524.3535156 10.948100090 8.5000000000 -0.032182001 2.4735999107 10.998200417 69.194198608 2.6228001118 -20.81819916 2.4319999218 2.1737000942
 2524.5061035 10.974398613 8.5000000000 -0.036880001 2.4593999386 10.515999794 69.626602173 2.5866000652 -21.16670036 2.3833999634 2.1208999157
 2524.6584473 11.008000374 8.5000000000 -0.034821000 2.4614000320 10.406399727 70.091598511 2.3715000153 -21.29479980 2.3262000084 2.0750000477
 2524.8107910 11.041599274 8.5000000000 -0.032763001 2.4632999897 10.296799660 70.556602478 2.1563999653 -21.42289925 2.2690000534 2.0290999413
 2524.9631348 11.075200081 8.5000000000 -0.030703999 2.4653000832 10.187100410 71.021598816 1.9413000345 -21.55089951 2.2116999626 1.9831999540
 2525.1154785 11.050200462 8.5000000000 -0.034883998 2.4516999722 10.221500397 72.259002686 1.7919000387 -21.60980034 2.1408998966 1.9435000420
 2525.2680664 11.006500244 8.5000000000 -0.041048001 2.4330999851 10.301600456 73.742401123 1.6633000374 -21.64669991 2.0657999516 1.9057999849
 2525.4204102 10.962799072 8.5000000000 -0.047212996 2.4144999981 10.381799698 75.225799561 1.5348000526 -21.68359947 1.9905999899 1.8681999445
 2525.5727539 10.985499382 8.5000000000 -0.048827998 2.4068999290 10.385600090 75.788200378 1.4630999565 -21.70789909 1.9294999838 1.8274999857
 2525.7250977 11.080900192 8.5000000000 -0.045467999 2.4110999107 10.305899620 75.343399048 1.4535000324 -21.71859932 1.8838000298 1.7834000587
 2525.8776855 11.176198959 8.5000000000 -0.042107999 2.4154000282 10.226200104 74.898597717 1.4440000057 -21.72929955 1.8380999565 1.7394000292
 2526.0300293 11.260800362 8.5000000000 -0.039365001 2.4212999344 10.122300148 74.259300232 1.4577000141 -21.78700066 1.8025000095 1.7084000111
 2526.1823730 11.301600456 8.5000000000 -0.039138000 2.4337000847 9.9200000763 72.826103210 1.5665999651 -22.03689957 1.8082000017 1.7308000326
 2526.3347168 11.342499733 8.5000000000 -0.038910002 2.4460999966 9.7178001404 71.392898560 1.6754000187 -22.28680038 1.8138999939 1.7532000542
 2526.4873047 11.383299828 8.5000000000 -0.038683001 2.4584999084 9.5155000687 69.959701538 1.7842999697 -22.53669930 1.8195999861 1.7755999565
 2526.6396484 11.473099709 8.5000000000 -0.037845001 2.4656000137 9.1281995773 69.441802979 1.8657000065 -22.55069923 1.8732999563 1.8178999424
 2526.7919922 11.567399025 8.5000000000 -0.036950000 2.4723000526 8.7239999771 69.007797241 1.9445999861 -22.54310036 1.9313999414 1.8621000051
 2526.9443359 11.661700249 8.5000000000 -0.036056001 2.4788999557 8.3198003769 68.573699951 2.0234999657 -22.53549957 1.9895000458 1.9062000513
 2527.0966797 11.780099869 8.5000000000 -0.036975998 2.4777998924 8.0819997787 68.538597107 2.0650999546 -22.46129990 2.0483999252 1.9302999973
 2527.2492676 11.912199020 8.5000000000 -0.038936999 2.4721999168 7.9397997856 68.732696533 2.0852000713 -22.34880066 2.1075999737 1.9427000284
 2527.4016113 12.044400215 8.5000000000 -0.040899001 2.4665999413 7.7975997925 68.926696777 2.1052999496 -22.23640060 2.1668999195 1.9551999569
 2527.5539551 12.118000031 8.5000000000 -0.042587001 2.4651999474 7.7063999176 69.031303406 2.0875999928 -22.20669937 2.1877999306 1.9552999735
 2527.7062988 12.085200310 8.5000000000 -0.043779001 2.4713997841 7.7083001137 68.972999573 2.0006999969 -22.32799911 2.1389999390 1.9327000380
 2527.8588867 12.052399635 8.5000000000 -0.044969998 2.4776000977 7.7101998329 68.914703369 1.9139000177 -22.44919968 2.0901000500 1.9100999832
 2528.0112305 12.016500473 8.5000000000 -0.046034999 2.4823000431 7.7476000786 68.923202515 1.8242000341 -22.57399940 2.0341000557 1.8806999922
 2528.1635742 11.942099571 8.5000000000 -0.045506999 2.4679999352 8.2334003448 69.773498535 1.6990000010 -22.74340057 1.8869999647 1.7651000023
 2528.3159180 11.867600441 8.5000000000 -0.044978999 2.4537000656 8.7190999985 70.623901367 1.5737999678 -22.91279984 1.7397999763 1.6496000290
 2528.4685059 11.793198586 8.5000000000 -0.044450995 2.4393999577 9.2047996521 71.474197388 1.4485000372 -23.08219910 1.5927000046 1.5341000557
 2528.6208496 11.777599335 8.5000000000 -0.041949000 2.4312000275 9.6767997742 72.398300171 1.3413000107 -23.14710045 1.5070999861 1.4648000002
 2528.7731934 11.777400017 8.5000000000 -0.038931999 2.4244999886 10.145199776 73.341796875 1.2388000488 -23.18449974 1.4377000332 1.4076999426
 2528.9255371 11.777099609 8.5000000000 -0.035914000 2.4179000854 10.613599777 74.285202026 1.1362999678 -23.22200012 1.3681999445 1.3506000042
 2529.0778809 11.776801109 8.5000000000 -0.037528001 2.4148001671 10.896100044 74.630500793 1.0717999935 -23.22669983 1.3244999647 1.3149000406
 2529.2304688 11.776500702 8.5000000000 -0.043559998 2.4149000645 11.001099586 74.405296326 1.0434000492 -23.20000076 1.3051999807 1.2996000051
 2529.3828125 11.776200294 8.5000000000 -0.049592000 2.4151000977 11.106100082 74.180000305 1.0151000023 -23.17329979 1.2860000134 1.2843999863
 2529.5351563 11.770298958 8.5000000000 -0.053348999 2.4151999950 11.121399879 74.015899658 0.9922000170 -23.18829918 1.2683999538 1.2706999779
 2529.6875000 11.745599747 8.5000000000 -0.049529999 2.4151000977 10.838000298 74.055297852 0.9876000285 -23.34210014 1.2562999725 1.2624000311
 2529.8400879 11.720898628 8.5000000000 -0.045710001 2.4149999619 10.554699898 74.094802856 0.9829000235 -23.49580002 1.2441999912 1.2540999651
 2529.9924316 11.696200371 8.5000000000 -0.041891001 2.4149999619 10.271300316 74.134201050 0.9782999754 -23.64949989 1.2322000265 1.2458000183
 2530.1447754 11.694700241 8.5000000000 -0.039186001 2.4126999378 10.380900383 74.004203796 0.9810000062 -23.59230042 1.2217999697 1.2473000288
 2530.2971191 11.694399834 8.5000000000 -0.036538001 2.4103999138 10.511199951 73.865303040 0.9842000008 -23.52400017 1.2115999460 1.2493000031
