# LAS format log file from PETREL
# Project units are specified as depth units
#==================================================================
~Version information
VERS.   2.0:
WRAP.   NO:
#==================================================================
~Well
STRT .m      2126.7421875 :
STOP .m      3314.5480957 :
STEP .m     0.00000000 :
NULL .        -999.250000 :
COMP.           : COMPANY
WELL.  7/8-1   : WELL
FLD.            : FIELD
LOC.            : LOCATION
SRVC.           : SERVICE COMPANY
DATE.  2018-09-11 21:49:23   : Log Export Date {yyyy-MM-dd HH:mm:ss}
PROV.           : PROVINCE
UWI.   7/8-1   : UNIQUE WELL ID
API.            : API NUMBER
#==================================================================
~Curve
DEPT .m                   : DEPTH
CALI .in                  : CALI
DRHO .g/cm3               : DRHO
NPHI .m3/m3               : NPHI
RHOB .g/cm3               : RHOB
GR .gAPI                  : GR
DTC .us/ft                : DTC
RDEP .ohm.m               : RDEP
SP .mV                    : SP
RSHA .ohm.m               : RSHA
RMIC .ohm.m               : RMIC
RMED .ohm.m               : RMED
~Parameter
#==================================================================
~Ascii
# ...
 2593.0861816 8.8750000000 0.0069919876 0.2555004656 2.3469951153 79.760620117 114.59764862 0.5789999962 49.008518219 1.3369776011 0.8712999821 1.1006894112
 2593.2385254 8.8769998550 0.0139887827 0.2600926459 2.3509936333 79.632202148 114.27651978 0.5907999873 49.416248322 1.3559695482 0.8792871833 1.1078884602
 2593.3908691 8.8929996490 0.0209887810 0.2596008182 2.3619823456 81.705673218 114.10028076 0.6026999950 49.441761017 1.3769663572 0.8378665447 1.1130000353
 2593.5432129 8.9149999619 0.0170128010 0.2514262199 2.3610031605 82.888214111 114.25949097 0.6144999862 49.466518402 1.3929488659 0.8751800060 1.1171000004
 2593.6958008 8.9409999847 0.0110096149 0.2475062460 2.3540112972 82.600463867 114.69330597 0.6231999993 49.293178558 1.4079759121 0.9548722506 1.1210000515
 2593.8481445 8.9700002670 0.0090032043 0.2477995157 2.3440160751 83.409706116 115.10034943 0.6147000194 49.317562103 1.4149887562 0.9405232668 1.1233999729
 2594.0004883 8.9739999771 0.0109967953 0.2499964684 2.3360128403 85.460708618 115.27072906 0.6036999822 49.342361450 1.4080111980 0.8794979453 1.1234999895
 2594.1528320 8.9490003586 0.0050192000 0.2454147190 2.3290224075 85.600563049 115.25106049 0.5927000046 49.602664948 1.3800896406 0.8697310686 1.1217000484
 2594.3054199 8.9259996414 -0.003985577 0.2477961481 2.3210129738 83.191871643 115.12919617 0.5853999853 50.275020599 1.3660224676 0.8712974191 1.1179000139
 2594.4577637 8.9139995575 -0.004000000 0.2477001697 2.3249936104 81.241127014 114.85344696 0.5845000148 50.909580231 1.3560159206 0.8386523724 1.1155999899
 2594.6101074 8.9160003662 -0.003001603 0.2460027337 2.3369805813 81.534530640 114.50156403 0.5841000080 51.227790833 1.3400256634 0.8096464872 1.1134999990
 2594.7624512 8.9259996414 -0.003000000 0.2515820861 2.3449745178 83.510658264 114.32756042 0.5837000012 51.130714417 1.3220576048 0.8603370786 1.1115000248
 2594.9150391 8.9350004196 0.0009935898 0.2537964880 2.3479952812 86.301528931 114.63949585 0.5832999945 50.881301880 1.3080223799 0.8712826967 1.1131999493
 2595.0673828 8.9569997787 0.0010000000 0.2508048117 2.3420095444 90.248672485 115.22705078 0.5828999877 51.073291779 1.3089984655 0.8874740005 1.1112999916
 2595.2197266 8.9969997406 -0.004990384 0.2501011193 2.3340129852 94.330459595 115.36477661 0.5824999809 51.327190399 1.3090000153 0.9054711461 1.1130000353
 2595.3720703 9.0340003967 -0.006996795 0.2518970966 2.3330016136 96.009315491 114.94068146 0.5820999742 50.608455658 1.3129935265 0.9206756353 1.1110999584
 2595.5244141 9.0590000153 -0.005006400 0.2561862171 2.3349936008 94.827796936 114.28510284 0.5856000185 50.210475922 1.3259583712 0.9028573036 1.1073999405
 2595.6770020 9.0699996948 0.0049839742 0.2569987178 2.3569648266 92.322013855 113.46830750 0.5907999873 49.616249084 1.3369823694 0.8965100646 1.1071000099
 2595.8293457 9.0729999542 0.0139855770 0.2551030517 2.3679823875 88.247528076 112.65630341 0.5960000157 49.126983643 1.3499791622 0.9206612110 1.1090999842
 2595.9816895 9.0760002136 0.0179935899 0.2605911791 2.3779840469 84.154563904 112.67497253 0.6011000276 47.925025940 1.3639775515 0.9207000136 1.1151000261
 2596.1340332 9.0719995499 0.0080320006 0.2627929747 2.3819870949 81.525001526 112.97503662 0.6062999964 48.134220123 1.3779551983 0.9464174509 1.1210000515
 2596.2866211 9.0649995804 0.0030080129 0.2670931220 2.3810017109 80.602996826 113.34341431 0.6115000248 47.956485748 1.4109470844 0.9464001656 1.1260999441
 2596.4389648 9.0620002747 0.0119855767 0.2681982517 2.3849935532 83.120002747 113.84320068 0.6168000102 47.931739807 1.4429486990 0.9887320399 1.1289000511
 2596.5913086 9.0559997559 0.0199871790 0.2584156990 2.3849999905 83.671997070 113.68925476 0.6237000227 47.793121338 1.4669615030 0.9725261331 1.1333999634
 2596.7436523 9.0380001068 0.0120256003 0.2447438389 2.3740353584 82.042999268 113.13877106 0.6320000291 47.605300903 1.4869359732 0.9288401008 1.1434999704
 2596.8962402 9.0220003128 0.0080064107 0.2397080213 2.3610208035 81.930000305 112.71167755 0.6403999925 48.224205017 1.5079663992 0.9291992188 1.1548999548
 2597.0485840 9.0100002289 0.0189823713 0.2431944013 2.3600015640 82.752998352 112.40648651 0.6486999989 48.481586456 1.5279679298 0.9565560818 1.1611000299
 2597.2009277 9.0019998550 0.0209967941 0.2440985590 2.3639936447 83.357002258 112.28918457 0.6567000151 49.298686981 1.5499646664 0.8973950148 1.1684999466
 2597.3532715 9.0030002594 0.0170064103 0.2414043248 2.3709888458 85.973999023 112.48070526 0.6626999974 49.515251160 1.5599839687 0.9476192594 1.1722999811
 2597.5056152 9.0030002594 0.0130128004 0.2408019155 2.3769807816 90.698997498 113.04518890 0.6683999896 49.885810852 1.5649840832 0.9650443196 1.1748000383
 2597.6582031 8.9989995956 0.0050128205 0.2496857345 2.3819918633 93.669998169 112.98509979 0.6722000241 50.201194763 1.5729870796 0.9639019370 1.1753000021
 2597.8105469 8.9960002899 -0.007979167 0.2585857213 2.3560416698 94.913002014 112.92309570 0.6664000154 50.834983826 1.5859791040 0.9163762927 1.1725000143
 2597.9628906 8.9930000305 -0.010995192 0.2600975931 2.3450176716 94.921997070 112.23011017 0.6553999782 50.696723938 1.5780128241 0.9123064280 1.1660000086
 2598.1152344 8.9919996262 -0.004022400 0.2560131252 2.3529744148 92.061996460 111.89407349 0.6444000006 50.365165710 1.5530799627 0.9387151599 1.1590000391
 2598.2678223 8.9989995956 0.0019903847 0.2505088151 2.3629839420 87.283996582 111.85006714 0.6341000199 50.334251404 1.5280400515 0.9387001991 1.1547000408
 2598.4201660 9.0050001144 0.0049951924 0.2480040044 2.3659951687 81.346000671 111.85499573 0.6265000105 50.406085968 1.5110273361 0.9120427966 1.1510000229
 2598.5725098 9.0030002594 0.0030032052 0.2464025617 2.3640031815 77.888000488 111.80308533 0.6193000078 50.242561340 1.4930288792 0.9313688874 1.1497999430
 2598.7248535 8.9989995956 0.0010064001 0.2467987239 2.3580193520 75.456001282 111.67939758 0.6172999740 50.310081482 1.4820351601 0.9595097303 1.1525000334
 2598.8774414 8.9940004349 0.0000016026 0.2442041785 2.3550047874 73.696998596 111.55220795 0.6295999885 50.136878967 1.4700192213 0.9040890932 1.1555999517
 2599.0297852 8.9820003510 0.0009983975 0.2383094579 2.3380272388 72.902000427 111.63086700 0.6427999735 50.359642029 1.4660063982 0.9331532121 1.1570999622
 2599.1821289 8.9680004120 0.0029967949 0.2344062477 2.3360030651 72.453002930 111.87261200 0.6466000080 48.995689392 1.4679968357 0.9585592747 1.1585999727
 2599.3344727 8.9659996033 0.0049967947 0.2325030416 2.3559679985 72.910003662 112.12359619 0.6340000033 48.360118866 1.4769855738 0.9508125186 1.1567000151
 2599.4870605 8.9779996872 0.0059984000 0.2374919951 2.3659839630 74.258003235 112.20786285 0.6213999987 48.502571106 1.4899792671 0.9550931454 1.1548000574
 2599.6394043 8.9989995956 0.0089951921 0.2456868589 2.3719904423 74.945999146 112.19801331 0.6161999702 47.930717468 1.4999840260 0.9550999999 1.1524000168
 2599.7917480 9.0120000839 0.0149903847 0.2468980849 2.3759934902 74.809997559 112.05622101 0.6265000105 46.964550018 1.5049920082 0.9464139342 1.1525000334
 2599.9440918 9.0220003128 0.0130032049 0.2441044897 2.3809919357 73.227996826 111.71154785 0.6396999955 46.140018463 1.5079952478 0.9573823810 1.1565999985
 2600.0964355 9.0279998779 0.0100095998 0.2413089573 2.3700351715 73.846000671 111.56647491 0.6538000107 46.361385345 1.5050096512 0.9796286821 1.1620999575
 2600.2490234 9.0120000839 0.0159903858 0.2367073745 2.3699998856 73.054000854 111.42222595 0.6696000099 46.188480377 1.5179791451 0.9398639798 1.1714999676
 2600.4013672 9.0010004044 0.0130048078 0.2369995266 2.3690016270 71.940002441 111.35011292 0.6844999790 46.783641815 1.5349726677 1.0065928698 1.1838999987
 2600.5537109 9.0080003738 0.0130000003 0.2403945476 2.3769872189 73.105003357 110.93167877 0.6963000298 47.217704773 1.5569647551 1.0236726999 1.1943999529
 2600.7060547 9.0319995880 0.0040288004 0.2446862459 2.3849744797 77.069999695 110.54025269 0.7062000036 47.453845978 1.5839135647 1.0331696272 1.2006000280
