# LAS format log file from PETREL
# Project units are specified as depth units
#==================================================================
~Version information
VERS.   2.0:
WRAP.   NO:
#==================================================================
~Well
STRT .m      2674.6198730 :
STOP .m      4399.4833984 :
STEP .m     0.00000000 :
NULL .        -999.250000 :
COMP.           : COMPANY
WELL.  7/8-4 T2   : WELL
FLD.            : FIELD
LOC.            : LOCATION
SRVC.           : SERVICE COMPANY
DATE.  2018-09-11 21:49:25   : Log Export Date {yyyy-MM-dd HH:mm:ss}
PROV.           : PROVINCE
UWI.   7/8-4 T2   : UNIQUE WELL ID
API.            : API NUMBER
#==================================================================
~Curve
DEPT .m                   : DEPTH
DCAL .in                  : DCAL
CALI .in                  : CALI
BS .in                    : BS
ROP .m/h                  : ROP
DRHO .g/cm3               : DRHO
NPHI .m3/m3               : NPHI
RHOB .g/cm3               : RHOB
PEF .b/e                  : PEF
GR .gAPI                  : GR
DTC .us/ft                : DTC
RDEP .ohm.m               : RDEP
SP .mV                    : SP
RSHA .ohm.m               : RSHA
RMED .ohm.m               : RMED
~Parameter
#==================================================================
~Ascii
# ...
 2787.0913086 3.5065000057 15.756501198 12.250000954 75.604408264 -0.005296593 0.3840537667 2.2725045681 8.2372360229 85.203445435 130.43409729 0.5335461497 46.173019409 0.4654000103 0.6555650830
 2787.2438965 3.5949997902 15.845001221 12.250000954 76.059860229 -0.006917178 0.3895255029 2.2754092216 7.8847737312 83.419700623 131.50250244 0.4998921454 44.374153137 0.4577000141 0.6337302923
 2787.3962402 3.6835000515 15.933500290 12.250000954 76.514236450 -0.008533441 0.3949734569 2.2783098221 7.5330510139 81.643554688 132.57090759 0.4662617147 42.582534790 0.4499000013 0.6119730473
 2787.5485840 3.7246000767 15.974599838 12.250000954 77.003196716 -0.010682262 0.3964768350 2.2844204903 6.9402241707 80.996444702 132.95520020 0.4423947334 41.672176361 0.4665000141 0.5951905251
 2787.7009277 3.6637001038 15.913700104 12.250000954 77.564224243 -0.013965261 0.3895118535 2.2972204685 5.8321242332 82.773147583 131.86959839 0.4390947223 42.654975891 0.5350999832 0.5892903805
 2787.8535156 3.6029000282 15.852899551 12.250000954 78.125823975 -0.017253188 0.3825376034 2.3100402355 4.7223863602 84.552299500 130.78390503 0.4357900620 43.639144897 0.6037999988 0.5832833648
 2788.0058594 3.5441999435 15.794199944 12.250000954 78.690734863 -0.020427924 0.3758739531 2.3226103783 3.6591305733 86.234611511 129.72439575 0.4327028990 44.587184906 0.6701999903 0.5781192780
 2788.1582031 3.5441000462 15.794099808 12.250000954 79.378067017 -0.021004928 0.3764699399 2.3292105198 3.6782305241 85.616111755 129.35209656 0.4345027208 44.702182770 0.6776000261 0.5901192427
 2788.3105469 3.5439000130 15.793899536 12.250000954 80.065071106 -0.021582926 0.3770659566 2.3357105255 3.6972305775 84.997505188 128.97979736 0.4362028837 44.817184448 0.6850000024 0.6021192670
 2788.4631348 3.5436999798 15.793699265 12.250000954 80.750747681 -0.022149222 0.3776481450 2.3422915936 3.7183811665 84.379440308 128.60749817 0.4379833639 44.933338165 0.6923999786 0.6140663624
 2788.6154785 3.5625998974 15.812601089 12.250000954 80.573417664 -0.018784560 0.3736371696 2.3396911621 4.3992352486 84.204750061 129.08399963 0.4327881336 45.351127625 0.6920999885 0.6035713553
 2788.7678223 3.5876998901 15.837699890 12.250000954 80.117378235 -0.014142561 0.3681321740 2.3341910839 5.2947354317 84.172645569 129.83470154 0.4253881276 45.867229462 0.6894999743 0.5856713057
 2788.9201660 3.6128001213 15.862799644 12.250000954 79.661224365 -0.009500709 0.3626382649 2.3286974430 6.1896152496 84.139877319 130.58529663 0.4179932773 46.382591248 0.6868000031 0.5677716136
 2789.0725098 3.6507000923 15.900699615 12.250000954 79.130905151 -0.004951877 0.3640605211 2.3270039558 6.6350193024 83.625320435 130.47270203 0.4137991965 46.438076019 0.6564999819 0.5500718355
 2789.2250977 3.7028000355 15.952799797 12.250000954 78.518051147 -0.000499773 0.3731269538 2.3295080662 6.5845389366 82.577651978 129.40620422 0.4132983983 45.985355377 0.5957000256 0.5324440002
 2789.3774414 3.7548999786 16.004899979 12.250000954 77.907028198 0.0039369455 0.3821653426 2.3320050240 6.5341944695 81.533279419 128.33970642 0.4128006697 45.533824921 0.5347999930 0.5149862170
 2789.5297852 3.7955000401 16.045499802 12.250000954 77.424285889 0.0070139002 0.3917518854 2.3351094723 6.4053750038 80.458488464 127.24900055 0.4132073522 44.923477173 0.4894999862 0.5064463019
 2789.6821289 3.7885999680 16.038600922 12.250000954 77.474159241 0.0044559008 0.4035378993 2.3410093784 5.9531750679 79.265281677 126.05799866 0.4178073704 43.661079407 0.5087000132 0.5353463292
 2789.8347168 3.7816998959 16.031700134 12.250000954 77.523780823 0.0018938177 0.4153426886 2.3468189240 5.5002527237 78.070175171 124.86710358 0.4224143922 42.396759033 0.5279999971 0.5642921329
 2789.9870605 3.7748000622 16.024799347 12.250000954 77.573661804 -0.000654827 0.4270670414 2.3527119160 5.0498504639 76.882110596 123.67610168 0.4269065559 41.138484955 0.5472000241 0.5930014253
 2790.1394043 3.7630999088 16.013099670 12.250000954 77.884391785 -0.000546421 0.4127520919 2.3601121902 5.2686524391 77.761726379 123.04129791 0.4310065508 41.129474640 0.6014999747 0.5938969851
 2790.2917480 3.7509000301 16.000900269 12.250000954 78.220016479 -0.000185420 0.3959660828 2.3677122593 5.5510525703 78.837524414 122.45919037 0.4351065457 41.239173889 0.6590999961 0.5919971466
 2790.4443359 3.7386002541 15.988599777 12.250000954 78.554626465 0.0001828480 0.3791885674 2.3752512932 5.8346028328 79.912254333 121.87709808 0.4392204881 41.349288940 0.7167000175 0.5901392102
 2790.5966797 3.7444002628 15.994400024 12.250000954 78.501190186 0.0023210880 0.3734530509 2.3600542545 6.3349061012 80.146293640 122.82330322 0.4456123412 41.564842224 0.6949999928 0.5711534023
 2790.7490234 3.7606000900 16.010599136 12.250000954 78.222320557 0.0054960866 0.3741070330 2.3315544128 6.9626059532 79.893196106 124.65720367 0.4533123374 41.842147827 0.6269999743 0.5420535207
 2790.9013672 3.7767999172 16.026800156 12.250000954 77.943260193 0.0086685885 0.3747584224 2.3031706810 7.5901532173 79.641197205 126.49109650 0.4610123336 42.120105743 0.5590999722 0.5130937696
 2791.0537109 3.8127999306 16.062799454 12.250000954 77.747306824 0.0109048253 0.3737635612 2.2849001884 8.1220703125 80.075614929 127.58080292 0.4687123299 42.749645233 0.5170999765 0.5092679262
 2791.2062988 3.8852000237 16.135200500 12.250000954 77.703598022 0.0114206485 0.3697371185 2.2851006985 8.4785394669 81.774421692 127.29870605 0.4764246345 44.027381897 0.5228999853 0.5517359972
 2791.3586426 3.9574999809 16.207500458 12.250000954 77.659629822 0.0119341537 0.3657242358 2.2853012085 8.8338146210 83.467575073 127.01670074 0.4841118753 45.300937653 0.5288000107 0.5941634774
 2791.5109863 4.0232000351 16.273199081 12.250000954 77.569778442 0.0120213600 0.3621350825 2.2860124111 9.0904693604 85.009201050 126.83339691 0.4915039837 46.445335388 0.5343000293 0.6337048411
 2791.6633301 4.0012001991 16.251199722 12.250000954 76.888999939 0.0066303606 0.3640590608 2.2937123775 8.0730705261 84.570297241 127.94609833 0.4940041602 45.905235291 0.5358999968 0.6367046237
 2791.8159180 3.9793000221 16.229299545 12.250000954 76.207466125 0.0012307520 0.3659861684 2.3014245033 7.0541443825 84.130798340 129.05870056 0.4966083169 45.364372253 0.5374000072 0.6396095753
 2791.9682617 3.9572999477 16.207300186 12.250000954 75.528755188 -0.004146635 0.3679078519 2.3091044426 6.0394444466 83.693138123 130.17140198 0.4991672933 44.825725555 0.5389999747 0.6425469518
 2792.1206055 3.9293997288 16.179399490 12.250000954 75.459136963 -0.007037569 0.3703050613 2.3120026588 5.6930298805 83.593383789 130.82989502 0.4787576795 44.591457367 0.5457000136 0.6094315648
 2792.2729492 3.8998003006 16.149799347 12.250000954 75.551322937 -0.009264569 0.3728260398 2.3136026859 5.5245299339 83.583686829 131.36770630 0.4523575306 44.438255310 0.5536999702 0.5667315722
 2792.4255371 3.8703000546 16.120300293 12.250000954 75.644508362 -0.011479853 0.3753390610 2.3151795864 5.3590297699 83.570533752 131.90559387 0.4258395433 44.284084320 0.5618000031 0.5240373015
 2792.5778809 3.8445000648 16.094499588 12.250000954 75.897315979 -0.008930546 0.3737902343 2.3087773323 6.2123456001 82.518104553 131.89329529 0.4069810808 43.904239655 0.5487999916 0.5045041442
 2792.7302246 3.8223001957 16.072263718 12.250000954 76.305770874 -0.001783545 0.3683252335 2.2945773602 8.0503454208 80.460403442 131.35069275 0.3951812685 43.305339813 0.5156000257 0.5071043372
 2792.8825684 3.8001000881 16.050081253 12.250000954 76.713829041 0.0053608655 0.3628669083 2.2803866863 9.8868236542 78.404754639 130.80819702 0.3834860623 42.707241058 0.4824000001 0.5098007917
 2793.0349121 3.7885000706 16.038537979 12.250000954 77.072486877 0.0102567403 0.3615955114 2.2721188068 10.832920074 77.635597229 130.53779602 0.3748022318 42.547504425 0.4586000144 0.5102892518
 2793.1875000 3.8127999306 16.062877655 12.250000954 77.265380859 0.0075944941 0.3744159341 2.2838373184 8.7830514908 81.196472168 131.18690491 0.3762044609 43.863704681 0.4666999876 0.5035782456
