# LAS format log file from PETREL
# Project units are specified as depth units
#==================================================================
~Version information
VERS.   2.0:
WRAP.   NO:
#==================================================================
~Well
STRT .m      1216.1519775 :
STOP .m      3001.3652344 :
STEP .m     0.00000000 :
NULL .        -999.250000 :
COMP.           : COMPANY
WELL.  7/8-2 Cero   : WELL
FLD.            : FIELD
LOC.            : LOCATION
SRVC.           : SERVICE COMPANY
DATE.  2018-09-11 21:49:23   : Log Export Date {yyyy-MM-dd HH:mm:ss}
PROV.           : PROVINCE
UWI.   7/8-2   : UNIQUE WELL ID
API.            : API NUMBER
#==================================================================
~Curve
DEPT .m                   : DEPTH
CALI .in                  : CALI
BS .in                    : BS
DRHO .g/cm3               : DRHO
RHOB .g/cm3               : RHOB
GR .gAPI                  : GR
DTC .us/ft                : DTC
RDEP .ohm.m               : RDEP
SP .mV                    : SP
RSHA .ohm.m               : RSHA
RMED .ohm.m               : RMED
~Parameter
#==================================================================
~Ascii
# ...
 2632.8623047 9.7461996078 8.5000000000 0.0041410001 2.4760999680 11.117400169 74.958541870 1.4359999895 -18.63209915 1.7357000113 1.8673000336
 2633.0146484 9.7440004349 8.5000000000 0.0038089999 2.4811999798 11.177700043 75.375030518 1.4606000185 -18.77619934 1.7508000135 1.8797999620
 2633.1669922 9.7327003479 8.5000000000 0.0018440000 2.4839999676 11.347999573 74.691795349 1.5175000429 -18.45039940 1.8334000111 1.9447000027
 2633.3195801 9.7214002609 8.5000000000 -0.000122000 2.4867999554 11.518400192 74.004501343 1.5743000507 -18.12459946 1.9158999920 2.0097000599
 2633.4719238 9.7101001740 8.5000000000 -0.002088000 2.4895000458 11.688699722 73.318397522 1.6311999559 -17.79879951 1.9983999729 2.0745999813
 2633.6242676 9.7006998062 8.5000000000 0.0023900000 2.5081000328 11.277000427 72.833778381 1.6894999743 -17.48259926 2.0392999649 2.0801000595
 2633.7766113 9.6918001175 8.5000000000 0.0083179995 2.5302999020 10.734399796 72.395401001 1.7481000423 -17.16860008 2.0708000660 2.0720999241
 2633.9291992 9.6829004288 8.5000000000 0.0142460000 2.5525000095 10.191800117 71.955802917 1.8066999912 -16.85460091 2.1024000645 2.0641999245
 2634.0815430 9.6703996658 8.5000000000 0.0171690006 2.5668001175 10.045700073 72.134010315 1.8312000036 -16.81189919 2.1152000427 2.0780999660
 2634.2338867 9.6549997330 8.5000000000 0.0174850002 2.5741999149 10.243599892 72.848556519 1.8259999752 -17.00440025 2.1117000580 2.1108000278
 2634.3862305 9.6394996643 8.5000000000 0.0178009998 2.5817000866 10.441499710 73.562911987 1.8207999468 -17.19700050 2.1082999706 2.1435999870
 2634.5388184 9.6280002594 8.5000000000 0.0163349994 2.5850999355 10.807299614 74.039634705 1.8229000568 -17.31189919 2.1138999462 2.1672999859
 2634.6911621 9.6280002594 8.5000000000 0.0096500004 2.5768001080 11.665100098 73.812568665 1.8466000557 -17.19980049 2.1461000443 2.1649000645
 2634.8435059 9.6280002594 8.5000000000 0.0029650000 2.5683999062 12.522800446 73.584365845 1.8702000380 -17.08769989 2.1782999039 2.1624999046
 2634.9958496 9.6280002594 8.5000000000 -0.003720000 2.5601000786 13.380499840 73.356163025 1.8939000368 -16.97550011 2.2105000019 2.1600999832
 2635.1481934 9.6280002594 8.5000000000 -0.002557000 2.5481998920 14.133999825 73.744155884 1.8974000216 -16.73040009 2.1914999485 2.1549999714
 2635.3007813 9.6280002594 8.5000000000 -0.001182000 2.5362000465 14.884699821 74.151054382 1.9004000425 -16.48170090 2.1712000370 2.1498000622
 2635.4531250 9.6280002594 8.5000000000 0.0001920000 2.5241999626 15.635299683 74.557449341 1.9033999443 -16.23299980 2.1508998871 2.1445999146
 2635.6054688 9.6218996048 8.5000000000 0.0002360000 2.5136001110 15.220399857 74.234817505 1.9014999866 -16.11429977 2.1482000351 2.1616001129
 2635.7578125 9.6129999161 8.5000000000 -0.000309000 2.5037000179 14.288800240 73.589065552 1.8974000216 -16.05310059 2.1533999443 2.1884999275
 2635.9104004 9.6042003632 8.5000000000 -0.000855000 2.4937000275 13.357199669 72.940734863 1.8933000565 -15.99199867 2.1586000919 2.2153000832
 2636.0627441 9.5937995911 8.5000000000 -0.001967000 2.4904000759 12.612199783 72.547134399 1.8911000490 -16.17309952 2.1709001064 2.2409999371
 2636.2150879 9.5811004639 8.5000000000 -0.003887000 2.4965999126 12.133199692 72.515846252 1.8913999796 -16.69980049 2.1930999756 2.2651000023
 2636.3674316 9.5684995651 8.5000000000 -0.005807000 2.5027999878 11.654299736 72.485298157 1.8917000294 -17.22640038 2.2153999805 2.2892000675
 2636.5200195 9.5602998734 8.5000000000 -0.007524000 2.5083000660 11.254099846 72.455642700 1.8963999748 -17.65509987 2.2374999523 2.3108000755
 2636.6723633 9.5815000534 8.5000000000 -0.007898000 2.5088000298 11.375000000 72.433235168 1.9300999641 -17.43479919 2.2588000298 2.3157000542
 2636.8247070 9.6026000977 8.5000000000 -0.008271000 2.5093998909 11.495900154 72.410835266 1.9637999535 -17.21450043 2.2801001072 2.3206999302
 2636.9770508 9.6238002777 8.5000000000 -0.008645000 2.5099000931 11.616900444 72.388435364 1.9974999428 -16.99419975 2.3013999462 2.3255999088
 2637.1293945 9.6152000427 8.5000000000 -0.008703000 2.5055000782 12.091400146 71.584579468 2.0137000084 -16.87080002 2.3150999546 2.3025000095
 2637.2819824 9.6013002396 8.5000000000 -0.008704999 2.5002000332 12.628199577 70.639213562 2.0267999172 -16.76449966 2.3275001049 2.2744998932
 2637.4343262 9.5874004364 8.5000000000 -0.008708000 2.4949998856 13.164999962 69.695007324 2.0397999287 -16.65810013 2.3399999142 2.2465000153
 2637.5866699 9.5854997635 8.5000000000 -0.005735000 2.4932999611 13.277600288 69.845153809 1.9996000528 -16.92200089 2.3262000084 2.2098000050
 2637.7390137 9.5927000046 8.5000000000 -0.000513000 2.4943997860 13.069700241 70.822563171 1.9191000462 -17.46559906 2.2925999165 2.1665999889
 2637.8916016 9.5999002457 8.5000000000 0.0047089998 2.4955000877 12.861700058 71.804527283 1.8386000395 -18.00919914 2.2590000629 2.1235001087
 2638.0439453 9.6034002304 8.5000000000 0.0077740001 2.4972999096 12.720700264 72.636566162 1.7770999670 -18.41200066 2.2195999622 2.0947999954
 2638.1962891 9.5979003906 8.5000000000 0.0055290000 2.5009000301 12.744899750 73.103149414 1.7624000311 -18.46780014 2.1659998894 2.1017999649
 2638.3486328 9.5923995972 8.5000000000 0.0032830001 2.5044000149 12.769200325 73.568412781 1.7475999594 -18.52370071 2.1124000549 2.1087999344
 2638.5012207 9.5869998932 8.5000000000 0.0010250000 2.5078001022 12.793000221 74.029762268 1.7331999540 -18.57780075 2.0594999790 2.1159000397
 2638.6535645 9.5867004395 8.5000000000 -0.002843000 2.4969000816 12.772899628 73.805656433 1.7630000114 -18.41419983 2.0818998814 2.1394000053
 2638.8059082 9.5864000320 8.5000000000 -0.006711000 2.4860000610 12.752699852 73.580459595 1.7927999496 -18.25060081 2.1043000221 2.1628000736
 2638.9582520 9.5860996246 8.5000000000 -0.010579000 2.4751999378 12.732500076 73.355255127 1.8227000237 -18.08690071 2.1266999245 2.1863000393
 2639.1108398 9.5900001526 8.5000000000 -0.009278000 2.4800000191 12.720899582 73.470016479 1.8401000500 -17.92849922 2.1473999023 2.1914000511
 2639.2631836 9.5953998566 8.5000000000 -0.006037000 2.4907000065 12.712499619 73.713012695 1.8529000282 -17.77210045 2.1673998833 2.1895999908
 2639.4155273 9.6007995605 8.5000000000 -0.002795000 2.5014998913 12.704099655 73.956207275 1.8655999899 -17.61560059 2.1874001026 2.1879000664
 2639.5678711 9.5959997177 8.5000000000 -0.001272000 2.5076999664 12.422599792 73.796661377 1.8660000563 -17.49440002 2.1995999813 2.1949999332
 2639.7202148 9.5783004761 8.5000000000 -0.001882000 2.5083000660 11.802300453 73.137611389 1.8510999680 -17.41670036 2.2019999027 2.2130999565
 2639.8728027 9.5607004166 8.5000000000 -0.002491000 2.5090000629 11.182000160 72.475662231 1.8360999823 -17.33909988 2.2044999599 2.2311000824
 2640.0251465 9.5438003540 8.5000000000 -0.002903000 2.5083999634 10.682399750 71.952438354 1.8214999437 -17.27129936 2.2086000443 2.2441000938
 2640.1774902 9.5305995941 8.5000000000 -0.002317000 2.5018000603 10.792300224 72.124221802 1.8085000515 -17.25309944 2.2214999199 2.2313001156
 2640.3298340 9.5173997879 8.5000000000 -0.001730000 2.4951000214 10.902199745 72.296844482 1.7955000401 -17.23480034 2.2342998981 2.2184998989
 2640.4824219 9.5041999817 8.5000000000 -0.001144000 2.4885001183 11.012200356 72.469924927 1.7826000452 -17.21660042 2.2471001148 2.2056999207
 2640.6347656 9.4927997589 8.5000000000 -0.000405000 2.4937996864 11.281999588 72.679763794 1.7811000347 -17.18359947 2.2411000729 2.2170999050
 2640.7871094 9.4815998077 8.5000000000 0.0003550000 2.5006999969 11.572600365 72.894454956 1.7811000347 -17.14870071 2.2325000763 2.2318000793
 2640.9394531 9.4703998566 8.5000000000 0.0011140000 2.5076000690 11.863300323 73.108810425 1.7812000513 -17.11380005 2.2239999771 2.2465000153
 2641.0920410 9.4643001556 8.5000000000 0.0008460000 2.5134999752 12.048899651 73.336433411 1.7858999968 -17.14979935 2.2228999138 2.2674000263
 2641.2443848 9.4616003036 8.5000000000 -0.000097000 2.5188000202 12.165599823 73.572120667 1.7937999964 -17.23240089 2.2267000675 2.2922999859
