# LAS format log file from PETREL
# Project units are specified as depth units
#==================================================================
~Version information
VERS.   2.0:
WRAP.   NO:
#==================================================================
~Well
STRT .m      1216.1519775 :
STOP .m      3001.3652344 :
STEP .m     0.00000000 :
NULL .        -999.250000 :
COMP.           : COMPANY
WELL.  7/8-2 Cero   : WELL
FLD.            : FIELD
LOC.            : LOCATION
SRVC.           : SERVICE COMPANY
DATE.  2018-09-11 21:49:23   : Log Export Date {yyyy-MM-dd HH:mm:ss}
PROV.           : PROVINCE
UWI.   7/8-2   : UNIQUE WELL ID
API.            : API NUMBER
#==================================================================
~Curve
DEPT .m                   : DEPTH
CALI .in                  : CALI
BS .in                    : BS
DRHO .g/cm3               : DRHO
RHOB .g/cm3               : RHOB
GR .gAPI                  : GR
DTC .us/ft                : DTC
RDEP .ohm.m               : RDEP
SP .mV                    : SP
RSHA .ohm.m               : RSHA
RMED .ohm.m               : RMED
~Parameter
#==================================================================
~Ascii
# ...
 1924.5072021 13.038800240 12.250000954  -999.250000  -999.250000 83.570602417 123.06406403 0.8260999918 -36.67039871 1.0039000511 0.9857000113
 1924.6595459 13.023099899 12.250000954  -999.250000  -999.250000 82.231300354 123.62045288 0.8282999992 -36.58020020 1.0177999735 0.9794999957
 1924.8120117 13.007399559 12.250000954  -999.250000  -999.250000 80.891899109 124.17785645 0.8305000067 -36.49000168 1.0315999985 0.9732999802
 1924.9643555 12.991700172 12.250000954  -999.250000  -999.250000 79.552597046 124.73515320 0.8327000141 -36.39979935 1.0454000235 0.9670000076
 1925.1168213 12.923100471 12.250000954  -999.250000  -999.250000 79.932403564 124.86039734 0.8392000198 -36.39879990 1.0506999493 0.9654999971
 1925.2691650 12.838398933 12.250000954  -999.250000  -999.250000 80.836196899 124.85350800 0.8468999863 -36.42499924 1.0535000563 0.9653000236
 1925.4216309 12.753699303 12.250000954  -999.250000  -999.250000 81.739898682 124.84661102 0.8547000289 -36.45130157 1.0563000441 0.9652000070
 1925.5739746 12.792599678 12.250000954  -999.250000  -999.250000 82.109298706 124.30733490 0.8618999720 -36.44079971 1.0608999729 0.9668999910
 1925.7264404 12.962699890 12.250000954  -999.250000  -999.250000 81.912696838 123.20368958 0.8686000109 -36.39149857 1.0674999952 0.9707999825
 1925.8787842 13.132800102 12.250000954  -999.250000  -999.250000 81.716003418 122.09958649 0.8752999902 -36.34220123 1.0740000010 0.9746000171
 1926.0311279 13.241800308 12.250000954  -999.250000  -999.250000 80.989799500 121.56095886 0.8815000057 -36.28319931 1.0760999918 0.9800999761
 1926.1835938 13.113300323 12.250000954  -999.250000  -999.250000 78.206802368 123.21677399 0.8858000040 -36.18679810 1.0608999729 0.9922999740
 1926.3359375 12.984800339 12.250000954  -999.250000  -999.250000 75.423797607 124.87354279 0.8901000023 -36.09040070 1.0456999540 1.0044000149
 1926.4884033 12.856399536 12.250000954  -999.250000  -999.250000 72.640800476 126.53287506 0.8944000006 -35.99390030 1.0305000544 1.0166000128
 1926.6407471 12.815600395 12.250000954  -999.250000  -999.250000 73.392799377 124.49926758 0.8924000263 -36.03950119 1.0400999784 1.0088000298
 1926.7932129 12.781900406 12.250000954  -999.250000  -999.250000 74.435897827 122.15517426 0.8898000121 -36.09680176 1.0516999960 0.9994000196
 1926.9455566 12.748300552 12.250000954  -999.250000  -999.250000 75.479103088 119.81247711 0.8871999979 -36.15399933 1.0634000301 0.9898999929
 1927.0980225 12.749199867 12.250000954  -999.250000  -999.250000 76.316596985 118.89633179 0.8809999824 -36.25550079 1.0687999725 0.9894999862
 1927.2503662 12.769200325 12.250000954  -999.250000  -999.250000 77.040000916 118.77320099 0.8727999926 -36.38159943 1.0707000494 0.9940000176
 1927.4028320 12.789199829 12.250000954  -999.250000  -999.250000 77.763298035 118.65069580 0.8647000194 -36.50759888 1.0724999905 0.9986000061
 1927.5551758 12.800999641 12.250000954  -999.250000  -999.250000 78.696296692 119.28139496 0.8550999761 -36.63970184 1.0672999620 1.0053000450
 1927.7076416 12.798501015 12.250000954  -999.250000  -999.250000 79.998397827 121.23892975 0.8432000279 -36.78210068 1.0497000217 1.0160000324
 1927.8599854 12.795999527 12.250000954  -999.250000  -999.250000 81.300498962 123.19752502 0.8313000202 -36.92459869 1.0319999456 1.0267000198
 1928.0123291 12.792400360 12.250000954  -999.250000  -999.250000 82.584396362 124.99571228 0.8201000094 -37.05550003 1.0149999857 1.0355000496
 1928.1647949 12.775600433 12.250000954  -999.250000  -999.250000 83.663299561 125.00180054 0.8169000149 -37.05569839 1.0042999983 1.0234999657
 1928.3171387 12.758899689 12.250000954  -999.250000  -999.250000 84.742103577 125.00509644 0.8137999773 -37.05580139 0.9937000275 1.0115000010
 1928.4696045 12.742100716 12.250000954  -999.250000  -999.250000 85.820999146 125.00830078 0.8105999827 -37.05590057 0.9830999970 0.9994999766
 1928.6219482 12.756401062 12.250000954  -999.250000  -999.250000 84.195198059 124.67792511 0.8119999766 -36.92200089 0.9794999957 0.9860000014
 1928.7744141 12.778400421 12.250000954  -999.250000  -999.250000 81.895500183 124.26363373 0.8145999908 -36.75460052 0.9776999950 0.9721999764
 1928.9267578 12.800299644 12.250000954  -999.250000  -999.250000 79.595802307 123.84943390 0.8172000051 -36.58729935 0.9757999778 0.9584000111
 1929.0792236 12.827500343 12.250000954  -999.250000  -999.250000 79.363502502 124.04914093 0.8205999732 -36.54520035 0.9801999927 0.9530000091
 1929.2315674 12.859600067 12.250000954  -999.250000  -999.250000 81.041999817 124.81658173 0.8246999979 -36.61890030 0.9902999997 0.9553999901
 1929.3840332 12.891599655 12.250000954  -999.250000  -999.250000 82.720497131 125.58457947 0.8288999796 -36.69260025 1.0004999638 0.9577999711
 1929.5363770 12.922200203 12.250000954  -999.250000  -999.250000 83.269096375 125.89515686 0.8320999742 -36.74670029 1.0065000057 0.9606000185
 1929.6888428 12.948100090 12.250000954  -999.250000  -999.250000 80.217300415 124.74792480 0.8324000239 -36.73860168 0.9994000196 0.9649000168
 1929.8411865 12.973999977 12.250000954  -999.250000  -999.250000 77.165397644 123.59952545 0.8327000141 -36.73049927 0.9922000170 0.9692000151
 1929.9935303 12.999899864 12.250000954  -999.250000  -999.250000 74.113601685 122.45203400 0.8330000043 -36.72240067 0.9850999713 0.9733999968
 1930.1459961 12.943300247 12.250000954  -999.250000  -999.250000 77.467597961 123.83159637 0.8334000111 -36.80839920 0.9783999920 0.9732999802
 1930.2983398 12.883000374 12.250000954  -999.250000  -999.250000 81.102401733 125.32380676 0.8338000178 -36.89860153 0.9717000127 0.9728999734
 1930.4508057 12.822699547 12.250000954  -999.250000  -999.250000 84.737297058 126.81840515 0.8342999816 -36.98880005 0.9649999738 0.9725000262
 1930.6031494 12.798200607 12.250000954  -999.250000  -999.250000 86.586997986 126.50959778 0.8407999873 -36.94549942 0.9639999866 0.9699000120
 1930.7556152 12.790800095 12.250000954  -999.250000  -999.250000 87.585700989 125.33953857 0.8503999710 -36.83850098 0.9656999707 0.9661999941
 1930.9079590 12.783300400 12.250000954  -999.250000  -999.250000 88.584396362 124.16903687 0.8598999977 -36.73149872 0.9674000144 0.9624999762
 1931.0604248 12.766300201 12.250000954  -999.250000  -999.250000 88.692497253 123.52371979 0.8694999814 -36.75749969 0.9739000201 0.9632999897
 1931.2127686 12.734499931 12.250000954  -999.250000  -999.250000 87.444000244 123.67868042 0.8791000247 -36.98630142 0.9879999757 0.9706000090
 1931.3652344 12.702700615 12.250000954  -999.250000  -999.250000 86.195503235 123.83427429 0.8888000250 -37.21500015 1.0019999743 0.9779999852
 1931.5175781 12.675499916 12.250000954  -999.250000  -999.250000 84.883201599 123.59689331 0.8981999755 -37.40069962 1.0154000521 0.9847000241
 1931.6700439 12.683300972 12.250000954  -999.250000  -999.250000 83.081596375 120.34880066 0.9056000113 -37.25709915 1.0233999491 0.9864000082
 1931.8223877 12.691099167 12.250000954  -999.250000  -999.250000 81.279998779 117.09840393 0.9131000042 -37.11349869 1.0313999653 0.9879999757
 1931.9748535 12.698900223 12.250000954  -999.250000  -999.250000 79.478302002 113.84799957 0.9205999970 -36.97000122 1.0393999815 0.9896000028
 1932.1271973 12.672699928 12.250000954  -999.250000  -999.250000 78.731597900 114.28079224 0.9200999737 -36.98680115 1.0305999517 1.0075999498
 1932.2795410 12.639699936 12.250000954  -999.250000  -999.250000 78.193901062 115.44650269 0.9179999828 -37.03540039 1.0185999870 1.0286999941
 1932.4320068 12.606699944 12.250000954  -999.250000  -999.250000 77.656196594 116.61219788 0.9158999920 -37.08390045 1.0066000223 1.0499000549
 1932.5843506 12.595298767 12.250000954  -999.250000  -999.250000 79.719802856 118.19629669 0.9093000293 -37.11130142 1.0037000179 1.0534000397
 1932.7368164 12.601301193 12.250000954  -999.250000  -999.250000 83.879402161 120.11730194 0.8991000056 -37.12139893 1.0081000328 1.0427000523
 1932.8891602 12.607200623 12.250000954  -999.250000  -999.250000 88.038902283 122.03839874 0.8888999820 -37.13159943 1.0125999451 1.0319000483
