# LAS format log file from PETREL
# Project units are specified as depth units
#==================================================================
~Version information
VERS.   2.0:
WRAP.   NO:
#==================================================================
~Well
STRT .m      2126.7421875 :
STOP .m      3314.5480957 :
STEP .m     0.00000000 :
NULL .        -999.250000 :
COMP.           : COMPANY
WELL.  7/8-1   : WELL
FLD.            : FIELD
LOC.            : LOCATION
SRVC.           : SERVICE COMPANY
DATE.  2018-09-11 21:49:23   : Log Export Date {yyyy-MM-dd HH:mm:ss}
PROV.           : PROVINCE
UWI.   7/8-1   : UNIQUE WELL ID
API.            : API NUMBER
#==================================================================
~Curve
DEPT .m                   : DEPTH
CALI .in                  : CALI
DRHO .g/cm3               : DRHO
NPHI .m3/m3               : NPHI
RHOB .g/cm3               : RHOB
GR .gAPI                  : GR
DTC .us/ft                : DTC
RDEP .ohm.m               : RDEP
SP .mV                    : SP
RSHA .ohm.m               : RSHA
RMIC .ohm.m               : RMIC
RMED .ohm.m               : RMED
~Parameter
#==================================================================
~Ascii
 2126.7421875 12.184000015 0.0079951929 0.3900256157 2.2209999561 63.772998810 139.60815430 0.4361000061 51.412899017 1.0449646711 0.4297423065 0.7991999984
 2126.8945313 11.885001183 0.0040064105 0.3831110597 2.2279887199 61.576000214 138.22521973 0.4661000073 50.816299438 1.0589776039 0.3420408666 0.8041999936
 2127.0471191 11.880999565 -0.001000000 0.3817999959 2.2620000839 57.148998260 129.80900574 0.4959999919 50.347301483 1.0709999800 0.3772999942 0.8087999821
 2127.1994629 12.300000191 -0.004000000 0.3501000106 2.2899999619 54.695999146 128.00100708 0.5198000073 50.689998627 1.0909999609 0.4702999890 0.8140000105
 2127.3518066 12.390999794 -0.002003200 0.3508987129 2.3099679947 54.335998535 126.19589233 0.5314999819 50.307201385 1.1129648685 0.5555633903 0.8206999898
 2127.5041504 12.376999855 0.0069855773 0.3426132798 2.3219807148 55.236999512 127.40405273 0.5315999985 50.373100281 1.1179920435 0.6814980507 0.8292000294
 2127.6567383 12.380999565 0.0130000003 0.3456000090 2.3080000877 58.515998840 131.88299561 0.5145000219 50.657501221 1.1200000048 0.6424999833 0.8389999866
 2127.8090820 12.378000259 0.0109999999 0.3684999943 2.2500000000 61.985000610 137.72999573 0.4875999987 50.708099365 1.1169999838 0.5091000199 0.8489999771
 2127.9614258 12.397000313 0.0219823997 0.3924616277 2.2270367146 66.613998413 138.50376892 0.4709999859 49.922901154 1.0950351954 0.4995153546 0.8568999767
 2128.1137695 12.123000145 0.0319839753 0.3930990398 2.2289969921 69.028999329 138.34625244 0.4636999965 49.149600983 1.0730352402 0.4116410315 0.8568999767
 2128.2663574 12.036000252 0.0189999994 0.3846000135 2.2209999561 67.815002441 138.42900085 0.4564000070 50.507999420 1.0570000410 0.3653999865 0.8543000221
 2128.4187012 12.378000259 0.0130000003 0.3722000122 2.2209999561 65.325996399 138.12800598 0.4490999877 49.515499115 1.0850000381 0.4426000118 0.8486999869
 2128.5710449 12.174999237 0.0199887995 0.3738972843 2.2239952087 61.634998322 137.92631531 0.4417999983 48.064098358 1.0720207691 0.4792412817 0.8421999812
 2128.7233887 12.191999435 0.0120128207 0.3911722898 2.2140159607 61.347000122 137.85412598 0.4345000088 48.817298889 1.0710015297 0.4498472810 0.8392999768
 2128.8757324 12.417000771 0.0030144232 0.3863078356 2.2130017281 63.164001465 137.78112793 0.4273000062 47.696300507 1.0729967356 0.4591849446 0.8385000229
 2129.0283203 12.298999786 0.0120000001 0.3714999855 2.2179999352 63.598999023 137.70799255 0.4296999872 48.424301147 1.0720000267 0.4458000064 0.8385999799
 2129.1806641 12.206000328 0.0139968004 0.3810846508 2.2259871960 63.324001312 137.54925537 0.4397999942 46.576099396 1.0660096407 0.4286275208 0.8384000063
 2129.3330078 12.284999847 0.0100064101 0.3860919774 2.2339870930 64.202003479 136.79222107 0.4507000148 45.414299011 1.0640032291 0.4801172912 0.8374000192
 2129.4853516 12.343999863 0.0030112180 0.4012756646 2.2190241814 66.362998962 136.48448181 0.4614999890 45.642398834 1.0630015135 0.4491498172 0.8371999860
 2129.6379395 12.395000458 0.0209999997 0.3937999904 2.2279999256 68.075996399 136.43899536 0.4903999865 45.958599091 1.0640000105 0.4808999896 0.8389000297
 2129.7902832 12.312999725 0.0209999997 0.3946999907 2.2309999466 68.363998413 136.90299988 0.4943000078 46.034999847 1.0659999847 0.4454999864 0.8411999941
 2129.9426270 12.277001381 0.0319824032 0.3962974250 2.2409839630 67.274002075 137.13163757 0.4943999946 46.040500641 1.0669984818 0.4010711908 0.8435000181
 2130.0949707 12.295999527 0.0369919874 0.3991953433 2.2469904423 66.129997253 137.29473877 0.4945999980 45.896701813 1.0709935427 0.4392386079 0.8417999744
 2130.2475586 12.300999641 0.0579999983 0.4101999998 2.2560000420 68.305000305 137.76199341 0.4948000014 45.889801025 1.0779999495 0.4688999951 0.8399999738
 2130.3999023 12.034999847 0.0460000001 0.3944000006 2.2430000305 72.495002747 139.03900146 0.4950000048 44.953899384 1.0820000172 0.3720000088 0.8402000070
 2130.5522461 11.911999702 0.0320224017 0.3822195232 2.2370095253 75.016998291 139.76484680 0.4952000082 44.943500519 1.0839967728 0.4408896267 0.8406999707
 2130.7045898 12.024999619 0.0300032049 0.3773078322 2.2260177135 74.190002441 139.77598572 0.4954999983 45.259498596 1.0849984884 0.4164394140 0.8424999714
 2130.8569336 12.064000130 0.0140256416 0.3832903802 2.2170143127 75.100997925 140.03956604 0.4957000017 45.017601013 1.0859984159 0.4518431127 0.8410000205
 2131.0095215 12.093001366 0.0260000005 0.3734000027 2.2309999466 73.829002380 139.54699707 0.4957999885 44.400001526 1.0959999561 0.4214000106 0.8357999921
 2131.1618652 12.163999557 0.0260000005 0.3774934411 2.2270064354 70.077003479 139.13267517 0.4959999919 43.902599335 1.1099776030 0.4436643124 0.8331999779
 2131.3142090 12.099999428 0.0260000005 0.3869847655 2.2220079899 69.427001953 139.05311584 0.4961999953 43.662998199 1.1209824085 0.4372104406 0.8331999779
 2131.4665527 12.182999611 0.0180128198 0.4003785253 2.2190048695 69.447998047 138.26826477 0.4963999987 43.656200409 1.1289870739 0.4297119975 0.8325999975
 2131.6191406 12.467000008 0.0179999992 0.4023000002 2.2200000286 72.109001160 137.49800110 0.4966000021 43.649398804 1.1369999647 0.4772999883 0.8342000246
 2131.7714844 12.248999596 0.0199999996 0.4054000080 2.2390000820 74.421997070 137.30299377 0.4966999888 43.642601013 1.1440000534 0.4216000140 0.8371000290
 2131.9238281 12.369999886 0.0190015994 0.3939183950 2.2519793510 72.662002563 136.78681946 0.4968999922 44.031898499 1.1449984312 0.4396710396 0.8393999934
 2132.0761719 12.369001389 0.0090160249 0.3884088099 2.2500030994 66.058998108 137.04159546 0.4970999956 44.129901886 1.1430032253 0.4575712979 0.8416000009
 2132.2287598 12.260001183 0.0020000001 0.3996999860 2.2360000610 62.077999115 137.60600281 0.4972999990 43.995998383 1.1410000324 0.3756000102 0.8471999764
 2132.3811035 12.300999641 0.0160000008 0.3987999856 2.2269999981 60.633998871 138.30700684 0.4975999892 43.697399139 1.1339999437 0.4415000081 0.8518999815
 2132.5334473 12.300000191 0.0120064002 0.4037920237 2.1980464458 63.349998474 138.66642761 0.4977999926 43.410499573 1.1230176687 0.4097508788 0.8525000215
 2132.6857910 12.315000534 0.0110016027 0.4004054666 2.1890141964 65.200996399 138.66900635 0.4979999959 42.952301025 1.1120176315 0.4495360553 0.8506000042
 2132.8381348 12.420998573 0.0199855771 0.4050924480 2.1860048771 66.483001709 138.21673584 0.4925999939 42.604801178 1.1030144691 0.5125988722 0.8450000286
 2132.9907227 12.428999901 0.0170000009 0.4137000144 2.1919999123 66.828002930 138.32299805 0.4523999989 42.123298645 1.0959999561 0.4289000034 0.8450999856
 2133.1430664 12.350999832 0.0309775993 0.4168948829 2.2019839287 64.691001892 138.58358765 0.4632000029 42.051700592 1.0890111923 0.4257051349 0.8457999825
 2133.2954102 12.194000244 0.0130288461 0.4106101096 2.1940128803 62.966999054 138.63790894 0.4763999879 42.286899567 1.0830096006 0.4345857203 0.8485999703
 2133.4477539 12.175999641 0.0120016029 0.4062070549 2.1930017471 66.620002747 138.48724365 0.4911000133 42.722801208 1.0849968195 0.4393922985 0.8507999778
 2133.6003418 12.354000092 0.0080000004 0.4007000029 2.1889998913 68.137001038 138.15899658 0.5059000254 42.966800690 1.0970000029 0.4884999990 0.8550999761
 2133.7526855 12.358999252 -0.001000000 0.3975000083 2.1819999218 67.572998047 137.47999573 0.5205000043 43.376800537 1.1089999676 0.5045999885 0.8601999879
 2133.9050293 12.112000465 -0.003995200 0.4052875042 2.1889886856 65.180999756 136.96482849 0.5340999961 43.955299377 1.1339598894 0.5213730931 0.8657000065
 2134.0573730 12.133000374 -0.004998398 0.3989102542 2.2059729099 62.957000732 136.10836792 0.5446000099 44.686199188 1.1639519930 0.4525105655 0.8713999987
 2134.2099609 12.479000092 -0.004000000 0.3743999898 2.2209999561 61.180999756 134.69900513 0.5536000133 46.071201324 1.1619999409 0.4803000093 0.8780999780
 2134.3623047 12.480999947 -0.001000000 0.3589000106 2.2300000191 61.362998962 134.87699890 0.5533000231 47.637001038 1.1549999714 0.5813999772 0.8859999776
