# LAS format log file from PETREL
# Project units are specified as depth units
#==================================================================
~Version information
VERS.   2.0:
WRAP.   NO:
#==================================================================
~Well
STRT .m      2126.7421875 :
STOP .m      3314.5480957 :
STEP .m     0.00000000 :
NULL .        -999.250000 :
COMP.           : COMPANY
WELL.  7/8-1   : WELL
FLD.            : FIELD
LOC.            : LOCATION
SRVC.           : SERVICE COMPANY
DATE.  2018-09-11 21:49:23   : Log Export Date {yyyy-MM-dd HH:mm:ss}
PROV.           : PROVINCE
UWI.   7/8-1   : UNIQUE WELL ID
API.            : API NUMBER
#==================================================================
~Curve
DEPT .m                   : DEPTH
CALI .in                  : CALI
DRHO .g/cm3               : DRHO
NPHI .m3/m3               : NPHI
RHOB .g/cm3               : RHOB
GR .gAPI                  : GR
DTC .us/ft                : DTC
RDEP .ohm.m               : RDEP
SP .mV                    : SP
RSHA .ohm.m               : RSHA
RMIC .ohm.m               : RMIC
RMED .ohm.m               : RMED
~Parameter
#==================================================================
~Ascii
# ...
 2515.3623047 9.0010004044 -0.004000000 0.2752999961 2.2869999409 75.878997803 119.27200317 0.4778999984 56.273601532 1.2070000172 0.6647495031 0.9941999912
 2515.5146484 9.0209999084 -0.003000000 0.2761000097 2.2920000553 73.933998108 119.92600250 0.4787999988 55.740699768 1.1779999733 0.7212092876 0.9911999702
 2515.6669922 9.0600004196 -0.002000000 0.2720000148 2.2909998894 77.137001038 120.13700104 0.4824999869 54.717201233 1.1560000181 0.7717380524 0.9786000252
 2515.8195801 9.1190004349 -0.001000000 0.2818999887 2.2969999313 81.737998962 120.21800232 0.4884999990 53.741500854 1.1399999857 0.8062448502 0.9710000157
 2515.9719238 9.1979999542 -0.002000000 0.2865000069 2.2999999523 86.511001587 120.38301086 0.4945000112 53.158500671 1.1499999762 0.9416826963 0.9664999843
 2516.1242676 9.2679996490 0.0010000000 0.2930000126 2.3090000153 89.083000183 120.59400177 0.5005000234 53.085498810 1.1430000067 0.7232509255 0.9654999971
 2516.2766113 9.2709999084 0.0040000002 0.2921999991 2.3229999542 88.664001465 120.99199677 0.5065000057 53.180301666 1.1189999580 0.7093217969 0.9621999860
 2516.4289551 9.2209997177 0.0010000000 0.2908000052 2.3139998913 88.725997925 121.15499878 0.5124999881 51.868900299 1.0950000286 0.7273420691 0.9592999816
 2516.5815430 9.1660003662 -0.002000000 0.2856000066 2.2960000038 92.819000244 121.31800079 0.5177000165 50.560699463 1.0700000525 0.7797160149 0.9517999887
 2516.7338867 9.1099996567 0.0020000001 0.2874000072 2.2899999619 101.22100067 121.34600067 0.5192999840 50.174800873 1.0460000038 0.7553392649 0.9419999719
 2516.8862305 9.0509996414 -0.001000000 0.2944000065 2.2809998989 109.23200226 121.37300110 0.5195000172 50.028499603 1.0290000439 0.7244495153 0.9377999902
 2517.0385742 8.9949998856 -0.002000000 0.3091999888 2.2880001068 114.01699829 124.49600220 0.5196999907 49.483001709 1.0169999599 0.6729651093 0.9348999858
 2517.1911621 8.9670000076 0.0020000001 0.3283999860 2.2990000248 114.73500061 125.61100006 0.5184999704 49.534099579 1.0160000324 0.5715624690 0.9350000024
 2517.3435059 8.9860000610 0.0010000000 0.3262999952 2.2999999523 114.30000305 125.73799896 0.5090000033 48.958400726 1.0210000277 0.6631526947 0.9352999926
 2517.4958496 9.0439996719 -0.005000000 0.3142000139 2.3010001183 109.03199768 124.88300323 0.4907000065 48.674800873 1.0210000277 0.7060313821 0.9337999821
 2517.6481934 9.1219997406 -0.013000000 0.2971000075 2.2999999523 95.486000061 122.61699677 0.4808000028 48.693599701 1.0199999809 0.7032092810 0.9276000261
 2517.8007813 9.2119998932 -0.014000000 0.2903000116 2.2999999523 84.488998413 122.49900055 0.4808999896 48.911701202 1.0349999666 0.7124850750 0.9219999909
 2517.9531250 9.3039999008 -0.007000000 0.2861000001 2.3069999218 75.056999207 122.79699707 0.4810999930 48.731098175 1.0499999523 0.6907349229 0.9153000116
 2518.1054688 9.3780002594 0.0010000000 0.2894000113 2.3120000362 66.847999573 122.95800018 0.4812999964 47.986598969 1.0509999990 0.6813150644 0.9070000052
 2518.2578125 9.3870000839 0.0070000002 0.2897999883 2.3150000572 64.322998047 123.25000000 0.4808000028 47.585201263 1.0499999523 0.6875899434 0.8975999951
 2518.4101563 9.3850002289 0.0070000002 0.2872999907 2.3180000782 66.519996643 123.64099121 0.4776999950 47.011001587 1.0479999781 0.6972000003 0.8914999962
 2518.5627441 9.3430004120 -0.004000000 0.2908000052 2.3150000572 70.704002380 124.51399994 0.4745000005 46.323501587 1.0449999571 0.7049999833 0.8923000097
 2518.7150879 9.2670001984 -0.011000000 0.2910000086 2.3069999218 76.033996582 124.48400116 0.4713999927 45.631900787 1.0360000134 0.7235000134 0.8975999951
 2518.8674316 9.1719999313 -0.011000000 0.2890000045 2.3080000877 80.509002686 124.27500153 0.4683000147 45.653198242 1.0149999857 0.7103000283 0.9057999849
 2519.0197754 9.0679998398 -0.001000000 0.2869000137 2.3150000572 81.123001099 123.84899902 0.4652999938 46.285099030 0.9950000048 0.6625000238 0.9114000201
 2519.1723633 8.9720001221 0.0060000001 0.2967000008 2.3150000572 76.507003784 123.07900238 0.4636000097 46.685199738 0.9959999919 0.6392999887 0.9111999869
 2519.3247070 8.9790000916 0.0030000000 0.3005999923 2.3159999847 71.575996399 123.08399963 0.4675000012 46.703701019 1.0099999905 0.6809999943 0.9100999832
 2519.4770508 9.0710000992 0.0049999999 0.3012000024 2.3259999752 69.151000977 123.78800201 0.4713999927 46.768699646 1.0290000439 0.6764000058 0.9097999930
 2519.6293945 9.1879997253 0.0020000001 0.3046000004 2.3199999332 70.290000916 124.52999878 0.4753000140 46.940498352 1.0470000505 0.7009999752 0.9113000035
 2519.7819824 9.3009996414 -0.004000000 0.3054000139 2.3150000572 72.468002319 125.15499878 0.4792000055 47.158798218 1.0629999638 0.7010999918 0.9104999900
 2519.9343262 9.3929996490 -0.008000000 0.3032999933 2.3020000458 74.779998779 125.39399719 0.4833999872 46.903301239 1.0740000010 0.6952000260 0.9114999771
 2520.0866699 9.4399995804 -0.006000000 0.2973999977 2.3010001183 77.250999451 125.25900269 0.4887999892 46.463199615 1.0759999752 0.6948000193 0.9121999741
 2520.2390137 9.4370002747 0.0010000000 0.2982999980 2.3069999218 79.750000000 125.26699066 0.4945999980 46.106098175 1.0779999495 0.7242000103 0.9161000252
 2520.3913574 9.4060001373 0.0099999998 0.3066999912 2.3159999847 81.681999207 125.34899902 0.5002999902 45.868900299 1.0779999495 0.7411000133 0.9204000235
 2520.5439453 9.3610000610 0.0130000003 0.3046999872 2.3099999428 82.755996704 124.67400360 0.5041999817 45.717601776 1.0700000525 0.7354999781 0.9264000058
 2520.6962891 9.3059997559 0.0080000004 0.2865000069 2.3010001183 81.853996277 123.62899780 0.5042999983 44.699001312 1.0609999895 0.7396000028 0.9319999814
 2520.8486328 9.2469997406 -0.004000000 0.2818999887 2.2860000134 79.130996704 122.36699677 0.5044999719 45.036201477 1.0460000038 0.7278000116 0.9352999926
 2521.0009766 9.1960000992 -0.012000000 0.2820000052 2.2760000229 75.779998779 122.21700287 0.5040000081 45.453800201 1.0299999714 0.7426000237 0.9337999821
 2521.1535645 9.1409997940 -0.013000000 0.2800000012 2.2790000439 73.549003601 122.06600189 0.4986999929 45.880298615 1.0160000324 0.7386000156 0.9280999899
 2521.3059082 9.0950002670 -0.008000000 0.2829000056 2.2869999409 74.080001831 123.19100189 0.4930000007 45.608299255 1.0099999905 0.6920999885 0.9240000248
 2521.4582520 9.0830001831 -0.003000000 0.2946000099 2.2909998894 77.371002197 124.32800293 0.4869999886 45.248600006 1.0199999809 0.6779999733 0.9189000130
 2521.6105957 9.1750001907 -0.001000000 0.3001999855 2.2899999619 81.691001892 125.68800354 0.4788999856 44.896701813 1.0349999666 0.6625000238 0.9128999710
 2521.7631836 9.3009996414 -0.001000000 0.2996999919 2.2950000763 85.232002258 125.79399872 0.4695999920 44.569301605 1.0479999781 0.7315999866 0.9060000181
 2521.9155273 9.4169998169 -0.003000000 0.2944000065 2.3039999008 85.392997742 125.90000153 0.4602999985 44.241298676 1.0559999943 0.7476000190 0.8995000124
 2522.0678711 9.4890003204 -0.008000000 0.2867000103 2.3099999428 81.671997070 125.11100006 0.4512999952 43.880699158 1.0549999475 0.7297999859 0.8955000043
 2522.2202148 9.4860000610 -0.010000000 0.2856000066 2.3159999847 75.281997681 123.97000885 0.4449999928 44.053398132 1.0479999781 0.7218000293 0.8916000128
 2522.3728027 9.4469995499 -0.003000000 0.2840000093 2.3229999542 69.573997498 123.74099731 0.4419000149 44.331199646 1.0360000134 0.6990000010 0.8880000114
 2522.5251465 9.3850002289 0.0020000001 0.2847999930 2.3199999332 66.904998779 123.77999878 0.4388000071 44.609001160 1.0230000019 0.6959000230 0.8876000047
 2522.6774902 9.3129997253 0.0060000001 0.2969999909 2.3220000267 65.313003540 123.71800232 0.4356999993 44.887199402 1.0110000372 0.6991000175 0.8909999728
 2522.8298340 9.2670001984 0.0049999999 0.3041999936 2.3310000896 64.067001343 123.65499878 0.4325000048 45.164901733 1.0030000210 0.6737999916 0.8960999846
 2522.9821777 9.2620000839 0.0010000000 0.3048999906 2.3480000496 62.666999817 122.53500366 0.4300000072 45.575199127 1.0000000000 0.6779000163 0.8953999877
