# LAS format log file from PETREL
# Project units are specified as depth units
#==================================================================
~Version information
VERS.   2.0:
WRAP.   NO:
#==================================================================
~Well
STRT .m      2126.7421875 :
STOP .m      3314.5480957 :
STEP .m     0.00000000 :
NULL .        -999.250000 :
COMP.           : COMPANY
WELL.  7/8-1   : WELL
FLD.            : FIELD
LOC.            : LOCATION
SRVC.           : SERVICE COMPANY
DATE.  2018-09-11 21:49:23   : Log Export Date {yyyy-MM-dd HH:mm:ss}
PROV.           : PROVINCE
UWI.   7/8-1   : UNIQUE WELL ID
API.            : API NUMBER
#==================================================================
~Curve
DEPT .m                   : DEPTH
CALI .in                  : CALI
DRHO .g/cm3               : DRHO
NPHI .m3/m3               : NPHI
RHOB .g/cm3               : RHOB
GR .gAPI                  : GR
DTC .us/ft                : DTC
RDEP .ohm.m               : RDEP
SP .mV                    : SP
RSHA .ohm.m               : RSHA
RMIC .ohm.m               : RMIC
RMED .ohm.m               : RMED
~Parameter
#==================================================================
~Ascii
# ...
 3067.2026367 8.4619998932  -999.250000  -999.250000  -999.250000 16.586999893 62.248897552 5.3443999290 59.542297363 5.8988094330  -999.250000 3.4800000191
 3067.3549805 8.4619998932  -999.250000  -999.250000  -999.250000 17.156999588 61.902561188 5.6370000839 59.260551453 5.9589037895  -999.250000 3.5243999958
 3067.5073242 8.4630002975  -999.250000  -999.250000  -999.250000 17.759000778 61.685348511 5.9612998962 59.979343414 6.0179057121  -999.250000 3.5782999992
 3067.6596680 8.4630002975  -999.250000  -999.250000  -999.250000 18.951000214 61.667057037 6.3671998978 60.611072540 6.0778079033  -999.250000 3.6336998940
 3067.8122559 8.4289999008  -999.250000  -999.250000  -999.250000 19.208999634 60.933177948 6.7953000069 60.275142670 6.1289186478  -999.250000 3.6891000271
 3067.9645996 8.4589996338  -999.250000  -999.250000  -999.250000 21.299999237 61.244503021 7.2097997665 60.115257263 6.1978893280  -999.250000 3.7444999218
 3068.1169434 8.4639997482  -999.250000  -999.250000  -999.250000 24.245000839 63.168910980 7.4085001945 59.862003326 6.2569055557  -999.250000 3.7999000549
 3068.2692871 8.4650001526  -999.250000  -999.250000  -999.250000 25.520999908 64.052177429 7.4816999435 59.349742889 6.2579965591  -999.250000 3.8552000523
 3068.4218750 8.4650001526  -999.250000  -999.250000  -999.250000 24.483999252 63.294219971 7.5885000229 58.793800354 6.3169054985  -999.250000 3.9105999470
 3068.5742188 8.4659996033  -999.250000  -999.250000  -999.250000 23.291000366 62.052989960 7.8874001503 58.246101379 6.3169999123  -999.250000 3.9644000530
 3068.7265625 8.4309997559  -999.250000  -999.250000  -999.250000 22.103000641 60.791023254 8.4504995346 57.318801880 6.3179984093  -999.250000 4.0159997940
 3068.8789063 8.4469995499  -999.250000  -999.250000  -999.250000 23.183000565 61.232578278 8.7412996292 55.170799255 6.3179998398  -999.250000 4.0668001175
 3069.0314941 8.4300003052  -999.250000  -999.250000  -999.250000 24.955999374 62.825443268 8.6669998169 53.900398254 6.3179998398  -999.250000 4.1175999641
 3069.1838379 8.4639997482  -999.250000  -999.250000  -999.250000 25.222000122 63.593772888 8.4292001724 51.804199219 6.2790622711  -999.250000 4.1684999466
 3069.3361816 8.4680004120  -999.250000  -999.250000  -999.250000 23.344999313 63.245559692 8.1548995972 56.795101166 6.3179373741  -999.250000 4.1977000237
 3069.4885254 8.4689998627  -999.250000  -999.250000  -999.250000 20.962999344 62.456268311 8.2917003632 58.034698486 6.3189983368  -999.250000 4.2102999687
 3069.6408691 8.4320001602  -999.250000  -999.250000  -999.250000 19.732000351 62.361297607 8.7504997253 59.699501038 6.2591919899  -999.250000 4.2220001221
 3069.7934570 8.4300003052  -999.250000  -999.250000  -999.250000 22.033000946 63.187671661 8.8631000519 51.765201569 6.2000942230  -999.250000 4.2350001335
 3069.9458008 8.4670000076  -999.250000  -999.250000  -999.250000 24.687000275 63.850936890 8.5315999985 54.056400299 6.1999998093  -999.250000 4.2500000000
 3070.0981445 8.4700002670  -999.250000  -999.250000  -999.250000 28.465999603 64.894332886 8.0747003555 53.139198303 6.1999998093  -999.250000 4.2638998032
 3070.2504883 8.4499998093  -999.250000  -999.250000  -999.250000 30.499000549 65.749259949 7.7481999397 52.716300964 6.1212525368  -999.250000 4.2649002075
 3070.4030762 8.4700002670  -999.250000  -999.250000  -999.250000 29.940000534 66.758384705 7.5425000191 52.712799072 6.0820622444  -999.250000 4.2567000389
 3070.5554199 8.4340000153  -999.250000  -999.250000  -999.250000 29.349000931 66.762992859 7.3489999771 53.012500763 6.0819997787  -999.250000 4.2413001060
 3070.7077637 8.4320001602  -999.250000  -999.250000  -999.250000 30.545000076 66.164962769 7.1591000557 55.350299835 6.0819997787  -999.250000 4.2160000801
 3070.8601074 8.4329996109  -999.250000  -999.250000  -999.250000 28.152000427 64.391693115 7.0362000465 55.389198303 6.1418080330  -999.250000 4.1873002052
 3071.0126953 8.4329996109  -999.250000  -999.250000  -999.250000 24.131999969 63.869827271 7.0157999992 55.169101715 6.0830945969  -999.250000 4.1595001221
 3071.1650391 8.4340000153  -999.250000  -999.250000  -999.250000 20.368999481 63.392761230 7.0472998619 55.174499512 6.0830001831  -999.250000 4.1367998123
 3071.3173828 8.4340000153  -999.250000  -999.250000  -999.250000 20.395000458 63.056537628 7.0918002129 56.288799286 6.0830001831  -999.250000 4.1181998253
 3071.4697266 8.4340000153  -999.250000  -999.250000  -999.250000 21.621000290 63.181797028 7.1366000175 54.776599884 6.0830001831  -999.250000 4.1089000702
 3071.6220703 8.4549999237  -999.250000  -999.250000  -999.250000 21.614999771 62.586910248 7.3373999596 53.205001831 6.0241889954  -999.250000 4.1096000671
 3071.7746582 8.4359998703  -999.250000  -999.250000  -999.250000 20.246999741 62.014915466 7.7357997894 53.484100342 5.9640965462  -999.250000 4.1156997681
 3071.9270020 8.4359998703  -999.250000  -999.250000  -999.250000 19.687999725 62.356449127 8.1034002304 51.827598572 5.9649987221  -999.250000 4.1216998100
 3072.0793457 8.4359998703  -999.250000  -999.250000  -999.250000 21.774999619 63.420295715 8.2673997879 50.710601807 5.7273817062  -999.250000 4.1149997711
 3072.2316895 8.4759998322  -999.250000  -999.250000  -999.250000 25.579000473 65.119552612 7.8590002060 51.822101593 5.7868080139  -999.250000 4.0935997963
 3072.3842773 8.4770002365  -999.250000  -999.250000  -999.250000 29.930999756 72.706832886 6.9091000557 53.832298279 5.7870001793  -999.250000 4.0658001900
 3072.5366211 8.4779996872  -999.250000  -999.250000  -999.250000 33.071998596 77.938621521 5.7273001671 54.216701508 5.8079662323  -999.250000 4.0443000793
 3072.6889648 8.4779996872  -999.250000  -999.250000  -999.250000 35.727001190 76.860748291 4.6237001419 48.903099060 5.9048447609  -999.250000 4.0278000832
 3072.8413086 8.4779996872  -999.250000  -999.250000  -999.250000 32.671001434 73.900497437 4.0441999435 52.045898438 6.0435552597  -999.250000 3.9969000816
 3072.9938965 8.4790000916  -999.250000  -999.250000  -999.250000 27.931999207 67.681961060 3.8510999680 52.694198608 6.2426810265  -999.250000 3.9460999966
 3073.1462402 8.4790000916  -999.250000  -999.250000  -999.250000 21.540000916 60.740127563 3.8905999660 53.786399841 6.5015850067  -999.250000 3.8870999813
 3073.2985840 8.4460000992  -999.250000  -999.250000  -999.250000 18.795000076 59.677680969 3.9514000416 52.888099670 6.7006812096  -999.250000 3.8273000717
 3073.4509277 8.4399995804  -999.250000  -999.250000  -999.250000 16.458999634 60.122283936 3.9872999191 51.703899384 6.8397774696  -999.250000 3.8045001030
 3073.6035156 8.4409999847  -999.250000  -999.250000  -999.250000 17.385999680 60.340652466 4.1111001968 51.462200165 7.0376834869  -999.250000 3.8354001045
 3073.7558594 8.4809999466  -999.250000  -999.250000  -999.250000 15.380000114 59.593200684 4.4717998505 51.972900391 7.1578078270  -999.250000 3.8938000202
 3073.9082031 8.4820003510  -999.250000  -999.250000  -999.250000 15.085000038 59.437244415 5.2913999557 52.210601807 7.2768092155  -999.250000 3.9911999702
 3074.0605469 8.4820003510  -999.250000  -999.250000  -999.250000 14.805999756 59.816390991 6.8159999847 52.618999481 7.3958091736  -999.250000 4.1117000580
 3074.2128906 8.4829998016  -999.250000  -999.250000  -999.250000 17.809999466 60.434020996 8.8664999008 52.614700317 7.5146188736  -999.250000 4.2474999428
 3074.3654785 8.4829998016  -999.250000  -999.250000  -999.250000 18.295999527 60.901252747 10.514800072 52.708801270 7.5489454269  -999.250000 4.3836002350
 3074.5178223 8.4829998016  -999.250000  -999.250000  -999.250000 19.826000214 61.095687866 11.133899689 53.886901855 7.6049103737  -999.250000 4.5198998451
 3074.6701660 8.4820003510  -999.250000  -999.250000  -999.250000 18.608999252 60.323238373 11.141900063 55.163101196 7.6748881340  -999.250000 4.6448001862
 3074.8225098 8.4460000992  -999.250000  -999.250000  -999.250000 16.850999832 60.029937744 10.882100105 55.934501648 7.9909858704  -999.250000 4.7375001907
