# LAS format log file from PETREL
# Project units are specified as depth units
#==================================================================
~Version information
VERS.   2.0:
WRAP.   NO:
#==================================================================
~Well
STRT .m      2126.7421875 :
STOP .m      3314.5480957 :
STEP .m     0.00000000 :
NULL .        -999.250000 :
COMP.           : COMPANY
WELL.  7/8-1   : WELL
FLD.            : FIELD
LOC.            : LOCATION
SRVC.           : SERVICE COMPANY
DATE.  2018-09-11 21:49:23   : Log Export Date {yyyy-MM-dd HH:mm:ss}
PROV.           : PROVINCE
UWI.   7/8-1   : UNIQUE WELL ID
API.            : API NUMBER
#==================================================================
~Curve
DEPT .m                   : DEPTH
CALI .in                  : CALI
DRHO .g/cm3               : DRHO
NPHI .m3/m3               : NPHI
RHOB .g/cm3               : RHOB
GR .gAPI                  : GR
DTC .us/ft                : DTC
RDEP .ohm.m               : RDEP
SP .mV                    : SP
RSHA .ohm.m               : RSHA
RMIC .ohm.m               : RMIC
RMED .ohm.m               : RMED
~Parameter
#==================================================================
~Ascii
# ...
 3144.9267578 8.9379997253  -999.250000  -999.250000  -999.250000 64.921997070 79.348991394 2.3873000145 60.187400818 2.4730000496  -999.250000 1.9862999916
 3145.0791016 8.9219999313  -999.250000  -999.250000  -999.250000 63.743000031 79.421989441 2.3840999603 59.996299744 2.4700000286  -999.250000 1.9903000593
 3145.2314453 8.8590002060  -999.250000  -999.250000  -999.250000 63.147998810 79.192001343 2.3889999390 57.307498932 2.4719998837  -999.250000 1.9944000244
 3145.3840332 8.8680000305  -999.250000  -999.250000  -999.250000 63.877998352 78.831001282 2.3921000957 58.397499084 2.4900000095  -999.250000 1.9983999729
 3145.5363770 8.8900003433  -999.250000  -999.250000  -999.250000 65.207000732 78.550003052 2.3979001045 59.680301666 2.4820001125  -999.250000 2.0027000904
 3145.6887207 8.8710002899  -999.250000  -999.250000  -999.250000 65.213996887 78.634994507 2.4212999344 59.708499908 2.4830000401  -999.250000 2.0083999634
 3145.8410645 8.9060001373  -999.250000  -999.250000  -999.250000 67.920997620 78.740005493 2.4521000385 58.706699371 2.4849998951  -999.250000 2.0141999722
 3145.9936523 8.8999996185  -999.250000  -999.250000  -999.250000 71.098999023 79.114997864 2.4855999947 58.920501709 2.4790000916  -999.250000 2.0199000835
 3146.1459961 8.9010000229  -999.250000  -999.250000  -999.250000 72.379997253 79.364997864 2.5107998848 56.693500519 2.4300000668  -999.250000 2.0248000622
 3146.2983398 8.8909997940  -999.250000  -999.250000  -999.250000 73.069000244 79.892997742 2.5143001080 59.666900635 2.4340000153  -999.250000 2.0297000408
 3146.4506836 8.8529996872  -999.250000  -999.250000  -999.250000 75.938003540 80.903999329 2.4935998917 59.364101410 2.4249999523  -999.250000 2.0346000195
 3146.6030273 8.8269996643  -999.250000  -999.250000  -999.250000 79.893997192 81.672996521 2.4446001053 58.588298798 2.4590001106  -999.250000 2.0325999260
 3146.7556152 8.8219995499  -999.250000  -999.250000  -999.250000 80.600997925 81.977996826 2.3722999096 57.780300140 2.4240000248  -999.250000 2.0162000656
 3146.9079590 8.8219995499  -999.250000  -999.250000  -999.250000 79.850997925 82.634002686 2.2899000645 58.513099670 2.3570001125  -999.250000 1.9996000528
 3147.0603027 8.8229999542  -999.250000  -999.250000  -999.250000 80.406997681 83.181999207 2.1984999180 55.480701447 2.4240000248  -999.250000 1.9765000343
 3147.2126465 8.8319997787  -999.250000  -999.250000  -999.250000 81.175003052 83.579002380 2.1057999134 56.970699310 2.4260001183  -999.250000 1.9520000219
 3147.3652344 8.8520002365  -999.250000  -999.250000  -999.250000 80.359001160 83.726997375 2.0385000706 60.455501556 2.4779999256  -999.250000 1.9357000589
 3147.5175781 8.8450002670  -999.250000  -999.250000  -999.250000 79.244003296 83.244003296 2.0092000961 60.675800323 2.4820001125  -999.250000 1.9350999594
 3147.6699219 8.8500003815  -999.250000  -999.250000  -999.250000 79.505996704 82.375000000 2.0028998852 61.330200195 2.4240000248  -999.250000 1.9344999790
 3147.8222656 8.8970003128  -999.250000  -999.250000  -999.250000 79.748001099 81.599998474 1.9967000484 61.618598938 2.4470000267  -999.250000 1.9292999506
 3147.9748535 8.8769998550  -999.250000  -999.250000  -999.250000 80.059997559 81.322998047 2.0183999538 60.263999939 2.4430000782  -999.250000 1.9155000448
 3148.1271973 8.8780002594  -999.250000  -999.250000  -999.250000 79.433998108 81.762001038 2.0685999393 58.406799316 2.4240000248  -999.250000 1.9016000032
 3148.2795410 8.8850002289  -999.250000  -999.250000  -999.250000 77.024002075 82.097999573 2.1017000675 57.924999237 2.4349999428  -999.250000 1.8978999853
 3148.4318848 8.8680000305  -999.250000  -999.250000  -999.250000 78.273002625 81.614997864 2.1170001030 57.959701538 2.4960000515  -999.250000 1.9122999907
 3148.5842285 8.9200000763  -999.250000  -999.250000  -999.250000 81.768997192 80.721000671 2.1616001129 57.032501221 2.4960000515  -999.250000 1.9294999838
 3148.7368164 8.9309997559  -999.250000  -999.250000  -999.250000 81.262001038 79.769996643 2.2483000755 56.655101776 2.5030000210  -999.250000 1.9465999603
 3148.8891602 8.9060001373  -999.250000  -999.250000  -999.250000 76.282997131 79.391998291 2.3122000694 57.643001556 2.5109999180  -999.250000 1.9637999535
 3149.0415039 8.9049997330  -999.250000  -999.250000  -999.250000 73.634002686 79.750000000 2.3262000084 59.342601776 2.5109999180  -999.250000 1.9809999466
 3149.1938477 8.9040002823  -999.250000  -999.250000  -999.250000 75.091003418 80.108001709 2.3257000446 58.262298584 2.5109999180  -999.250000 1.9860999584
 3149.3464355 8.9040002823  -999.250000  -999.250000  -999.250000 75.144996643 80.133003235 2.3250999451 57.491100311 2.4419999123  -999.250000 1.9810999632
 3149.4987793 8.9020004272  -999.250000  -999.250000  -999.250000 72.990997314 80.033996582 2.3234000206 55.877998352 2.4430000782  -999.250000 1.9760999680
 3149.6511230 8.9079999924  -999.250000  -999.250000  -999.250000 71.237998962 80.346000671 2.3164999485 55.094501495 2.4430000782  -999.250000 1.9710999727
 3149.8034668 8.8950004578  -999.250000  -999.250000  -999.250000 71.671997070 80.732002258 2.3055999279 56.708698273 2.4430000782  -999.250000 1.9664000273
 3149.9560547 8.8739995956  -999.250000  -999.250000  -999.250000 74.921997070 80.926002502 2.2946000099 53.953098297 2.4430000782  -999.250000 1.9658999443
 3150.1083984 8.9029998779  -999.250000  -999.250000  -999.250000 79.748001099 81.231010437 2.2829999924 57.644599915 2.4370000362  -999.250000 1.9652999640
 3150.2607422 8.9659996033  -999.250000  -999.250000  -999.250000 83.560997009 81.300994873 2.2697000504 59.407699585 2.4379999638  -999.250000 1.9648000002
 3150.4130859 8.9530000687  -999.250000  -999.250000  -999.250000 84.319999695 81.320999146 2.2553000450 56.122299194 2.4349999428  -999.250000 1.9642000198
 3150.5654297 8.9020004272  -999.250000  -999.250000  -999.250000 81.697998047 81.629997253 2.2409999371 54.693401337 2.4370000362  -999.250000 1.9636000395
 3150.7180176 8.8999996185  -999.250000  -999.250000  -999.250000 79.067001343 81.912994385 2.2269001007 57.023998260 2.4360001087  -999.250000 1.9644000530
 3150.8703613 8.9099998474  -999.250000  -999.250000  -999.250000 77.915000916 81.997001648 2.2172999382 58.389900208 2.4379999638  -999.250000 1.9693000317
 3151.0227051 8.9099998474  -999.250000  -999.250000  -999.250000 78.031997681 81.879997253 2.2114999294 59.622898102 2.4440000057  -999.250000 1.9742000103
 3151.1750488 8.9300003052  -999.250000  -999.250000  -999.250000 77.999000549 81.951004028 2.2058000565 59.623600006 2.4019999504  -999.250000 1.9790999889
 3151.3276367 8.9510002136  -999.250000  -999.250000  -999.250000 77.305999756 82.273002625 2.1974999905 59.223400116 2.2990000248  -999.250000 1.9772000313
 3151.4799805 8.9510002136  -999.250000  -999.250000  -999.250000 77.737998962 83.053001404 2.1800000668 59.228000641 2.3059999943  -999.250000 1.9707000256
 3151.6323242 8.9519996643  -999.250000  -999.250000  -999.250000 79.524002075 83.652000427 2.1554999352 59.819000244 2.3010001183  -999.250000 1.9641000032
 3151.7846680 8.9519996643  -999.250000  -999.250000  -999.250000 80.926002502 83.766998291 2.1342000961 59.768001556 2.2960000038  -999.250000 1.9530999660
 3151.9372559 8.9519996643  -999.250000  -999.250000  -999.250000 82.793998718 83.583999634 2.1171000004 59.495498657 2.2939999104  -999.250000 1.9298000336
 3152.0895996 8.9519996643  -999.250000  -999.250000  -999.250000 81.434997559 82.782997131 2.1008999348 59.008399963 2.2569999695  -999.250000 1.9063999653
 3152.2419434 8.9530000687  -999.250000  -999.250000  -999.250000 76.764999390 81.979995728 2.0848000050 57.860698700 2.2330000401  -999.250000 1.8830000162
 3152.3942871 8.9530000687  -999.250000  -999.250000  -999.250000 72.031997681 81.646003723 2.0794999599 58.373699188 2.2070000172  -999.250000 1.8755999804
 3152.5466309 8.9370002747  -999.250000  -999.250000  -999.250000 69.975997925 81.456001282 2.0855998993 59.246498108 2.3629999161  -999.250000 1.8726999760
