# LAS format log file from PETREL
# Project units are specified as depth units
#==================================================================
~Version information
VERS.   2.0:
WRAP.   NO:
#==================================================================
~Well
STRT .m      2127.0468750 :
STOP .m      3314.3952637 :
STEP .m     0.00000000 :
NULL .        -999.250000 :
COMP.           : COMPANY
WELL.  7/8-1 T2   : WELL
FLD.            : FIELD
LOC.            : LOCATION
SRVC.           : SERVICE COMPANY
DATE.  2018-09-11 21:49:23   : Log Export Date {yyyy-MM-dd HH:mm:ss}
PROV.           : PROVINCE
UWI.   7/8-1 T2   : UNIQUE WELL ID
API.            : API NUMBER
#==================================================================
~Curve
DEPT .m                   : DEPTH
CALI .in                  : CALI
BS .in                    : BS
DRHO .g/cm3               : DRHO
NPHI .m3/m3               : NPHI
RHOB .g/cm3               : RHOB
GR .gAPI                  : GR
DTC .us/ft                : DTC
RDEP .ohm.m               : RDEP
SP .mV                    : SP
RSHA .ohm.m               : RSHA
RMIC .ohm.m               : RMIC
RMED .ohm.m               : RMED
~Parameter
#==================================================================
~Ascii
# ...
 2829.3059082 8.9724998474 8.5000000000 -0.000038400 0.1425299942 2.4367001057 7.5512399673 74.913269043 1.8575999737 74.950996399 2.8598999977 2.8696000576 1.9438999891
 2829.4584961 8.9892997742 8.5000000000 -0.015410258 0.1579380035 2.4119999409 7.5339632034 77.651969910 1.4858000278 75.416099548 2.5838000774 1.6313999891 1.7932000160
 2829.6108398 8.9969997406 8.5000000000 -0.007331731 0.1627379954 2.4040999413 7.9577817917 79.131439209 1.2733000517 75.984100342 2.3742001057 1.2549999952 1.6751999855
 2829.7631836 9.0013999939 8.5000000000 -0.004110577 0.1635559946 2.4026000500 8.2301950455 80.103034973 1.1205999851 76.590698242 2.1896998882 1.2021000385 1.5693999529
 2829.9155273 9.0058002472 8.5000000000 -0.004963141 0.1643729955 2.4010000229 8.2207374573 80.367912292 0.9679999948 77.197303772 2.0051999092 1.1491999626 1.4636000395
 2830.0681152 9.0101995468 8.5000000000 -0.005000000 0.1662389934 2.4010999203 8.1660604477 80.711608887 0.8837000132 77.734100342 1.8806999922 1.1188000441 1.3878999949
 2830.2204590 9.0146999359 8.5000000000 -0.005000000 0.1694059968 2.4031000137 8.1110277176 80.619224548 0.8845000267 78.183998108 1.8308999538 1.1160000563 1.3495385647
 2830.3728027 9.0191001892 8.5000000000 -0.005963141 0.1725730002 2.4052000046 8.2120561600 80.155776978 0.8852000237 78.634002686 1.7811000347 1.1132999659 1.3112396002
 2830.5251465 9.0215997696 8.5000000000 -0.006000000 0.1757919937 2.4051001072 8.7977371216 80.367912292 0.8831999898 79.061203003 1.7342000008 1.1180000305 1.2735446692
 2830.6774902 9.0142002106 8.5000000000 -0.003115200 0.1792780012 2.3935000896 9.7479438782 80.253036499 0.8672000170 79.373802185 1.7019000053 1.1601999998 1.2390446663
 2830.8300781 9.0067996979 8.5000000000 0.0018157052 0.1827639937 2.3819999695 9.3862600327 80.601661682 0.8511999846 79.686500549 1.6697000265 1.2022999525 1.2044892311
 2830.9824219 8.9994001389 8.5000000000 0.0097051281 0.1862500012 2.3703999519 9.4162673950 81.304328918 0.8352000117 79.999099731 1.6374000311 1.2444000244 1.1699180603
 2831.1347656 9.0106000900 8.5000000000 0.0071105771 0.1899760067 2.3545999527 9.2966442108 82.709053040 0.7907999754 79.746902466 1.5334000587 1.1265000105 1.1188144684
 2831.2871094 9.0242996216 8.5000000000 -0.004539200 0.1937319934 2.3382999897 8.5554141998 84.237281799 0.7426000237 79.420898438 1.4199999571 0.9876000285 1.0655145645
 2831.4396973 9.0378999710 8.5000000000 -0.011741987 0.1974889934 2.3218998909 7.9933829308 85.804664612 0.6945000291 79.094902039 1.3064999580 0.8486999869 1.0121586323
 2831.5920410 9.0525999069 8.5000000000 -0.008147436 0.2041790038 2.3206000328 7.5212869644 87.010948181 0.6441000104 79.123298645 1.2135000229 0.7587000132 0.9680389762
 2831.7443848 9.0678997040 8.5000000000 -0.005110577 0.2127950042 2.3290998936 7.6388397217 87.744026184 0.5921999812 79.384399414 1.1339000463 0.7009000182 0.9299389720
 2831.8967285 9.0832996368 8.5000000000 -0.013668270 0.2214100063 2.3375000954 8.2189950943 88.000114441 0.5403000116 79.645500183 1.0542999506 0.6430000067 0.8918474317
 2832.0493164 9.0963001251 8.5000000000 -0.031337600 0.2285989970 2.3385000229 7.7796273232 88.790733337 0.4959000051 79.927001953 0.9866999984 0.5970000029 0.8590317965
 2832.2016602 9.1043996811 8.5000000000 -0.029110577 0.2327940017 2.3238999844 7.5058045387 89.646873474 0.4670999944 80.251197815 0.9444000125 0.5759999752 0.8377658725
 2832.3540039 9.1125001907 8.5000000000 -0.002995192 0.2369900048 2.3092000484 8.0324697495 90.597335815 0.4381999969 80.575500488 0.9021000266 0.5550000072 0.8164663315
 2832.5063477 9.1197004318 8.5000000000 0.0008894231 0.2409469932 2.2946000099 8.7503147125 91.091918945 0.4104000032 80.890197754 0.8608999848 0.5349000096 0.7954813838
 2832.6586914 9.1057996750 8.5000000000 0.0096543999 0.2394499928 2.2836000919 8.9568185806 91.427314758 0.4052000046 80.987503052 0.8447999954 0.5350000262 0.7838814259
 2832.8112793 9.0917997360 8.5000000000 0.0109631410 0.2379540056 2.2725999355 8.8445711136 91.581108093 0.4000000060 81.084800720 0.8288000226 0.5350999832 0.7722625732
 2832.9636230 9.0777997971 8.5000000000 0.0004054487 0.2364570051 2.2616000175 9.2820816040 91.586509705 0.3948000073 81.182098389 0.8127999902 0.5351999998 0.7605966330
 2833.1159668 9.0913000107 8.5000000000 -0.005778846 0.2340179980 2.2664999962 8.9349317551 91.356788635 0.3959000111 81.516197205 0.8047999740 0.5307000279 0.7585014105
 2833.2683105 9.1134996414 8.5000000000 0.0065008001 0.2312829942 2.2762999535 7.6180319786 90.520545959 0.3989999890 81.924697876 0.7993999720 0.5248000026 0.7594014406
 2833.4208984 9.1356000900 8.5000000000 0.0002580128 0.2285480052 2.2860999107 7.2414216995 90.167739868 0.4020000100 82.333099365 0.7939000130 0.5188999772 0.7603163123
 2833.5732422 9.1521997452 8.5000000000 -0.000963141 0.2259539962 2.2946999073 7.9773602486 89.696075439 0.4099000096 82.717102051 0.7954000235 0.5227000117 0.7654155493
 2833.7255859 9.1627998352 8.5000000000 0.0047788462 0.2235130072 2.3018999100 8.6137418747 89.219078064 0.4228999913 83.074501038 0.8044000268 0.5368999839 0.7751155496
 2833.8779297 9.1732997894 8.5000000000 0.0136544006 0.2210720032 2.3092000484 8.6158447266 88.742820740 0.4359999895 83.431999207 0.8133999705 0.5511999726 0.7848190665
 2834.0305176 9.1736001968 8.5000000000 0.0034054487 0.2166800052 2.3171000481 8.2962007523 88.358406067 0.4499999881 83.667602539 0.8266000152 0.5656999946 0.7967675328
 2834.1828613 9.1325998306 8.5000000000 0.0039631412 0.2044630051 2.3276000023 8.4198026657 87.561843872 0.4681000113 83.414199829 0.8568999767 0.5812000036 0.8178337812
 2834.3352051 9.0916004181 8.5000000000 0.0030368590 0.1922460049 2.3380999565 8.3893632889 86.613067627 0.4862000048 83.160697937 0.8870999813 0.5967000127 0.8389337063
 2834.4875488 9.0507001877 8.5000000000 -0.006631411 0.1800290048 2.3485999107 8.3928155899 85.429351807 0.5042999983 82.907203674 0.9172999859 0.6122000217 0.8599656820
 2834.6398926 9.0212001801 8.5000000000 -0.009884800 0.1775410026 2.3677999973 8.5612802505 83.193145752 0.5588999987 82.470596313 0.9860000014 0.7542999983 0.9009683132
 2834.7924805 8.9926996231 8.5000000000 -0.002294872 0.1759140044 2.3877999783 8.8482742310 81.396125793 0.6168000102 82.017700195 1.0580999851 0.9077000022 0.9436684251
 2834.9448242 8.9642000198 8.5000000000 0.0076314108 0.1742870063 2.4077999592 9.1306056976 80.182151794 0.6746000051 81.564903259 1.1302000284 1.0611000061 0.9863769412
 2835.0971680 8.9583997726 8.5000000000 0.0099262819 0.1706120074 2.4140000343 9.5541868210 79.219352722 0.7473999858 81.260101318 1.2151000500 1.1196999550 1.0343815088
 2835.2495117 8.9652996063 8.5000000000 0.0090383999 0.1657750010 2.4124000072 9.1267023087 79.062362671 0.8284999728 81.039398193 1.3071999550 1.1246000528 1.0852817297
 2835.4020996 8.9722995758 8.5000000000 0.0061105769 0.1609369963 2.4107999802 9.1638994217 78.949821472 0.9096999764 80.818603516 1.3992999792 1.1294000149 1.1363337040
 2835.5544434 8.9834003448 8.5000000000 0.0002211539 0.1562419981 2.4114999771 9.0850963593 78.945701599 0.9763000011 80.824302673 1.4769999981 1.1353000402 1.1780408621
 2835.7067871 9.0022001266 8.5000000000 -0.008668269 0.1518040001 2.4163999557 9.1436405182 78.715988159 1.0166000128 81.237800598 1.5285999775 1.1430000067 1.2035409212
 2835.8591309 9.0208997726 8.5000000000 -0.009000000 0.1473660022 2.4212000370 9.6364164352 78.248519897 1.0570000410 81.651298523 1.5801999569 1.1506999731 1.2290395498
 2836.0117188 9.0375003815 8.5000000000 -0.003221154 0.1432390064 2.4256999493 9.8948593140 77.192222595 1.0947999954 82.038299561 1.6296999454 1.1599999666 1.2537473440
 2836.1640625 9.0282001495 8.5000000000 -0.000110577 0.1428930014 2.4252998829 9.7633819580 77.041831970 1.1022000313 82.102600098 1.6520999670 1.1892000437 1.2685236931
 2836.3164063 9.0187997818 8.5000000000 -0.002889423 0.1425469965 2.4249999523 9.3332548141 76.807891846 1.1096999645 82.166900635 1.6746000051 1.2182999849 1.2833237648
 2836.4687500 9.0094995499 8.5000000000 -0.008778846 0.1422020048 2.4247000217 8.6803636551 76.799102783 1.1171000004 82.231300354 1.6970000267 1.2474999428 1.2980891466
