# LAS format log file from PETREL
# Project units are specified as depth units
#==================================================================
~Version information
VERS.   2.0:
WRAP.   NO:
#==================================================================
~Well
STRT .m      2674.6198730 :
STOP .m      4399.4833984 :
STEP .m     0.00000000 :
NULL .        -999.250000 :
COMP.           : COMPANY
WELL.  7/8-4 T2   : WELL
FLD.            : FIELD
LOC.            : LOCATION
SRVC.           : SERVICE COMPANY
DATE.  2018-09-11 21:49:25   : Log Export Date {yyyy-MM-dd HH:mm:ss}
PROV.           : PROVINCE
UWI.   7/8-4 T2   : UNIQUE WELL ID
API.            : API NUMBER
#==================================================================
~Curve
DEPT .m                   : DEPTH
DCAL .in                  : DCAL
CALI .in                  : CALI
BS .in                    : BS
ROP .m/h                  : ROP
DRHO .g/cm3               : DRHO
NPHI .m3/m3               : NPHI
RHOB .g/cm3               : RHOB
PEF .b/e                  : PEF
GR .gAPI                  : GR
DTC .us/ft                : DTC
RDEP .ohm.m               : RDEP
SP .mV                    : SP
RSHA .ohm.m               : RSHA
RMED .ohm.m               : RMED
~Parameter
#==================================================================
~Ascii
# ...
 4392.9301758 -0.194299996 8.3057003021 8.5000000000  -999.250000 -0.016554929 0.1374165565 2.6085822582 5.9627809525 70.185806274 58.853099823 2.6677811146 56.948600769  -999.250000 2.8355000019
 4393.0825195 -0.209399998 8.2905998230 8.5000000000  -999.250000 -0.016219847 0.1335412711 2.6030783653 5.6766290665 70.345184326  -999.250000 2.6618692875 56.715599060  -999.250000 2.8073999882
 4393.2348633 -0.235400006 8.2645998001 8.5000000000  -999.250000 -0.015548000 0.1317580044 2.5962998867 5.5609002113 71.276000977  -999.250000 2.6522998810 56.578800201  -999.250000 2.7827000618
 4393.3872070 -0.261299998 8.2386999130 8.5000000000  -999.250000 -0.014875000 0.1299699992 2.5894999504 5.4449000359 72.209701538  -999.250000 2.6426999569 56.442001343  -999.250000 2.7579998970
 4393.5395508 -0.273900002 8.2260999680 8.5000000000  -999.250000 -0.014630000 0.1309559941 2.5908999443 5.3730998039 72.762100220  -999.250000 2.6252999306 56.250400543  -999.250000 2.7932000160
 4393.6923828 -0.248699993 8.2512998581 8.5000000000  -999.250000 -0.015609128 0.1398775131 2.6158797741 5.4271731377 72.226394653  -999.250000 2.5853724480 55.902900696  -999.250000 2.9988000393
 4393.8447266 -0.223499998 8.2764997482 8.5000000000  -999.250000 -0.016585130 0.1487705112 2.6407799721 5.4811725616 71.692291260  -999.250000 2.5455725193 55.555301666  -999.250000 3.2044999599
 4393.9970703 -0.198400021 8.3016004562 8.5000000000  -999.250000 -0.017560624 0.1575921476 2.6655979156 5.5353031158 71.148857117  -999.250000 2.5056660175 55.207801819  -999.250000 3.4102001190
 4394.1494141 -0.194900006 8.3051004410 8.5000000000  -999.250000 -0.018067593 0.1442176104 2.6648960114 5.6610078812 67.671051025  -999.250000 2.4326636791 54.827598572  -999.250000 3.2946000099
 4394.3017578 -0.192000002 8.3079996109 8.5000000000  -999.250000 -0.018564587 0.1303667426 2.6635961533 5.7882065773 64.130287170  -999.250000 2.3589644432 54.446701050  -999.250000 3.1721000671
 4394.4541016 -0.188999996 8.3109998703 8.5000000000  -999.250000 -0.019060001 0.1165599972 2.6624000072 5.9151000977 60.600898743  -999.250000 2.2855000496 54.065898895  -999.250000 3.0495998859
 4394.6064453 -0.188000008 8.3120002747 8.5000000000  -999.250000 -0.018121000 0.1116150022 2.6628000736 5.7748999596 62.409801483  -999.250000 2.2514998913 54.409900665  -999.250000 3.0193998814
 4394.7587891 -0.187800005 8.3121995926 8.5000000000  -999.250000 -0.016562000 0.1105220020 2.6638998985 5.5191998482 66.531501770  -999.250000 2.2344999313 55.067298889  -999.250000 3.0292000771
 4394.9111328 -0.187600017 8.3123998642 8.5000000000  -999.250000 -0.015002000 0.1094280034 2.6649999619 5.2634000778 70.653198242  -999.250000 2.2176001072 55.724601746  -999.250000 3.0390000343
 4395.0639648 -0.187500000 8.3125000000 8.5000000000  -999.250000 -0.014105089 0.1149166822 2.6664061546 5.1584367752 72.859611511  -999.250000 2.1731357574 56.117801666  -999.250000 2.9079999924
 4395.2163086 -0.187500000 8.3125000000 8.5000000000  -999.250000 -0.014133089 0.1294826865 2.6683056355 5.2634363174 72.395408630  -999.250000 2.0907363892 56.142200470  -999.250000 2.5806000233
 4395.3686523 -0.187500000 8.3125000000 8.5000000000  -999.250000 -0.014160596 0.1440424025 2.6701045036 5.3683671951 71.934883118  -999.250000 2.0084595680 56.166500092  -999.250000 2.2532000542
 4395.5209961 -0.187500000 8.3125000000 8.5000000000  -999.250000 -0.014031464 0.1566076279 2.6715984344 5.4831638336 72.639205933  -999.250000 1.9336076975 56.197200775  -999.250000 1.9753999710
 4395.6733398 -0.187199995 8.3128004074 8.5000000000  -999.250000 -0.012928476 0.1568016261 2.6710979939 5.6590623856 80.565719604  -999.250000 1.9048079252 56.268398285  -999.250000 2.0113000870
 4395.8256836 -0.187000006 8.3129997253 8.5000000000  -999.250000 -0.011829000 0.1569959968 2.6705000401 5.8344001770 88.467002869  -999.250000 1.8760999441 56.339698792  -999.250000 2.0471999645
 4395.9780273 -0.186700001 8.3133001328 8.5000000000  -999.250000 -0.010726000 0.1571899951 2.6700000763 6.0103001595 96.393600464  -999.250000 1.8473000526 56.410900116  -999.250000 2.0831000805
 4396.1303711 -0.184100002 8.3158998489 8.5000000000  -999.250000 -0.011586000 0.1677560061 2.6514999866 5.8362998962 97.728599548  -999.250000 1.9062999487 57.401500702  -999.250000 2.2620000839
 4396.2832031 -0.181099996 8.3189001083 8.5000000000  -999.250000 -0.012780817 0.1801104695 2.6298308372 5.6023526192 97.952117920  -999.250000 1.9802362919 58.547199249  -999.250000 2.4651000500
 4396.4355469 -0.178100005 8.3219003677 8.5000000000  -999.250000 -0.013969000 0.1924000382 2.6082653999 5.3698940277 98.174980164  -999.250000 2.0541048050 59.693000793  -999.250000 2.6681001186
 4396.5878906 -0.178499997 8.3214998245 8.5000000000  -999.250000 -0.014278919 0.1964504868 2.5974907875 5.3372683525 98.387153625  -999.250000 2.1805295944 60.414901733  -999.250000 2.7836000919
 4396.7402344 -0.181600004 8.3184003830 8.5000000000  -999.250000 -0.013941917 0.1944205016 2.5945906639 5.4520683289 98.591453552  -999.250000 2.3457291126 60.823299408  -999.250000 2.8343000412
 4396.8925781 -0.184599996 8.3154001236 8.5000000000  -999.250000 -0.013604837 0.1923912764 2.5916998386 5.5670900345 98.795143127  -999.250000 2.5106163025 61.231700897  -999.250000 2.8849000931
 4397.0449219 -0.186800003 8.3131999969 8.5000000000  -999.250000 -0.013556042 0.1902947873 2.5916218758 5.7517194748 98.807083130  -999.250000 2.6088051796 61.304698944  -999.250000 2.9142999649
 4397.1972656 -0.187000006 8.3129997253 8.5000000000  -999.250000 -0.014193000 0.1880459934 2.5985000134 6.1009998322 98.363601685  -999.250000 2.5480000973 60.572299957  -999.250000 2.8924000263
 4397.3496094 -0.187199995 8.3128004074 8.5000000000  -999.250000 -0.014831000 0.1857910007 2.6054000854 6.4514999390 97.918701172  -999.250000 2.4869999886 59.839801788  -999.250000 2.8705999851
 4397.5019531 -0.187500000 8.3125000000 8.5000000000  -999.250000 -0.015488000 0.1835960001 2.6122000217 6.7943000793 97.457901001  -999.250000 2.4279999733 59.109199524  -999.250000 2.8499999046
 4397.6547852 -0.187700003 8.3122997284 8.5000000000  -999.250000 -0.017523501 0.1859816164 2.6053786278 6.5657701492 95.792884827  -999.250000 2.5193920135 58.522499084  -999.250000 2.9293999672
 4397.8071289 -0.187900007 8.3121004105 8.5000000000  -999.250000 -0.019551503 0.1883596182 2.5986785889 6.3379697800 94.133178711  -999.250000 2.6104919910 57.935798645  -999.250000 3.0088000298
 4397.9594727 -0.188099995 8.3119001389 8.5000000000  -999.250000 -0.021577772 0.1907382756 2.5919835567 6.1173138618 92.482940674  -999.250000 2.7009437084 57.348999023  -999.250000 3.0880999565
 4398.1118164 -0.234200001 8.2658004761 8.5000000000  -999.250000 -0.022753775 0.1933164895 2.5868856907 8.1210260391 93.746765137  -999.250000 2.5896072388 56.251998901  -999.250000 3.1531000137
 4398.2641602 -0.296999991 8.2030000687 8.5000000000  -999.250000 -0.023619765 0.1959684789 2.5823853016 10.937096596 96.074836731  -999.250000 2.4047091007 54.968299866  -999.250000 3.2128999233
 4398.4165039 -0.359800011 8.1401996613 8.5000000000  -999.250000 -0.024483001 0.1986120045 2.5778000355 13.744199753 98.395401001  -999.250000 2.2204000950 53.684600830  -999.250000 3.2727000713
 4398.5688477 -0.420800000 8.0791997910 8.5000000000  -999.250000 -0.026350999 0.1998589933 2.5601999760 16.737199783 100.01270294  -999.250000 2.0274999142 52.475200653  -999.250000 3.0977001190
 4398.7211914 -0.479400009 8.0206003189 8.5000000000  -999.250000 -0.029436000 0.1993989944 2.5267000198 19.945299149 100.76650238  -999.250000 1.8248000145 51.356201172  -999.250000 2.6373999119
 4398.8735352 -0.538100004 7.9619002342 8.5000000000  -999.250000 -0.032520998 0.1989389956 2.4932000637 23.153299332 101.52020264  -999.250000 1.6220999956 50.237098694  -999.250000 2.1770999432
 4399.0263672 -0.588599980 7.9113993645 8.5000000000  -999.250000 -0.035892989 0.1988310665 2.4642791748 26.058101654 101.76020050  -999.250000 1.4437105656 49.289398193  -999.250000 1.7889000177
