# LAS format log file from PETREL
# Project units are specified as depth units
#==================================================================
~Version information
VERS.   2.0:
WRAP.   NO:
#==================================================================
~Well
STRT .m      2127.0468750 :
STOP .m      3314.3952637 :
STEP .m     0.00000000 :
NULL .        -999.250000 :
COMP.           : COMPANY
WELL.  7/8-1 T2   : WELL
FLD.            : FIELD
LOC.            : LOCATION
SRVC.           : SERVICE COMPANY
DATE.  2018-09-11 21:49:23   : Log Export Date {yyyy-MM-dd HH:mm:ss}
PROV.           : PROVINCE
UWI.   7/8-1 T2   : UNIQUE WELL ID
API.            : API NUMBER
#==================================================================
~Curve
DEPT .m                   : DEPTH
CALI .in                  : CALI
BS .in                    : BS
DRHO .g/cm3               : DRHO
NPHI .m3/m3               : NPHI
RHOB .g/cm3               : RHOB
GR .gAPI                  : GR
DTC .us/ft                : DTC
RDEP .ohm.m               : RDEP
SP .mV                    : SP
RSHA .ohm.m               : RSHA
RMIC .ohm.m               : RMIC
RMED .ohm.m               : RMED
~Parameter
#==================================================================
~Ascii
 2127.0468750 11.928600311 8.5000000000 -0.000863782 0.3784427047 2.2408380508 57.269607544 137.92214966 0.5715846419 50.677616119 1.0601280928 0.3968000114 0.8122118711
 2127.1992188 12.079501152 8.5000000000 -0.003918270 0.3664030135 2.2646999359 54.762828827 132.28865051 0.5619999766 50.564300537 1.0777000189 0.4925999939 0.8195999861
 2127.3518066 12.230400085 8.5000000000 -0.002054400 0.3543248177 2.2885365486 54.345790863 126.56420135 0.5524846315 50.450622559 1.0953273773 0.5884000063 0.8269118667
 2127.5041504 12.376999855 8.5000000000 0.0067548081 0.3430254757 2.3111684322 55.212451935 125.01648712 0.5428802967 50.338176727 1.1123995781 0.6800000072 0.8343110681
 2127.6564941 12.361701012 8.5000000000 0.0128365392 0.3582853973 2.2915685177 58.426666260 127.56259918 0.5305803418 50.262977600 1.1120995283 0.6169999838 0.8412111998
 2127.8088379 12.346400261 8.5000000000 0.0110544870 0.3735220134 2.2720000744 61.890491486 131.31405640 0.5182999969 50.187900543 1.1117999554 0.5539000034 0.8482000232
 2127.9611816 12.331100464 8.5000000000 0.0216831993 0.3887830079 2.2525000572 66.480682373 136.28153992 0.5060999990 50.112800598 1.1115000248 0.4909000099 0.8550999761
 2128.1137695 12.314100266 8.5000000000 0.0317275673 0.3882254660 2.2415876389 68.963203430 138.97782898 0.4960851073 49.940971375 1.1023807526 0.4722000062 0.8534927964
 2128.2661133 12.296399117 8.5000000000 0.0193541665 0.3822774887 2.2337872982 67.848075867 139.29618835 0.4867852628 49.736770630 1.0903807878 0.4686000049 0.8489926457
 2128.4184570 12.278800011 8.5000000000 0.0131634613 0.3763389885 2.2258999348 65.393806458 139.05621338 0.4776000082 49.532798767 1.0784000158 0.4650999904 0.8443999887
 2128.5708008 12.276599884 8.5000000000 0.0198092945 0.3732509911 2.2207999229 61.735553741 139.04930115 0.4779999852 49.214401245 1.0721000433 0.4609999955 0.8414999843
 2128.7233887 12.292200089 8.5000000000 0.0122175999 0.3734583259 2.2189970016 61.354835510 138.81729126 0.4895184040 48.763580322 1.0723003149 0.4564000070 0.8404982090
 2128.8757324 12.307900429 8.5000000000 0.0032451923 0.3736676574 2.2170987129 63.114498138 138.59475708 0.5010158420 48.313495636 1.0724993944 0.4517000020 0.8393985629
 2129.0280762 12.322300911 8.5000000000 0.0117548080 0.3753339350 2.2163062096 63.587146759 138.34074402 0.5109046698 47.811931610 1.0720958710 0.4481999874 0.8384998441
 2129.1804199 12.330900192 8.5000000000 0.0139455134 0.3834109902 2.2202000618 63.331493378 138.56579590 0.5138000250 47.084598541 1.0694999695 0.4498000145 0.8384000063
 2129.3330078 12.339500427 8.5000000000 0.0101087997 0.3915139735 2.2241063118 64.178123474 138.10827637 0.5168048143 46.354930878 1.0667958260 0.4512999952 0.8383998275
 2129.4853516 12.348099709 8.5000000000 0.0031907051 0.3995909691 2.2279045582 66.304122925 137.63130188 0.5198001862 45.627700806 1.0642006397 0.4528999925 0.8383015990
 2129.6376953 12.331100464 8.5000000000 0.0205096155 0.3995755613 2.2308044434 68.029327393 136.94087219 0.5198997259 45.690036774 1.0646010637 0.4429999888 0.8393017650
 2129.7900391 12.311400414 8.5000000000 0.0209999997 0.3986920118 2.2335999012 68.356155396 137.13531494 0.5196999907 45.837100983 1.0652999878 0.4318000078 0.8403999805
 2129.9423828 12.291600227 8.5000000000 0.0316832028 0.3978059888 2.2363998890 67.305397034 137.37294006 0.5195000172 45.984298706 1.0661000013 0.4207000136 0.8414999843
 2130.0949707 12.221599579 8.5000000000 0.0368637815 0.3952994347 2.2400066853 66.161163330 137.61180115 0.5189990401 45.833168030 1.0691069365 0.4169999957 0.8417994976
 2130.2473145 12.120900154 8.5000000000 0.0574278831 0.3918164372 2.2442066669 68.245742798 137.63571167 0.5183988810 45.501571655 1.0734070539 0.4178000093 0.8414995074
 2130.3996582 12.020299911 8.5000000000 0.0463269241 0.3883399963 2.2483000755 72.380851746 138.54679871 0.5177000165 45.170398712 1.0778000355 0.4187000096 0.8411999941
 2130.5520020 11.968199730 8.5000000000 0.0323814116 0.3847660124 2.2481999397 74.948287964 139.73240662 0.5182999969 44.928699493 1.0812000036 0.4196000099 0.8403999805
 2130.7045898 12.010100365 8.5000000000 0.0300543997 0.3810089827 2.2399868965 74.212493896 140.22892761 0.5213046670 44.860588074 1.0828026533 0.4205999970 0.8383967876
 2130.8569336 12.051899910 8.5000000000 0.0144358976 0.3772591352 2.2317876816 75.076179504 140.25523376 0.5242044926 44.792568207 1.0844036341 0.4214999974 0.8363971114
 2131.0092773 12.094099998 8.5000000000 0.0256730784 0.3742522299 2.2239997387 73.863655090 140.47427368 0.5270014405 44.708576202 1.0866178274 0.4228000045 0.8345994949
 2131.1616211 12.141099930 8.5000000000 0.0260000005 0.3825080097 2.2237999439 70.179222107 140.71240234 0.5278999805 44.382701874 1.0978000164 0.4286000133 0.8342999816
 2131.3142090 12.188199043 8.5000000000 0.0260000005 0.3907902539 2.2234997749 69.444679260 140.02285767 0.5288014412 44.055778503 1.1091179848 0.4343999922 0.8340997100
 2131.4665527 12.235199928 8.5000000000 0.0182179473 0.3990441561 2.2233083248 69.447425842 139.30729675 0.5297020674 43.729927063 1.1203122139 0.4402000010 0.8339028358
 2131.6188965 12.274999619 8.5000000000 0.0179999992 0.3985191882 2.2285108566 72.036506653 139.30268860 0.5310022831 43.747684479 1.1279107332 0.4433000088 0.8357037902
 2131.7712402 12.312800407 8.5000000000 0.0199455116 0.3955160081 2.2353000641 74.358985901 138.59220886 0.5324000120 43.862300873 1.1346000433 0.4456000030 0.8381000161
 2131.9235840 12.350600243 8.5000000000 0.0190287996 0.3925080001 2.2421000004 72.712692261 138.10903931 0.5338000059 43.977199554 1.1411999464 0.4480000138 0.8404999971
 2132.0761719 12.358999252 8.5000000000 0.0092724357 0.3928057849 2.2429916859 66.238883972 137.39929199 0.5333963037 43.969791412 1.1430957317 0.4440999925 0.8433049321
 2132.2285156 12.337900162 8.5000000000 0.0021907052 0.3964147866 2.2377915382 62.186454773 137.62921143 0.5310964584 43.839794159 1.1403957605 0.4338999987 0.8464049697
 2132.3808594 12.316699982 8.5000000000 0.0156185906 0.4000180066 2.2325997353 60.673339844 138.31478882 0.5289000273 43.710098267 1.1376999617 0.4237000048 0.8495000005
 2132.5332031 12.308400154 8.5000000000 0.0121089742 0.4035809934 2.2260000706 63.276004791 138.56579590 0.5256000161 43.522899628 1.1332999468 0.4167000055 0.8514999747
 2132.6857910 12.346199989 8.5000000000 0.0110272001 0.4069824517 2.2138807774 65.150650024 139.26834106 0.5188890696 43.129570007 1.1232837439 0.4205999970 0.8494969606
 2132.8381348 12.383999825 8.5000000000 0.0197548065 0.4103794396 2.2018806934 66.448074341 139.30268860 0.5120892525 42.736968994 1.1131839752 0.4244999886 0.8475967646
 2132.9904785 12.421699524 8.5000000000 0.0170817319 0.4137668610 2.1899013519 66.818603516 139.05621338 0.5054147243 42.345119476 1.1031903028 0.4284000099 0.8456040025
 2133.1428223 12.370699883 8.5000000000 0.0306185894 0.4111810029 2.1907999516 64.749221802 138.81730652 0.5145999789 42.419300079 1.0972000360 0.4368999898 0.8481000066
 2133.2954102 12.313699722 8.5000000000 0.0134896003 0.4081831872 2.1926028728 63.013893127 139.27482605 0.5248165131 42.525066376 1.0913908482 0.4456999898 0.8508044481
 2133.4477539 12.256799698 8.5000000000 0.0120272441 0.4051923752 2.1943993568 66.520484924 139.05580139 0.5351238847 42.631107330 1.0857099295 0.4544999897 0.8536072373
 2133.6000977 12.214799881 8.5000000000 0.0081089744 0.4035585225 2.1938970089 68.095672607 138.83296204 0.5500275493 42.947582245 1.0919197798 0.4612999856 0.8581088185
 2133.7524414 12.180600166 8.5000000000 -0.000754808 0.4026359916 2.1919999123 67.588363647 138.57923889 0.5672000051 43.373600006 1.1043000221 0.4670999944 0.8636000156
 2133.9047852 12.146499634 8.5000000000 -0.003913600 0.4017130136 2.1900999546 65.249885559 138.34066772 0.5845000148 43.800300598 1.1167999506 0.4729000032 0.8690000176
 2134.0573730 12.166000366 8.5000000000 -0.004972756 0.3950953186 2.1937205791 63.017589569 137.63778687 0.5974090099 44.473129272 1.1282150745 0.4923000038 0.8736048341
 2134.2097168 12.275099754 8.5000000000 -0.004027244 0.3790703714 2.2063202858 61.229385376 136.70916748 0.6030089259 45.551025391 1.1376152039 0.5342000127 0.8766048551
