# LAS format log file from PETREL
# Project units are specified as depth units
#==================================================================
~Version information
VERS.   2.0:
WRAP.   NO:
#==================================================================
~Well
STRT .m      2127.0468750 :
STOP .m      3314.3952637 :
STEP .m     0.00000000 :
NULL .        -999.250000 :
COMP.           : COMPANY
WELL.  7/8-1 T2   : WELL
FLD.            : FIELD
LOC.            : LOCATION
SRVC.           : SERVICE COMPANY
DATE.  2018-09-11 21:49:23   : Log Export Date {yyyy-MM-dd HH:mm:ss}
PROV.           : PROVINCE
UWI.   7/8-1 T2   : UNIQUE WELL ID
API.            : API NUMBER
#==================================================================
~Curve
DEPT .m                   : DEPTH
CALI .in                  : CALI
BS .in                    : BS
DRHO .g/cm3               : DRHO
NPHI .m3/m3               : NPHI
RHOB .g/cm3               : RHOB
GR .gAPI                  : GR
DTC .us/ft                : DTC
RDEP .ohm.m               : RDEP
SP .mV                    : SP
RSHA .ohm.m               : RSHA
RMIC .ohm.m               : RMIC
RMED .ohm.m               : RMED
~Parameter
#==================================================================
~Ascii
# ...
 3304.7939453 16.034099579 6.0000000000  -999.250000  -999.250000  -999.250000 124.40090942 85.634223938 1.1878999472 67.166000366 2.9156000614  -999.250000 2.3805000782
 3304.9465332 16.031000137 6.0000000000  -999.250000  -999.250000  -999.250000 119.14532471 85.492820740 1.1509000063 67.344703674 2.6940000057  -999.250000 2.2554769516
 3305.0988770 16.031700134 6.0000000000  -999.250000  -999.250000  -999.250000 112.96813202 86.074333191 1.2862999439 67.689399719 2.7109000683  -999.250000 2.1234817505
 3305.2512207 16.034500122 6.0000000000  -999.250000  -999.250000  -999.250000 110.12731171 88.154518127 1.5153000355 68.124198914 2.8573999405  -999.250000 1.9873818159
 3305.4035645 16.037300110 6.0000000000  -999.250000  -999.250000  -999.250000 112.11676025 88.703857422 1.7443000078 68.558998108 3.0037999153  -999.250000 1.8514279127
 3305.5561523 16.042100906 6.0000000000  -999.250000  -999.250000  -999.250000 119.54611969 86.078155518 2.4665999413 68.899497986 3.1823000908  -999.250000 1.8068580627
 3305.7084961 16.050500870 6.0000000000  -999.250000  -999.250000  -999.250000 130.87873840 83.356491089 4.0380997658 69.077697754 3.4156999588  -999.250000 1.9185795784
 3305.8608398 16.058900833 6.0000000000  -999.250000  -999.250000  -999.250000 138.07980347 82.782440186 5.6097002029 69.255897522 3.6491999626  -999.250000 2.0305821896
 3306.0131836 16.065799713 6.0000000000  -999.250000  -999.250000  -999.250000 140.63514709 82.533622742  -999.250000 69.416603088 3.8578150272  -999.250000 2.1443128586
 3306.1657715 16.056999207 6.0000000000  -999.250000  -999.250000  -999.250000 139.17298889 82.751861572  -999.250000 69.393699646 3.8048310280  -999.250000 2.2774255276
 3306.3181152 16.048299789 6.0000000000  -999.250000  -999.250000  -999.250000 134.27793884 83.318664551  -999.250000 69.370796204 3.7521152496  -999.250000 2.4102129936
 3306.4704590 16.039499283 6.0000000000  -999.250000  -999.250000  -999.250000 131.51893616 83.699699402  -999.250000 69.347801208 3.6990659237  -999.250000 2.5428280830
 3306.6228027 16.032800674 6.0000000000  -999.250000  -999.250000  -999.250000  -999.250000 83.943984985  -999.250000 69.251998901 3.4905056953  -999.250000 2.4978594780
 3306.7751465 16.026599884 6.0000000000  -999.250000  -999.250000  -999.250000  -999.250000 84.638839722  -999.250000 69.138496399 3.2445056438  -999.250000 2.4102594852
 3306.9277344 16.020500183 6.0000000000  -999.250000  -999.250000  -999.250000  -999.250000 85.679412842  -999.250000 69.025100708 2.9976561069  -999.250000 2.3222575188
 3307.0800781 16.016000748 6.0000000000  -999.250000  -999.250000  -999.250000  -999.250000 85.628273010 7.7622671127 69.156097412 2.6093702316  -999.250000 2.1841049194
 3307.2324219 16.013000488 6.0000000000  -999.250000  -999.250000  -999.250000  -999.250000 85.623901367 5.1833667755 69.508300781 2.0915701389  -999.250000 1.9999049902
 3307.3847656 16.010000229 6.0000000000  -999.250000  -999.250000  -999.250000  -999.250000 84.939361572 2.6053316593 69.860496521 1.5737832785  -999.250000 1.8157424927
 3307.5373535 16.009899139 6.0000000000  -999.250000  -999.250000  -999.250000  -999.250000 84.321708679 0.6311377883 70.286903381 1.1265687943  -999.250000 1.5918996334
 3307.6896973 16.018899918 6.0000000000  -999.250000  -999.250000  -999.250000  -999.250000 85.338348389 0.5181185603 70.943099976 0.8984338045  -999.250000 1.2485487461
 3307.8420410 16.027799606 6.0000000000  -999.250000  -999.250000  -999.250000  -999.250000 87.439018250 0.4049185812 71.599296570 0.6699336767  -999.250000 0.9045488834
 3307.9943848 16.036699295 6.0000000000  -999.250000  -999.250000  -999.250000  -999.250000 89.357437134 0.2918557823 72.255500793 0.4416367114  -999.250000 0.5610833764
 3308.1469727 16.032600403 6.0000000000  -999.250000  -999.250000  -999.250000  -999.250000 90.811378479 0.2642222345 72.659301758 0.4020963311  -999.250000 0.4882006645
 3308.2993164 16.027999878 6.0000000000  -999.250000  -999.250000  -999.250000  -999.250000 91.871047974 0.2399608940 73.053497314 0.3697482347  -999.250000 0.4259999990
 3308.4516602 16.023500443 6.0000000000  -999.250000  -999.250000  -999.250000  -999.250000 92.741752625 0.2155812532 73.447601318 0.3374647498  -999.250000 0.3636581898
 3308.6040039 16.016599655 6.0000000000  -999.250000  -999.250000  -999.250000  -999.250000 94.148178101 0.2038905323 73.616600037 0.3154724240  -999.250000 0.3375854194
 3308.7563477 16.008699417 6.0000000000  -999.250000  -999.250000  -999.250000  -999.250000 95.351005554 0.1979905516 73.680702209 0.2982724905  -999.250000 0.3284854293
 3308.9089355 16.000699997 6.0000000000  -999.250000  -999.250000  -999.250000  -999.250000 95.712219238 0.1920987219 73.744796753 0.2810810804  -999.250000 0.3193880022
 3309.0612793 16.000400543 6.0000000000  -999.250000  -999.250000  -999.250000  -999.250000 95.188423157 0.1913105845 73.839698792 0.2692939341  -999.250000 0.3118918240
 3309.2136230 16.011299133 6.0000000000  -999.250000  -999.250000  -999.250000  -999.250000 94.023200989 0.1979105771 73.980400085 0.2654939294  -999.250000 0.3067916632
 3309.3659668 16.022199631 6.0000000000  -999.250000  -999.250000  -999.250000  -999.250000 93.515235901 0.2045101076 74.121101379 0.2616953552  -999.250000 0.3015931249
 3309.5185547 16.028999329 6.0000000000  -999.250000  -999.250000  -999.250000  -999.250000 93.807586670 0.2108150423 74.228500366 0.2588127851  -999.250000 0.2973041832
 3309.6708984 16.005899429 6.0000000000  -999.250000  -999.250000  -999.250000  -999.250000 93.965103149 0.2155073732 74.094001770 0.2628064156  -999.250000 0.2986020744
 3309.8232422 15.982800484 6.0000000000  -999.250000  -999.250000  -999.250000  -999.250000 94.427955627 0.2201073766 73.959396362 0.2668062449  -999.250000 0.2999020815
 3309.9755859 15.959699631 6.0000000000  -999.250000  -999.250000  -999.250000  -999.250000 94.448593140 0.2247104198 73.824897766 0.2706944048  -999.250000 0.3012052774
 3310.1281738 15.965999603 6.0000000000  -999.250000  -999.250000  -999.250000  -999.250000 93.077224731 0.2312217504 73.737503052 0.2671843171  -999.250000 0.3045115471
 3310.2805176 15.977899551 6.0000000000  -999.250000  -999.250000  -999.250000  -999.250000 92.191696167 0.2380110621 73.659202576 0.2622919977  -999.250000 0.3081059158
 3310.4328613 15.989800453 6.0000000000  -999.250000  -999.250000  -999.250000  -999.250000 91.611083984 0.2449019253 73.580802917 0.2573024035  -999.250000 0.3118020892
 3310.5852051 15.994999886 6.0000000000  -999.250000  -999.250000  -999.250000  -999.250000 91.358322144 0.2460950315 73.575798035 0.2588107288  -999.250000 0.3130990565
 3310.7377930 15.994999886 6.0000000000  -999.250000  -999.250000  -999.250000  -999.250000 91.576568604 0.2429897636 73.628700256 0.2655214369  -999.250000 0.3124983907
 3310.8901367 15.994999886 6.0000000000  -999.250000  -999.250000  -999.250000  -999.250000 91.674140930 0.2397953570 73.681602478 0.2722148895  -999.250000 0.3120011389
 3311.0424805 15.994899750 6.0000000000  -999.250000  -999.250000  -999.250000  -999.250000 91.590469360 0.2368963212 73.729103088 0.2815258205  -999.250000 0.3127059340
 3311.1948242 15.994600296 6.0000000000  -999.250000  -999.250000  -999.250000  -999.250000 91.814674377 0.2345963120 73.762802124 0.2976259589  -999.250000 0.3164060712
 3311.3471680 15.994299889 6.0000000000  -999.250000  -999.250000  -999.250000  -999.250000 92.737808228 0.2322963178 73.796501160 0.3138259649  -999.250000 0.3202060759
 3311.4997559 15.994000435 6.0000000000  -999.250000  -999.250000  -999.250000  -999.250000 93.549606323 0.2300288081 73.830101013 0.3300134540  -999.250000 0.3240540922
 3311.6520996 15.994000435 6.0000000000  -999.250000  -999.250000  -999.250000  -999.250000 94.183013916 0.2390144169 73.762603760 0.3342067301  -999.250000 0.3409270942
 3311.8044434 15.994000435 6.0000000000  -999.250000  -999.250000  -999.250000  -999.250000 93.981925964 0.2480144203 73.694801331 0.3384067416  -999.250000 0.3578272462
 3311.9567871 15.994000435 6.0000000000  -999.250000  -999.250000  -999.250000  -999.250000 93.287063599 0.2570294738 73.626998901 0.3425922990  -999.250000 0.3748423159
