# LAS format log file from PETREL
# Project units are specified as depth units
#==================================================================
~Version information
VERS.   2.0:
WRAP.   NO:
#==================================================================
~Well
STRT .m      2674.6198730 :
STOP .m      4399.4833984 :
STEP .m     0.00000000 :
NULL .        -999.250000 :
COMP.           : COMPANY
WELL.  7/8-4 T2   : WELL
FLD.            : FIELD
LOC.            : LOCATION
SRVC.           : SERVICE COMPANY
DATE.  2018-09-11 21:49:25   : Log Export Date {yyyy-MM-dd HH:mm:ss}
PROV.           : PROVINCE
UWI.   7/8-4 T2   : UNIQUE WELL ID
API.            : API NUMBER
#==================================================================
~Curve
DEPT .m                   : DEPTH
DCAL .in                  : DCAL
CALI .in                  : CALI
BS .in                    : BS
ROP .m/h                  : ROP
DRHO .g/cm3               : DRHO
NPHI .m3/m3               : NPHI
RHOB .g/cm3               : RHOB
PEF .b/e                  : PEF
GR .gAPI                  : GR
DTC .us/ft                : DTC
RDEP .ohm.m               : RDEP
SP .mV                    : SP
RSHA .ohm.m               : RSHA
RMED .ohm.m               : RMED
~Parameter
#==================================================================
~Ascii
# ...
 4049.2680664 -0.394300014 8.1056995392 8.5000000000  -999.250000 -0.028159723 0.1901299953 2.3406000137 13.274529457 55.397968292 82.529502869 0.5802890658 54.808399200 1.6481000185 1.1052999496
 4049.4204102 -0.396299988 8.1036996841 8.5000000000  -999.250000 -0.026739996 0.1887180060 2.3357000351 12.918358803 54.506092072 82.663200378 0.5735188723 54.860698700 1.5298999548 1.0271999836
 4049.5727539 -0.392699987 8.1072998047 8.5000000000  -999.250000 -0.026114384 0.1854719967 2.3399999142 12.518483162 53.627117157 82.506797791 0.5853516459 54.651901245 1.5268000364 1.0040999651
 4049.7253418 -0.382999986 8.1169996262 8.5000000000  -999.250000 -0.026354767 0.1802210063 2.3545999527 12.070067406 52.761035919 82.033203125 0.6176027060 54.157501221 1.6497999430 1.0412000418
 4049.8776855 -0.373199999 8.1267995834 8.5000000000  -999.250000 -0.026593039 0.1749690026 2.3691000938 11.622719765 51.900039673 81.559600830 0.6496702433 53.663101196 1.7726999521 1.0781999826
 4050.0300293 -0.339500010 8.1604995728 8.5000000000  -999.250000 -0.025987547 0.1691710055 2.3912999630 10.946836472 52.496231079 80.940002441 0.6935464740 53.379901886 1.9258999825 1.1347999573
 4050.1823730 -0.208100021 8.2918996811 8.5000000000  -999.250000 -0.021961546 0.1611409932 2.4449000359 9.3470363617 59.004428864 79.724601746 0.7849466205 53.957901001 2.2025001049 1.2707999945
 4050.3349609 -0.076600000 8.4233999252 8.5000000000  -999.250000 -0.017928116 0.1531119943 2.4985001087 7.7447810173 65.523025513 78.509201050 0.8765924573 54.535900116 2.4790999889 1.4068000317
 4050.4873047 0.0549000055 8.5549001694 8.5000000000  -999.250000 -0.013914668 0.1450819969 2.5520999432 6.1509037018 72.016166687 77.293800354 0.9678362012 55.113899231 2.7555999756 1.5427999496
 4050.6396484 0.0873000026 8.5873003006 8.5000000000  -999.250000 -0.013708229 0.1635259986 2.5592999458 6.5905036926 75.678657532 76.434799194 1.0528351068 56.053600311 2.9623999596 1.8112000227
 4050.7919922 0.1105000004 8.6105003357 8.5000000000  -999.250000 -0.013851231 0.1843979955 2.5622999668 7.2168035507 79.080757141 75.608398438 1.1371350288 57.026500702 3.1628000736 2.0917999744
 4050.9445801 0.1338000000 8.6337995529 8.5000000000  -999.250000 -0.013999419 0.2052700073 2.5652999878 7.8440551758 82.469314575 74.781997681 1.2211751938 57.999298096 3.3631999493 2.3724000454
 4051.0969238 0.0733999982 8.5733995438 8.5000000000  -999.250000 -0.015379354 0.2105900049 2.5357000828 8.4539651871 79.971168518 75.499198914 1.1821240187 57.948299408 3.2021000385 2.2841000557
 4051.2492676 -0.035000000 8.4650001526 8.5000000000  -999.250000 -0.017472355 0.2069769949 2.4874000549 9.0559654236 74.086372375 77.103103638 1.0723240376 57.309101105 2.8331999779 1.9839999676
 4051.4016113 -0.143500000 8.3564996719 8.5000000000  -999.250000 -0.019565640 0.2033639997 2.4391000271 9.6579465866 68.203620911 78.707000732 0.9625272751 56.669898987 2.4644000530 1.6837999821
 4051.5539551 -0.229399979 8.2706003189 8.5000000000  -999.250000 -0.021837160 0.2001010031 2.4028999805 10.248612404 63.605773926 79.629501343 0.8547331691 56.212699890 2.1370999813 1.4258999825
 4051.7065430 -0.274300009 8.2257003784 8.5000000000  -999.250000 -0.024436301 0.1974750012 2.3889000416 10.819323540 61.338855743 79.310302734 0.7504672408 56.087100983 1.8853000402 1.2450000048
 4051.8588867 -0.319200009 8.1808004379 8.5000000000  -999.250000 -0.027025629 0.1948489994 2.3750000000 11.388277054 59.079647064 78.991104126 0.6466443539 55.961498260 1.6334999800 1.0640000105
 4052.0112305 -0.359400034 8.1406002045 8.5000000000  -999.250000 -0.029282931 0.1920789927 2.3624999523 11.998783112 57.054054260 78.706192017 0.5496872067 55.805500031 1.4196000099 0.8999999762
 4052.1635742 -0.341899991 8.1581001282 8.5000000000  -999.250000 -0.027366931 0.1874949932 2.3684999943 13.111883163 57.960952759 78.852500916 0.5416871905 55.267299652 1.6820000410 0.9498999715
 4052.3161621 -0.324299991 8.1757001877 8.5000000000  -999.250000 -0.025447868 0.1829109937 2.3743999004 14.226661682 58.869304657 78.998802185 0.5336744189 54.729198456 1.9444999695 0.9998000264
 4052.4685059 -0.306699991 8.1933002472 8.5000000000  -999.250000 -0.023538135 0.1783269942 2.3803999424 15.335893631 59.772796631 79.145103455 0.5256925821 54.191001892 2.2070000172 1.0497000217
 4052.6208496 -0.301600009 8.1983995438 8.5000000000  -999.250000 -0.023622975 0.1801169962 2.3745000362 15.144046783 59.457485199 79.514404297 0.5210939050 54.217601776 2.1431000233 1.0769000053
 4052.7731934 -0.299800009 8.2002000809 8.5000000000  -999.250000 -0.024230972 0.1835729927 2.3654999733 14.611546516 58.823181152 79.942001343 0.5172939301 54.391899109 1.9938999414 1.0980999470
 4052.9257813 -0.298000008 8.2019996643 8.5000000000  -999.250000 -0.024839416 0.1870300025 2.3564999104 14.078734398 58.187347412 80.369697571 0.5134840012 54.566200256 1.8446999788 1.1194000244
 4053.0781250 -0.297100008 8.2028999329 8.5000000000  -999.250000 -0.025593437 0.1882680058 2.3494999409 13.684075356 57.422069550 80.776702881 0.5084902048 54.134998322 1.7189999819 1.1017999649
 4053.2304688 -0.296999991 8.2030000687 8.5000000000  -999.250000 -0.026490437 0.1873890013 2.3443000317 13.419175148 56.529670715 81.164009094 0.5023900270 53.126201630 1.6155999899 1.0471999645
 4053.3828125 -0.296999991 8.2030000687 8.5000000000  -999.250000 -0.027385496 0.1865109950 2.3389999866 13.154334068 55.637233734 81.551300049 0.4961873293 52.117401123 1.5121999979 0.9925000072
 4053.5351563 -0.296900004 8.2031002045 8.5000000000  -999.250000 -0.027691362 0.1868229955 2.3348999023 12.863294601 54.657566071 81.853103638 0.4882778823 51.463699341 1.4220999479 0.9397000074
 4053.6877441 -0.296900004 8.2031002045 8.5000000000  -999.250000 -0.026042733 0.1911009997 2.3343000412 12.484790802 53.386940002 81.870101929 0.4744561613 51.992000580 1.3763999939 0.8928999901
 4053.8400879 -0.296900004 8.2031002045 8.5000000000  -999.250000 -0.024399361 0.1953800023 2.3336999416 12.107594490 52.120365143 81.887100220 0.4607778788 52.520301819 1.3306000233 0.8460999727
 4053.9924316 -0.296900004 8.2031002045 8.5000000000  -999.250000 -0.022755304 0.1996580064 2.3331000805 11.730613708 50.852508545 81.904098511 0.4470118582 53.048599243 1.2848999500 0.7993000150
 4054.1447754 -0.296900004 8.2031002045 8.5000000000  -999.250000 -0.022945458 0.1952269971 2.3371999264 11.926562309 50.045944214 81.712097168 0.4544136226 52.654899597 1.2907999754 0.8108999729
 4054.2973633 -0.296900004 8.2031002045 8.5000000000  -999.250000 -0.023231918 0.1903399974 2.3415999413 12.152822495 49.262397766 81.509101868 0.4629272223 52.212699890 1.2993999720 0.8256000280
 4054.4497070 -0.296900004 8.2031002045 8.5000000000  -999.250000 -0.023521237 0.1854519993 2.3459999561 12.378323555 48.483898163 81.306098938 0.4714427888 51.770500183 1.3078999519 0.8403000236
 4054.6020508 -0.296900004 8.2031002045 8.5000000000  -999.250000 -0.025542611 0.1804279983 2.3501999378 12.517354965 49.294860840 81.069900513 0.4981572330 52.230701447 1.3589999676 0.8723000288
 4054.7543945 -0.296900004 8.2031002045 8.5000000000  -999.250000 -0.028420610 0.1753360033 2.3543000221 12.613654137 50.891258240 80.817398071 0.5338570476 53.136798859 1.4309999943 0.9128000140
 4054.9069824 -0.296900004 8.2031002045 8.5000000000  -999.250000 -0.031295389 0.1702439934 2.3582999706 12.711413383 52.490184784 80.564796448 0.5695267320 54.042900085 1.5030000210 0.9532999992
 4055.0593262 -0.296900004 8.2031002045 8.5000000000  -999.250000 -0.032034814 0.1680459976 2.3685998917 13.247065544 54.076931000 80.179702759 0.6090732813 54.438201904 1.6167999506 1.0211999416
 4055.2116699 -0.296999991 8.2030000687 8.5000000000  -999.250000 -0.029422814 0.1704040021 2.3884999752 14.473766327 55.655330658 79.586204529 0.6547732353 54.029499054 1.7964999676 1.1322000027
 4055.3640137 -0.296999991 8.2030000687 8.5000000000  -999.250000 -0.026811179 0.1727620065 2.4084000587 15.700364113 57.233524323 78.992599487 0.7004672885 53.620700836 1.9761999846 1.2431999445
