# LAS format log file from PETREL
# Project units are specified as depth units
#==================================================================
~Version information
VERS.   2.0:
WRAP.   NO:
#==================================================================
~Well
STRT .m      1216.1519775 :
STOP .m      3001.3652344 :
STEP .m     0.00000000 :
NULL .        -999.250000 :
COMP.           : COMPANY
WELL.  7/8-2 Cero   : WELL
FLD.            : FIELD
LOC.            : LOCATION
SRVC.           : SERVICE COMPANY
DATE.  2018-09-11 21:49:23   : Log Export Date {yyyy-MM-dd HH:mm:ss}
PROV.           : PROVINCE
UWI.   7/8-2   : UNIQUE WELL ID
API.            : API NUMBER
#==================================================================
~Curve
DEPT .m                   : DEPTH
CALI .in                  : CALI
BS .in                    : BS
DRHO .g/cm3               : DRHO
RHOB .g/cm3               : RHOB
GR .gAPI                  : GR
DTC .us/ft                : DTC
RDEP .ohm.m               : RDEP
SP .mV                    : SP
RSHA .ohm.m               : RSHA
RMED .ohm.m               : RMED
~Parameter
#==================================================================
~Ascii
# ...
 1685.5439453 12.555500031 12.250000954  -999.250000  -999.250000 91.901603699 144.90017700 0.7182000279 -39.12910080 0.8727999926 0.8202999830
 1685.6962891 12.575100899 12.250000954  -999.250000  -999.250000 91.080703735 144.62284851 0.7161999941 -39.33539963 0.8632000089 0.8300999999
 1685.8487549 12.594599724 12.250000954  -999.250000  -999.250000 90.259696960 144.34483337 0.7141000032 -39.54180145 0.8536000252 0.8398000002
 1686.0010986 12.614100456 12.250000954  -999.250000  -999.250000 89.465301514 144.06994629 0.7120000124 -39.74549866 0.8439999819 0.8495000005
 1686.1535645 12.626799583 12.250000954  -999.250000  -999.250000 92.023101807 144.13134766 0.7103000283 -39.62099838 0.8382999897 0.8461999893
 1686.3059082 12.639399529 12.250000954  -999.250000  -999.250000 94.580902100 144.19320679 0.7085999846 -39.49649811 0.8324999809 0.8428999782
 1686.4583740 12.652099609 12.250000954  -999.250000  -999.250000 97.138702393 144.25524902 0.7069000006 -39.37210083 0.8267999887 0.8396000266
 1686.6107178 12.663600922 12.250000954  -999.250000  -999.250000 96.749702454 144.66735840 0.6970000267 -39.37089920 0.8249999881 0.8379999995
 1686.7631836 12.674699783 12.250000954  -999.250000  -999.250000 95.254203796 145.21125793 0.6840999722 -39.41600037 0.8248000145 0.8368999958
 1686.9155273 12.685799599 12.250000954  -999.250000  -999.250000 93.758697510 145.75526428 0.6711000204 -39.46110153 0.8245999813 0.8359000087
 1687.0679932 12.674500465 12.250000954  -999.250000  -999.250000 91.398399353 146.00410461 0.6638000011 -39.44419861 0.8230000138 0.8342000246
 1687.2203369 12.635499001 12.250000954  -999.250000  -999.250000 87.964599609 145.88629150 0.6635000110 -39.35010147 0.8198999763 0.8316000104
 1687.3728027 12.596399307 12.250000954  -999.250000  -999.250000 84.530799866 145.76809692 0.6632000208 -39.25600052 0.8167999983 0.8291000128
 1687.5251465 12.567800522 12.250000954  -999.250000  -999.250000 81.839103699 145.88130188 0.6624000072 -39.19469833 0.8133000135 0.8266999722
 1687.6776123 12.592399597 12.250000954  -999.250000  -999.250000 82.893402100 147.16227722 0.6586999893 -39.29840088 0.8079000115 0.8249999881
 1687.8299561 12.616999626 12.250000954  -999.250000  -999.250000 83.947799683 148.44407654 0.6549000144 -39.40200043 0.8025000095 0.8231999874
 1687.9822998 12.641599655 12.250000954  -999.250000  -999.250000 85.002098083 149.72494507 0.6511999965 -39.50569916 0.7971000075 0.8215000033
 1688.1347656 12.631600380 12.250000954  -999.250000  -999.250000 87.076797485 148.70910645 0.6585000157 -39.46049881 0.8041999936 0.8180999756
 1688.2871094 12.616999626 12.250000954  -999.250000  -999.250000 89.284698486 147.39140320 0.6672999859 -39.39569855 0.8129000068 0.8144999743
 1688.4395752 12.602499962 12.250000954  -999.250000  -999.250000 91.492599487 146.07135010 0.6759999990 -39.33100128 0.8216999769 0.8108999729
 1688.5919189 12.593299866 12.250000954  -999.250000  -999.250000 93.666297913 145.67993164 0.6933000088 -39.32160187 0.8392999768 0.8111000061
 1688.7443848 12.587599754 12.250000954  -999.250000  -999.250000 95.817497253 145.89743042 0.7161999941 -39.34849930 0.8629000187 0.8138999939
 1688.8967285 12.581899643 12.250000954  -999.250000  -999.250000 97.968696594 146.11582947 0.7390999794 -39.37540054 0.8863999844 0.8166000247
 1689.0491943 12.574199677 12.250000954  -999.250000  -999.250000 98.157203674 144.58772278 0.7537000179 -39.34410095 0.9053000212 0.8187999725
 1689.2015381 12.562299728 12.250000954  -999.250000  -999.250000 94.228996277 139.39495850 0.7509999871 -39.19100189 0.9146000147 0.8201000094
 1689.3540039 12.550399780 12.250000954  -999.250000  -999.250000 90.300697327 134.19926453 0.7483000159 -39.03789902 0.9237999916 0.8213000298
 1689.5063477 12.538999557 12.250000954  -999.250000  -999.250000 86.232696533 129.10797119 0.7451999784 -38.89780045 0.9312999845 0.8238999844
 1689.6588135 12.539299965 12.250000954  -999.250000  -999.250000 78.976402283 126.39866638 0.7351999879 -39.05640030 0.8982999921 0.8578000069
 1689.8111572 12.539600372 12.250000954  -999.250000  -999.250000 71.720100403 123.69126892 0.7251999974 -39.21500015 0.8652999997 0.8917000294
 1689.9635010 12.539899826 12.250000954  -999.250000  -999.250000 64.463699341 120.98603058 0.7152000070 -39.37350082 0.8323000073 0.9255999923
 1690.1159668 12.547599792 12.250000954  -999.250000  -999.250000 68.467498779 126.58310699 0.6966000199 -39.35630035 0.8289999962 0.9284999967
 1690.2683105 12.557600021 12.250000954  -999.250000  -999.250000 76.004600525 134.78915405 0.6753000021 -39.28400040 0.8349000216 0.9215999842
 1690.4207764 12.567500114 12.250000954  -999.250000  -999.250000 83.541603088 143.01033020 0.6539999843 -39.21170044 0.8409000039 0.9147999883
 1690.5731201 12.563400269 12.250000954  -999.250000  -999.250000 87.652603149 147.22703552 0.6511999965 -39.18690109 0.8424000144 0.8977000117
 1690.7255859 12.543999672 12.250000954  -999.250000  -999.250000 88.056701660 147.12519836 0.6683999896 -39.21350098 0.8392000198 0.8694000244
 1690.8779297 12.524499893 12.250000954  -999.250000  -999.250000 88.460700989 147.01658630 0.6855999827 -39.24010086 0.8360000253 0.8410999775
 1691.0303955 12.521100044 12.250000954  -999.250000  -999.250000 88.644401550 147.00970459 0.7030000091 -39.26589966 0.8325999975 0.8192999959
 1691.1827393 12.581899643 12.250000954  -999.250000  -999.250000 87.943901062 147.41128540 0.7207000256 -39.28829956 0.8288000226 0.8237000108
 1691.3352051 12.642700195 12.250000954  -999.250000  -999.250000 87.243400574 147.81327820 0.7384999990 -39.31079865 0.8249999881 0.8280000091
 1691.4875488 12.703599930 12.250000954  -999.250000  -999.250000 86.542999268 148.21517944 0.7562000155 -39.33319855 0.8210999966 0.8324000239
 1691.6400146 12.700099945 12.250000954  -999.250000  -999.250000 88.214996338 147.84428406 0.7555000186 -39.09849930 0.8216999769 0.8334000111
 1691.7923584 12.690999985 12.250000954  -999.250000  -999.250000 90.097297668 147.40435791 0.7531999946 -38.84099960 0.8226000071 0.8341000080
 1691.9447021 12.681799889 12.250000954  -999.250000  -999.250000 91.979499817 146.96459961 0.7508999705 -38.58349991 0.8235999942 0.8348000050
 1692.0971680 12.608200073 12.250000954  -999.250000  -999.250000 93.321701050 146.73548889 0.7476999760 -38.52299881 0.8287000060 0.8310999870
 1692.2495117 12.498100281 12.250000954  -999.250000  -999.250000 94.357200623 146.62696838 0.7439000010 -38.57429886 0.8361999989 0.8248000145
 1692.4019775 12.387999535 12.250000954  -999.250000  -999.250000 95.392700195 146.51829529 0.7401000261 -38.62570190 0.8436999917 0.8185999990
 1692.5543213 12.327400208 12.250000954  -999.250000  -999.250000 95.615097046 147.50431824 0.7357000113 -38.70449829 0.8486999869 0.8147000074
 1692.7067871 12.356200218 12.250000954  -999.250000  -999.250000 94.372703552 150.46612549 0.7301999927 -38.83280182 0.8492000103 0.8151000142
 1692.8591309 12.385000229 12.250000954  -999.250000  -999.250000 93.130401611 153.42872620 0.7246999741 -38.96110153 0.8497999907 0.8154000044
 1693.0115967 12.417400360 12.250000954  -999.250000  -999.250000 91.822196960 156.02111816 0.7195000052 -39.08029938 0.8497999907 0.8159000278
 1693.1639404 12.494699478 12.250000954  -999.250000  -999.250000 89.715698242 154.11972046 0.7179999948 -39.08940125 0.8427000046 0.8177000284
 1693.3164063 12.571901321 12.250000954  -999.250000  -999.250000 87.609298706 152.21470642 0.7166000009 -39.09849930 0.8356999755 0.8195999861
 1693.4687500 12.649200439 12.250000954  -999.250000  -999.250000 85.502799988 150.30982971 0.7150999904 -39.10760117 0.8285999894 0.8213999867
 1693.6212158 12.629699707 12.250000954  -999.250000  -999.250000 85.089599609 150.20350647 0.7146999836 -39.14039993 0.8299999833 0.8180000186
 1693.7735596 12.585300446 12.250000954  -999.250000  -999.250000 85.112297058 150.56159973 0.7146000266 -39.17919922 0.8335000277 0.8133000135
 1693.9260254 12.540900230 12.250000954  -999.250000  -999.250000 85.135002136 150.92012024 0.7145000100 -39.21799850 0.8371000290 0.8086000085
