# LAS format log file from PETREL
# Project units are specified as depth units
#==================================================================
~Version information
VERS.   2.0:
WRAP.   NO:
#==================================================================
~Well
STRT .m      2674.6198730 :
STOP .m      4399.4833984 :
STEP .m     0.00000000 :
NULL .        -999.250000 :
COMP.           : COMPANY
WELL.  7/8-4 T2   : WELL
FLD.            : FIELD
LOC.            : LOCATION
SRVC.           : SERVICE COMPANY
DATE.  2018-09-11 21:49:25   : Log Export Date {yyyy-MM-dd HH:mm:ss}
PROV.           : PROVINCE
UWI.   7/8-4 T2   : UNIQUE WELL ID
API.            : API NUMBER
#==================================================================
~Curve
DEPT .m                   : DEPTH
DCAL .in                  : DCAL
CALI .in                  : CALI
BS .in                    : BS
ROP .m/h                  : ROP
DRHO .g/cm3               : DRHO
NPHI .m3/m3               : NPHI
RHOB .g/cm3               : RHOB
PEF .b/e                  : PEF
GR .gAPI                  : GR
DTC .us/ft                : DTC
RDEP .ohm.m               : RDEP
SP .mV                    : SP
RSHA .ohm.m               : RSHA
RMED .ohm.m               : RMED
~Parameter
#==================================================================
~Ascii
# ...
 3705.6062012 -0.148399994 12.101600647 12.250000954 95.245223999 -0.018509259 0.0050692898 2.6941013336 4.9294257164 49.803474426 54.834800720 13.291366577 41.718418121 38.125198364 1274.1467285
 3705.7587891 -0.148399994 12.101600647 12.250000954 93.489471436 -0.019296514 0.0058755758 2.6950027943 4.9454512596 49.099754333 54.993400574 13.208133698 42.416732788 37.493499756 1026.3323975
 3705.9111328 -0.148399994 12.101600647 12.250000954 91.738571167 -0.020080581 0.0066790371 2.6958992481 4.9615054131 48.398914337 55.152000427 13.125072479 43.111606598 36.861801147 779.36694336
 3706.0634766 -0.148399994 12.101600647 12.250000954 89.519340515 -0.020442627 0.0073256795 2.6953957081 5.0273180008 48.158954620 55.343799591 12.982938766 42.988254547 35.805900574 568.49755859
 3706.2158203 -0.148399994 12.101600647 12.250000954 86.644012451 -0.020210627 0.0077496781 2.6926956177 5.1633176804 48.569557190 55.582298279 12.757538795 41.711456299 34.151401520 409.01541138
 3706.3681641 -0.148399994 12.101600647 12.250000954 83.769531250 -0.019978674 0.0081728110 2.6899957657 5.2992839813 48.980171204 55.820899963 12.532282829 40.434837341 32.497001648 249.57011414
 3706.5207520 -0.148399994 12.101600647 12.250000954 81.431289673 -0.019775972 0.0086813159 2.6872887611 5.4138274193 49.398788452 56.023300171 12.334224701 39.336948395 31.105100632 113.37117767
 3706.6730957 -0.148399994 12.101600647 12.250000954 82.511245728 -0.019766985 0.0097156586 2.6837944984 5.3911633492 49.862644196 55.991802216 12.310862541 39.383071899 31.412500381 125.87487030
 3706.8254395 -0.148399994 12.101600647 12.250000954 83.593269348 -0.019757984 0.0107506607 2.6803941727 5.3683638573 50.327144623 55.960300446 12.287463188 39.429271698 31.719900131 138.39846802
 3706.9777832 -0.148399994 12.101600647 12.250000954 84.674850464 -0.019748781 0.0117847081 2.6768989563 5.3456201553 50.790866852 55.928901672 12.264285088 39.475017548 32.027400970 150.88592529
 3707.1303711 -0.148399994 12.101600647 12.250000954 85.689224243 -0.019611487 0.0116017452 2.6762993336 5.2958259583 50.769065857 55.922500610 12.317311287 39.237384796 31.262300491 140.76884460
 3707.2827148 -0.148399994 12.101600647 12.250000954 86.688941956 -0.019451745 0.0112103717 2.6760997772 5.2415127754 50.664031982 55.920501709 12.383305550 38.951942444 30.312500000 126.80648804
 3707.4350586 -0.148399994 12.101600647 12.250000954 87.689086914 -0.019290928 0.0108189760 2.6760029793 5.1870269775 50.560543060 55.918498993 12.449379921 38.666500092 29.362600327 112.83272552
 3707.5874023 -0.148399994 12.101600647 12.250000954 88.165161133 -0.017995570 0.0108044297 2.6778051853 5.0790629387 51.526725769 56.027198792 12.499259949 38.666645050 30.064199448 105.67980194
 3707.7399902 -0.148399994 12.101600647 12.250000954 88.249282837 -0.015851149 0.0110728573 2.6810104847 4.9308266640 53.294548035 56.218799591 12.537020683 38.880283356 32.000400543 103.61760712
 3707.8923340 -0.148399994 12.101600647 12.250000954 88.333106995 -0.013715201 0.0113403751 2.6843042374 4.7831363678 55.055362701 56.410404205 12.574605942 39.093395233 33.936698914 101.57768250
 3708.0446777 -0.148399994 12.101600647 12.250000954 88.393707275 -0.012596177 0.0115742441 2.6870019436 4.6813158989 56.027385712 56.506801605 12.578173637 39.404277802 37.318199158 109.34172058
 3708.1970215 -0.148399994 12.101600647 12.250000954 88.398300171 -0.013954177 0.0117262444 2.6882019043 4.6911158562 55.081283569 56.371799469 12.499273300 39.951278687 44.214900970 140.86862183
 3708.3493652 -0.148399994 12.101600647 12.250000954 88.402572632 -0.015312155 0.0118782781 2.6894016266 4.7009148598 54.135105133 56.236801147 12.420269012 40.498363495 51.111698151 172.39465332
 3708.5019531 -0.148399994 12.101600647 12.250000954 88.407707214 -0.016655503 0.0120589407 2.6904792786 4.7098221779 53.205501556 56.108501434 12.337985992 41.034767151 57.914600372 203.35136414
 3708.6542969 -0.148399994 12.101600647 12.250000954 88.479774475 -0.016812252 0.0142244771 2.6839895248 4.6543107033 53.580802917 56.608100891 12.021691322 40.742931366 55.868499756 189.55044556
 3708.8066406 -0.148399994 12.101600647 12.250000954 88.551620483 -0.016969252 0.0163944773 2.6773896217 4.5987110138 53.956604004 57.107700348 11.704792023 40.450630188 53.822399139 175.72753906
 3708.9589844 -0.148399994 12.101600647 12.250000954 88.623893738 -0.017126521 0.0185627621 2.6708979607 4.5432109833 54.333557129 57.607398987 11.387864113 40.158245087 51.776401520 161.87873840
 3709.1115723 -0.148399994 12.101600647 12.250000954 88.752449036 -0.017452234 0.0196632519 2.6696021557 4.5501956940 55.432964325 58.143600464 11.052608490 39.873600006 44.974300385 131.81674194
 3709.2639160 -0.148399994 12.101600647 12.250000954 88.901481628 -0.017837618 0.0203661285 2.6703011990 4.5801482201 56.794784546 58.693500519 10.711853027 39.592849731 36.410198212 95.887527466
 3709.4162598 -0.148399994 12.101600647 12.250000954 89.050788879 -0.018223466 0.0210697390 2.6709992886 4.6100821495 58.156936646 59.243301392 10.370746613 39.312389374 27.846000671 59.927143097
 3709.5686035 -0.148399994 12.101600647 12.250000954 89.218154907 -0.018514279 0.0215312652 2.6705968380 4.5989007950 58.363563538 59.522300720 10.150485039 39.494400024 23.612100601 40.392856598
 3709.7211914 -0.148399994 12.101600647 12.250000954 89.408416748 -0.018688558 0.0216965247 2.6686937809 4.5370025635 57.151828766 59.468601227 10.078269005 40.244495392 24.695899963 40.992115021
 3709.8735352 -0.148399994 12.101600647 12.250000954 89.597999573 -0.018861990 0.0218598209 2.6667983532 4.4754629135 55.944408417 59.414901733 10.006360054 40.991970062 25.779699326 41.590888977
 3710.0258789 -0.148399994 12.101600647 12.250000954 89.739013672 -0.018854562 0.0217466336 2.6657040119 4.4524674416 54.952724457 59.283702850 9.9820365906 41.594314575 26.693399429 43.149951935
 3710.1782227 -0.148499995 12.101499557 12.250000954 89.640258789 -0.017957564 0.0202706344 2.6683042049 4.6194677353 55.031425476 58.768699646 10.191936493 41.477512360 26.764499664 49.423049927
 3710.3305664 -0.148499995 12.101499557 12.250000954 89.541175842 -0.017061561 0.0187946353 2.6710040569 4.7863674164 55.110126495 58.253799438 10.401836395 41.360813141 26.835599899 55.696052551
 3710.4831543 -0.148599997 12.101395607 12.250000954 89.449111938 -0.016170073 0.0173184909 2.6736021042 4.9533481598 55.188045502 57.738800049 10.611606598 41.243927002 26.906600952 61.960617065
 3710.6354980 -0.150199994 12.099797249 12.250000954 91.589851379 -0.017441481 0.0165358838 2.6743006706 5.0307059288 54.983013153 57.650199890 10.676174164 41.158771515 26.872100830 62.433578491
 3710.7878418 -0.151899993 12.098097801 12.250000954 94.018661499 -0.018989481 0.0158398841 2.6747007370 5.0968060493 54.741516113 57.615898132 10.722474098 41.077369690 26.824100494 62.170879364
 3710.9401855 -0.153699994 12.096301079 12.250000954 96.445869446 -0.020536130 0.0151441237 2.6751949787 5.1628813744 54.500236511 57.581501007 10.768714905 40.996063232 26.776100159 61.907661438
 3711.0927734 -0.153400004 12.096605301 12.250000954 97.676971436 -0.021241505 0.0145965600 2.6720833778 5.2137312889 54.397758484 57.517601013 10.840581894 40.909812927 27.347999573 61.320156097
 3711.2451172 -0.151700005 12.098302841 12.250000954 98.130317688 -0.021399256 0.0141472798 2.6668913364 5.2546658516 54.385181427 57.434600830 10.928641319 40.820755005 28.324062347 60.525924683
 3711.3974609 -0.150000006 12.100001335 12.250000954 98.582160950 -0.021557968 0.0136987399 2.6615948677 5.2955288887 54.372264862 57.351501465 11.016795158 40.732540131 29.297254562 59.734603882
 3711.5498047 -0.148800001 12.101200104 12.250000954 97.435462952 -0.021537373 0.0135376984 2.6584017277 5.2508459091 54.099201202 57.248298645 11.076300621 41.321384430 29.453243256 61.616966248
 3711.7023926 -0.148699999 12.101301193 12.250000954 92.980186462 -0.021144748 0.0139743928 2.6594030857 5.0292925835 53.287605286 57.103603363 11.076802254 43.311859131 27.918395996 69.034500122
