# LAS format log file from PETREL
# Project units are specified as depth units
#==================================================================
~Version information
VERS.   2.0:
WRAP.   NO:
#==================================================================
~Well
STRT .m      2126.7421875 :
STOP .m      3314.5480957 :
STEP .m     0.00000000 :
NULL .        -999.250000 :
COMP.           : COMPANY
WELL.  7/8-1   : WELL
FLD.            : FIELD
LOC.            : LOCATION
SRVC.           : SERVICE COMPANY
DATE.  2018-09-11 21:49:23   : Log Export Date {yyyy-MM-dd HH:mm:ss}
PROV.           : PROVINCE
UWI.   7/8-1   : UNIQUE WELL ID
API.            : API NUMBER
#==================================================================
~Curve
DEPT .m                   : DEPTH
CALI .in                  : CALI
DRHO .g/cm3               : DRHO
NPHI .m3/m3               : NPHI
RHOB .g/cm3               : RHOB
GR .gAPI                  : GR
DTC .us/ft                : DTC
RDEP .ohm.m               : RDEP
SP .mV                    : SP
RSHA .ohm.m               : RSHA
RMIC .ohm.m               : RMIC
RMED .ohm.m               : RMED
~Parameter
#==================================================================
~Ascii
# ...
 2911.7546387 8.5649995804  -999.250000  -999.250000  -999.250000 11.277000427 58.096866608 29.349100113 82.282997131 2.7287900448  -999.250000 1.5796999931
 2911.9069824 8.5649995804  -999.250000  -999.250000  -999.250000 10.411999702 58.080028534 65.891799927 78.020835876 2.7290000916  -999.250000 1.7723000050
 2912.0593262 8.5509996414  -999.250000  -999.250000  -999.250000 10.505000114 58.554237366 90.068099976 78.036964417 2.7290000916  -999.250000 1.9722000360
 2912.2116699 8.5310001373  -999.250000  -999.250000  -999.250000 11.472999573 59.286651611 99.589302063 76.861968994 2.5994160175  -999.250000 2.1061000824
 2912.3642578 8.5249996185  -999.250000  -999.250000  -999.250000 12.333000183 59.781211853 99.552803040 74.175010681 2.4722034931  -999.250000 2.1870000362
 2912.5166016 8.5719995499  -999.250000  -999.250000  -999.250000 12.253999710 60.209312439 99.516197205 75.682777405 2.3012740612  -999.250000 2.2565999031
 2912.6689453 8.5909996033  -999.250000  -999.250000  -999.250000 11.965000153 60.493545532 99.479598999 77.223129272 2.1592273712  -999.250000 2.2967998981
 2912.8212891 8.5439996719  -999.250000  -999.250000  -999.250000 11.904999733 60.468082428 95.314796448 79.787475586 1.9506688118  -999.250000 2.3010001183
 2912.9738770 8.5399999619  -999.250000  -999.250000  -999.250000 11.918000221 61.353576660 69.523300171 81.301780701 1.3699311018  -999.250000 2.2713000774
 2913.1262207 8.5389995575  -999.250000  -999.250000  -999.250000 11.996999741 63.711219788 30.282499313 82.301795959 1.1054230928  -999.250000 2.2146000862
 2913.2785645 8.4829998016  -999.250000  -999.250000  -999.250000 12.038999557 66.401687622 9.0947999954 81.909934998 0.9133076668  -999.250000 2.1198000908
 2913.4309082 8.4029998779  -999.250000  -999.250000  -999.250000 11.706000328 69.689727783 3.9017999172 79.101211548 0.8540945053  -999.250000 2.0330998898
 2913.5832520 8.3859996796  -999.250000  -999.250000  -999.250000 10.734999657 72.335525513 2.0288999081 77.985168457 0.7622944117  -999.250000 1.8658000231
 2913.7358398 8.4049997330  -999.250000  -999.250000  -999.250000 9.8979997635 73.974380493 1.3845000267 76.860198975 0.7230625153  -999.250000 1.7070000172
 2913.8881836 8.4270000458  -999.250000  -999.250000  -999.250000 9.6599998474 74.988380432 1.0368000269 78.887145996 0.7249968052  -999.250000 1.5539000034
 2914.0405273 8.4449996948  -999.250000  -999.250000  -999.250000 10.032999992 75.692871094 0.8432999849 79.500526428 0.7269967794  -999.250000 1.2960000038
 2914.1928711 8.4449996948  -999.250000  -999.250000  -999.250000 10.670000076 76.108673096 0.6500999928 79.643142700 0.7289935946  -999.250000 1.1463999748
 2914.3454590 8.4239997864  -999.250000  -999.250000  -999.250000 11.302000046 75.965225220 0.5070999861 80.495033264 0.7289999723  -999.250000 1.0168000460
 2914.4978027 8.4350004196  -999.250000  -999.250000  -999.250000 11.541999817 75.132331848 0.4151000082 82.016555786 0.8128654361  -999.250000 0.9527999759
 2914.6501465 8.4289999008  -999.250000  -999.250000  -999.250000 10.817000389 73.917945862 0.3321999907 81.404182434 0.8998605609  -999.250000 0.9193999767
 2914.8024902 8.4510002136  -999.250000  -999.250000  -999.250000 9.9600000381 71.718055725 0.3018999994 81.728752136 0.9817376137  -999.250000 0.9057000279
 2914.9550781 8.4110002518  -999.250000  -999.250000  -999.250000 9.5719995499 68.271522522 0.3158000112 78.948066711 1.1207772493  -999.250000 0.8996000290
 2915.1074219 8.3149995804  -999.250000  -999.250000  -999.250000 9.9890003204 65.289779663 0.3334999979 84.927497864 1.1739151478  -999.250000 0.9082999825
 2915.2597656 8.3350000381  -999.250000  -999.250000  -999.250000 10.317000389 63.198348999 0.3628000021 78.862098694 1.2728413343  -999.250000 0.9379000068
 2915.4121094 8.4600000381  -999.250000  -999.250000  -999.250000 10.321000099 61.772285461 0.3998000026 75.961700439 1.5315848589  -999.250000 0.9984999895
 2915.5646973 8.5260000229  -999.250000  -999.250000  -999.250000 10.699000359 61.048156738 0.4724999964 82.043800354 1.7516479492  -999.250000 1.0694999695
 2915.7170410 8.5489997864  -999.250000  -999.250000  -999.250000 10.168000221 60.561779022 0.6040999889 84.085998535 2.0305528641  -999.250000 1.1763000488
 2915.8693848 8.5200004578  -999.250000  -999.250000  -999.250000 8.9490003586 59.626495361 0.8159999847 83.805999756 2.2636265755  -999.250000 1.2882000208
 2916.0217285 8.5570001602  -999.250000  -999.250000  -999.250000 8.4659996033 58.754394531 1.1126999855 83.302101135 2.5555319786  -999.250000 1.3473000526
 2916.1740723 8.5830001831  -999.250000  -999.250000  -999.250000 8.8190002441 58.059226990 1.7755999565 82.528999329 2.9158449173  -999.250000 1.4622000456
 2916.3266602 8.6140003204  -999.250000  -999.250000  -999.250000 9.8420000076 57.426017761 3.3972001076 82.045700073 3.1346507072  -999.250000 1.6636999846
 2916.4790039 8.6709995270  -999.250000  -999.250000  -999.250000 10.260999680 57.528831482 6.0025000572 81.217300415 3.3576426506  -999.250000 1.8473999500
 2916.6313477 8.7069997787  -999.250000  -999.250000  -999.250000 9.8900003433 58.131034851 17.589300156 80.566398621 3.5437018871  -999.250000 1.9258999825
 2916.7836914 8.7010002136  -999.250000  -999.250000  -999.250000 8.4829998016 58.642364502 33.613201141 79.423599243 3.6666064262  -999.250000 1.9925999641
 2916.9362793 8.7110004425  -999.250000  -999.250000  -999.250000 7.8289999962 58.792762756 35.621700287 77.024101257 3.8177580833  -999.250000 2.1747999191
 2917.0886230 8.7030000687  -999.250000  -999.250000  -999.250000 8.2220001221 58.791999817 26.779300690 76.345199585 3.9128477573  -999.250000 2.3334000111
 2917.2409668 8.6140003204  -999.250000  -999.250000  -999.250000 8.8420000076 58.531414032 19.060600281 78.976600647 4.0517773628  -999.250000 2.4916000366
 2917.3933105 8.6289997101  -999.250000  -999.250000  -999.250000 8.6879997253 58.396430969 14.619999886 79.801200867 4.0829010010  -999.250000 2.5864000320
 2917.5458984 8.6800003052  -999.250000  -999.250000  -999.250000 8.9040002823 58.769401550 12.064599991 74.167900085 4.0859951973  -999.250000 2.6789999008
 2917.6982422 8.6870002747  -999.250000  -999.250000  -999.250000 9.9200000763 59.524787903 10.563400269 74.561302185 4.0859999657  -999.250000 2.7716000080
 2917.8505859 8.6870002747  -999.250000  -999.250000  -999.250000 11.949999809 60.518405914 9.6992998123 75.803298950 4.0869984627  -999.250000 2.8638999462
 2918.0029297 8.6870002747  -999.250000  -999.250000  -999.250000 12.755000114 61.186927795 8.7157001495 75.932800293 4.0071282387  -999.250000 2.9270000458
 2918.1552734 8.6820001602  -999.250000  -999.250000  -999.250000 12.343999863 61.620613098 7.5619001389 76.503601074 3.9471919537  -999.250000 2.9525001049
 2918.3078613 8.6079998016  -999.250000  -999.250000  -999.250000 11.751000404 61.888568878 6.9232001305 69.608299255 3.8591411114  -999.250000 2.9523999691
 2918.4602051 8.5419998169  -999.250000  -999.250000  -999.250000 11.722999573 61.494632721 6.5658001900 72.534500122 3.6982579231  -999.250000 2.9523000717
 2918.6125488 8.6040000916  -999.250000  -999.250000  -999.250000 11.965999603 61.179504395 6.3289999962 73.983299255 3.6121377945  -999.250000 2.9521999359
 2918.7648926 8.6190004349  -999.250000  -999.250000  -999.250000 12.064000130 60.944751740 6.1090998650 75.202400208 3.6010353565  -999.250000 2.9447999001
 2918.9174805 8.6319999695  -999.250000  -999.250000  -999.250000 11.637999535 61.205581665 5.7424998283 74.334899902 3.4342677593  -999.250000 2.9207999706
 2919.0698242 8.5699996948  -999.250000  -999.250000  -999.250000 10.576999664 61.771091461 5.2026000023 73.977897644 3.3830816746  -999.250000 2.8866000175
 2919.2221680 8.5270004272  -999.250000  -999.250000  -999.250000 10.184000015 62.366046906 4.6226000786 73.492996216 3.3620336056  -999.250000 2.8468999863
 2919.3745117 8.5270004272  -999.250000  -999.250000  -999.250000 10.192999840 62.680992126 4.2312002182 73.887603760 3.3629968166  -999.250000 2.8087999821
