# LAS format log file from PETREL
# Project units are specified as depth units
#==================================================================
~Version information
VERS.   2.0:
WRAP.   NO:
#==================================================================
~Well
STRT .m      2126.7421875 :
STOP .m      3314.5480957 :
STEP .m     0.00000000 :
NULL .        -999.250000 :
COMP.           : COMPANY
WELL.  7/8-1   : WELL
FLD.            : FIELD
LOC.            : LOCATION
SRVC.           : SERVICE COMPANY
DATE.  2018-09-11 21:49:23   : Log Export Date {yyyy-MM-dd HH:mm:ss}
PROV.           : PROVINCE
UWI.   7/8-1   : UNIQUE WELL ID
API.            : API NUMBER
#==================================================================
~Curve
DEPT .m                   : DEPTH
CALI .in                  : CALI
DRHO .g/cm3               : DRHO
NPHI .m3/m3               : NPHI
RHOB .g/cm3               : RHOB
GR .gAPI                  : GR
DTC .us/ft                : DTC
RDEP .ohm.m               : RDEP
SP .mV                    : SP
RSHA .ohm.m               : RSHA
RMIC .ohm.m               : RMIC
RMED .ohm.m               : RMED
~Parameter
#==================================================================
~Ascii
# ...
 2756.3066406 12.125000000 -0.003995193 0.2324000001 2.2920000553 10.309000015 81.971015930 0.4652999938 81.029571533 0.8440272212 0.5816501975 0.7325999737
 2756.4589844 12.166000366 -0.005996795 0.2416000068 2.2830142975 10.119000435 81.500755310 0.4559000134 81.632133484 0.8290240169 0.6279258132 0.7210999727
 2756.6113281 12.208999634 -0.005001602 0.2372999936 2.2810029984 9.5889997482 81.395164490 0.4463999867 81.526664734 0.8210127950 0.6366860271 0.7131000161
 2756.7636719 12.248999596 -0.001012800 0.2333000004 2.2869806290 9.2519998550 81.393005371 0.4370000064 80.937095642 0.8130255938 0.7424604893 0.7056000233
 2756.9162598 12.288999557 0.0039919876 0.2371000051 2.2929904461 9.1149997711 81.508819580 0.4388999939 80.712959290 0.8070095778 0.6632277369 0.7002999783
 2757.0686035 12.347999573 0.0059967949 0.2504000068 2.2900047302 9.2720003128 81.871429443 0.4427999854 80.446929932 0.8040048480 0.6034956574 0.6988999844
 2757.2209473 12.394000053 0.0069983979 0.2381000072 2.2810142040 9.4799995422 82.267364502 0.4467000067 79.730255127 0.8010048270 0.7113267779 0.6988000274
 2757.3732910 12.418000221 0.0070000002 0.2232999951 2.2770063877 9.8020000458 82.600463867 0.4507000148 79.634452820 0.8049935699 0.6981214285 0.6966000199
 2757.5258789 12.437001228 0.0070000002 0.2146999985 2.2760016918 10.364000320 82.727790833 0.4569999874 80.158363342 0.8079952002 0.4485000074 0.6923999786
 2757.6782227 12.454999924 0.0070000002 0.2140000015 2.2750017643 10.027999878 82.480400085 0.4765999913 79.941047668 0.8119935393 0.4966221154 0.6883999705
 2757.8305664 12.475999832 0.0030064103 0.2154999971 2.2889776230 8.4770002365 82.045692444 0.5030000210 79.624412537 0.8169919848 0.5956411958 0.6855000257
 2757.9829102 12.501999855 -0.005985577 0.2152000070 2.2969870567 7.9569997787 81.785423279 0.5289000273 79.575477600 0.8219920397 0.7426642776 0.6851000190
 2758.1352539 12.527000427 -0.008990400 0.2108000070 2.3179328442 8.9560003281 81.448074341 0.5526000261 80.087257385 0.8279808164 0.7196745872 0.6856999993
 2758.2878418 12.546999931 -0.009000000 0.2179999948 2.3219935894 10.118000031 80.826988220 0.5746999979 79.999046326 0.8339903951 0.6864532232 0.6883999705
 2758.4401855 12.559999466 -0.004008013 0.2192000002 2.3289887905 10.925000191 79.765701294 0.6021999717 79.634788513 0.8310047984 0.7150539756 0.6927999854
 2758.5925293 12.562999725 -0.005996795 0.2082999945 2.3280017376 11.119999886 79.435523987 0.6128000021 79.170349121 0.8240112066 0.8695520759 0.6959999800
 2758.7448730 12.583000183 -0.007993600 0.2028000057 2.3240127563 11.076999664 79.106056213 0.5997999907 79.858489990 0.8040640354 0.9053857327 0.6959000230
 2758.8974609 12.602999687 -0.005004807 0.2073999941 2.3170111179 10.951999664 79.608192444 0.5867999792 80.365188599 0.7810368538 0.7020265460 0.6906999946
 2759.0498047 12.616999626 -0.001006410 0.2155999988 2.3110096455 10.390000343 81.777519226 0.5720999837 80.975021362 0.7660239935 0.6112452149 0.6808999777
 2759.2021484 12.633000374 0.0029935897 0.2207999974 2.2990193367 11.151000023 83.671966553 0.5514000058 81.784805298 0.7560160160 0.5604812503 0.6668999791
 2759.3544922 12.642999649 0.0049935998 0.2220000029 2.2880353928 12.503000259 84.205299377 0.5213000178 82.154518127 0.7420448065 0.5360780954 0.6498000026
 2759.5070801 12.641999245 0.0030032052 0.2234999985 2.2800128460 12.161999702 84.200004578 0.4984999895 82.355781555 0.7280223966 0.5591627955 0.6347000003
 2759.6594238 12.651000023 0.0010032052 0.2282000035 2.2730112076 11.513999939 84.193008423 0.4817000031 82.424194336 0.7100288272 0.5793676376 0.6211000085
 2759.8117676 12.658999443 0.0049935896 0.2236000001 2.2769935131 12.015000343 84.414642334 0.4629999995 82.480606079 0.6970208883 0.5815964937 0.6110000014
 2759.9641113 12.677000046 0.0030032052 0.2293999940 2.2730064392 12.663999557 84.689559937 0.4544000030 81.680084229 0.6870160103 0.5062209964 0.6068999767
 2760.1164551 12.689000130 -0.003977600 0.2418999970 2.2720031738 12.753000259 85.032897949 0.4542999864 81.470474243 0.6750383973 0.5226469040 0.6029000282
 2760.2690430 12.690999985 0.0029887820 0.2545000017 2.2739968300 12.512000084 85.279602051 0.4607999921 81.485374451 0.6630192399 0.5539498329 0.5988000035
 2760.4213867 12.670000076 0.0089903846 0.2592999935 2.2809886932 12.057000160 85.385841370 0.4709999859 81.574256897 0.6590064168 0.5091719627 0.5968000293
 2760.5737305 12.647000313 0.0189839732 0.2687000036 2.2899856567 11.458000183 85.211280823 0.4805000126 81.972557068 0.6609967947 0.5314640999 0.5960000157
 2760.7260742 12.645001411 0.0130192004 0.2705999911 2.2840192318 11.755999565 84.794334412 0.4887000024 81.579666138 0.6610000134 0.5198374391 0.5970000029
 2760.8786621 12.656000137 0.0080080135 0.2531999946 2.2830016613 12.802000046 83.909416199 0.4952999949 81.740341187 0.6580048203 0.5021283627 0.6000000238
 2761.0310059 12.630999565 0.0050048074 0.2258999944 2.2790064812 12.284000397 82.868667603 0.4991999865 81.978820801 0.6540064216 0.5506221056 0.6021999717
 2761.1833496 12.631999016 -0.003985577 0.2161000073 2.2790000439 11.343999863 82.176116943 0.4991999865 81.584930420 0.6520032287 0.5881398916 0.6032000184
 2761.3356934 12.642999649 -0.004996800 0.2228000015 2.2919585705 10.269000053 82.068344116 0.4968000054 82.375457764 0.6510032415 0.6519951820 0.6050000191
 2761.4882813 12.564999580 -0.000008013 0.2322999984 2.3019840717 9.3620004654 82.548233032 0.4948999882 82.183815002 0.6490032077 0.6445123553 0.6058999896
 2761.6406250 12.569999695 0.0039935899 0.2428999990 2.3039968014 9.4689998627 83.375671387 0.4936000109 81.944885254 0.6569871902 0.5831984282 0.6051999927
 2761.7929688 12.542999268 0.0040000002 0.2477999926 2.2930176258 10.309000015 84.002990723 0.4936999977 81.625808716 0.6689807773 0.5685234070 0.6047999859
 2761.9453125 12.534999847 0.0000064103 0.2419999987 2.2720336914 11.262999535 83.970062256 0.4973999858 81.594253540 0.6809807420 0.5150856972 0.6055999994
 2762.0976563 12.520999908 0.0039872001 0.2319999933 2.2720000744 12.017000198 83.937103271 0.5011000037 81.539978027 0.7009359598 0.5067265630 0.6068999767
 2762.2502441 12.468999863 0.0089919865 0.2299000025 2.2729983330 12.190999985 83.153259277 0.5012000203 80.804603577 0.7219663262 0.5508291721 0.6129000187
 2762.4025879 12.421999931 -0.001982372 0.2298000008 2.2789905071 12.121999741 82.233474731 0.5062000155 80.806503296 0.7429662943 0.6603243351 0.6227999926
 2762.5549316 12.373999596 0.0019935898 0.2205000073 2.2949743271 12.498000145 81.328460693 0.5212000012 81.006896973 0.7649646997 0.7524524331 0.6337000132
 2762.7072754 12.338998795 -0.002984000 0.2097000033 2.3049681187 12.373999596 80.514610291 0.5236999989 81.008903503 0.7869296074 0.8637431860 0.6445000172
 2762.8598633 12.308000565 -0.004996795 0.2029999942 2.3089935780 11.880999565 80.398185730 0.5214999914 81.010902405 0.8059695363 0.6737055779 0.6506000161
 2763.0122070 12.282999992 -0.002004808 0.1991000026 2.3109970093 11.595999718 80.284179688 0.5314000249 80.887100220 0.8189791441 0.5777535439 0.6518999934
 2763.1645508 12.260999680 0.0139743593 0.1965000033 2.3159918785 11.642999649 80.402809143 0.5412999988 81.213302612 0.8329775929 0.5763021111 0.6527000070
 2763.3168945 12.223999977 0.0110096000 0.1988999993 2.3140063286 11.727000237 80.179718018 0.5511999726 81.140296936 0.8549296260 0.5907536149 0.6553999782
 2763.4694824 12.187000275 -0.000980769 0.2043000013 2.3040158749 11.779000282 79.763664246 0.5609999895 80.856399536 0.8799599409 0.6484075785 0.6618999839
 2763.6218262 12.156000137 -0.001000000 0.2076999992 2.3059968948 11.680000305 79.233848572 0.5709000230 80.822402954 0.9119487405 0.6890349388 0.6725000143
 2763.7741699 12.133000374 0.0059887823 0.2115000039 2.3119904995 11.489000320 78.677894592 0.5807999969 80.625999451 0.9519359469 0.6924945712 0.6866000295
 2763.9265137 12.116999626 -0.001987180 0.2108000070 2.3189888000 11.277999878 78.114898682 0.5957000256 80.629898071 0.9859455228 0.7659820318 0.7035999894
