# LAS format log file from PETREL
# Project units are specified as depth units
#==================================================================
~Version information
VERS.   2.0:
WRAP.   NO:
#==================================================================
~Well
STRT .m      1216.1519775 :
STOP .m      3001.3652344 :
STEP .m     0.00000000 :
NULL .        -999.250000 :
COMP.           : COMPANY
WELL.  7/8-2 Cero   : WELL
FLD.            : FIELD
LOC.            : LOCATION
SRVC.           : SERVICE COMPANY
DATE.  2018-09-11 21:49:23   : Log Export Date {yyyy-MM-dd HH:mm:ss}
PROV.           : PROVINCE
UWI.   7/8-2   : UNIQUE WELL ID
API.            : API NUMBER
#==================================================================
~Curve
DEPT .m                   : DEPTH
CALI .in                  : CALI
BS .in                    : BS
DRHO .g/cm3               : DRHO
RHOB .g/cm3               : RHOB
GR .gAPI                  : GR
DTC .us/ft                : DTC
RDEP .ohm.m               : RDEP
SP .mV                    : SP
RSHA .ohm.m               : RSHA
RMED .ohm.m               : RMED
~Parameter
#==================================================================
~Ascii
 1216.1519775 13.781298637 12.250000954  -999.250000  -999.250000 62.042999268 177.51908875 1.0721000433 -38.83620071 1.2201000452 1.1481000185
 1216.3043213 13.762599945 12.250000954  -999.250000  -999.250000 61.782398224 177.40669250 1.0631999969 -38.89759827 1.2161999941 1.1483000517
 1216.4567871 13.743900299 12.250000954  -999.250000  -999.250000 61.521701813 177.29438782 1.0542999506 -38.95899963 1.2122999430 1.1483999491
 1216.6091309 13.719400406 12.250000954  -999.250000  -999.250000 61.657398224 177.32905579 1.0641000271 -38.80369949 1.2118999958 1.1457999945
 1216.7615967 13.692601204 12.250000954  -999.250000  -999.250000 61.949798584 177.42208862 1.0812000036 -38.56269836 1.2129000425 1.1419999599
 1216.9139404 13.665800095 12.250000954  -999.250000  -999.250000 62.242298126 177.51501465 1.0982999802 -38.32160187 1.2139999866 1.1382000446
 1217.0664063 13.637599945 12.250000954  -999.250000  -999.250000 62.924400330 177.19909668 1.1095999479 -38.20320129 1.2159999609 1.1378999949
 1217.2187500 13.607399940 12.250000954  -999.250000  -999.250000 64.111297607 176.35397339 1.1132999659 -38.24349976 1.2190999985 1.1420999765
 1217.3712158 13.577300072 12.250000954  -999.250000  -999.250000 65.298103333 175.50761414 1.1168999672 -38.28379822 1.2223000526 1.1463999748
 1217.5235596 13.551200867 12.250000954  -999.250000  -999.250000 66.298896790 174.88110352 1.1196000576 -38.32960129 1.2249000072 1.1500999928
 1217.6760254 13.547599792 12.250000954  -999.250000  -999.250000 66.284301758 175.44740295 1.1161999702 -38.40499878 1.2245999575 1.1512000561
 1217.8283691 13.543999672 12.250000954  -999.250000  -999.250000 66.269798279 176.01383972 1.1129000187 -38.48049927 1.2243000269 1.1524000168
 1217.9808350 13.540300369 12.250000954  -999.250000  -999.250000 66.255203247 176.58120728 1.1095000505 -38.55599976 1.2238999605 1.1534999609
 1218.1331787 13.427599907 12.250000954  -999.250000  -999.250000 67.171401978 177.61177063 1.0965000391 -38.52590179 1.2170000076 1.1552000046
 1218.2855225 13.299199104 12.250000954  -999.250000  -999.250000 68.221801758 178.71011353 1.0821000338 -38.48049927 1.2092000246 1.1569000483
 1218.4379883 13.170900345 12.250000954  -999.250000  -999.250000 69.272201538 179.80841064 1.0676000118 -38.43519974 1.2013000250 1.1586999893
 1218.5903320 13.091799736 12.250000954  -999.250000  -999.250000 69.534400940 180.34107971 1.0650000572 -38.46730042 1.1943999529 1.1591999531
 1218.7427979 13.046399117 12.250000954  -999.250000  -999.250000 69.256103516 180.48550415 1.0705000162 -38.55260086 1.1880999804 1.1590000391
 1218.8951416 13.001099586 12.250000954  -999.250000  -999.250000 68.977798462 180.62925720 1.0758999586 -38.63779831 1.1818000078 1.1588000059
 1219.0476074 12.954000473 12.250000954  -999.250000  -999.250000 68.723602295 179.99909973 1.0868999958 -38.72579956 1.1792000532 1.1576000452
 1219.1999512 12.902799606 12.250000954  -999.250000  -999.250000 68.522102356 177.66607666 1.1098999977 -38.81999969 1.1848000288 1.1541999578
 1219.3524170 12.851598740 12.250000954  -999.250000  -999.250000 68.320602417 175.32929993 1.1328999996 -38.91429901 1.1904000044 1.1507999897
 1219.5047607 12.803400040 12.250000954  -999.250000  -999.250000 68.112396240 173.02134705 1.1543999910 -39.00709915 1.1960999966 1.1476000547
 1219.6572266 12.848299980 12.250000954  -999.250000  -999.250000 67.695098877 171.48210144 1.1303000450 -39.05630112 1.2067999840 1.1483999491
 1219.8095703 12.893300056 12.250000954  -999.250000  -999.250000 67.277900696 169.94593811 1.1060999632 -39.10549927 1.2175999880 1.1492999792
 1219.9620361 12.938199997 12.250000954  -999.250000  -999.250000 66.860603333 168.40730286 1.0820000172 -39.15470123 1.2282999754 1.1502000093
 1220.1143799 12.964500427 12.250000954  -999.250000  -999.250000 67.619697571 168.36703491 1.0542999506 -39.01119995 1.2108999491 1.1541999578
 1220.2668457 12.984600067 12.250000954  -999.250000  -999.250000 68.769500732 168.82400513 1.0253000259 -38.80360031 1.1842000484 1.1591999531
 1220.4191895 13.004600525 12.250000954  -999.250000  -999.250000 69.919197083 169.28063965 0.9962999821 -38.59600067 1.1574000120 1.1641000509
 1220.5715332 13.013499260 12.250000954  -999.250000  -999.250000 70.576599121 170.44387817 0.9751999974 -38.46379852 1.1374000311 1.1633000374
 1220.7239990 13.009698868 12.250000954  -999.250000  -999.250000 70.678100586 172.40463257 0.9631000161 -38.41680145 1.1248999834 1.1557999849
 1220.8763428 13.005800247 12.250000954  -999.250000  -999.250000 70.779701233 174.36602783 0.9509000182 -38.36980057 1.1124000549 1.1483000517
 1221.0288086 12.990099907 12.250000954  -999.250000  -999.250000 71.130897522 175.39169312 0.9448999763 -38.34090042 1.1029000282 1.1388000250
 1221.1811523 12.923299789 12.250000954  -999.250000  -999.250000 72.553703308 172.39550781 0.9652000070 -38.38970184 1.1062999964 1.1208000183
 1221.3336182 12.856399536 12.250000954  -999.250000  -999.250000 73.976402283 169.39448547 0.9855999947 -38.43849945 1.1096999645 1.1026999950
 1221.4859619 12.789500237 12.250000954  -999.250000  -999.250000 75.399200439 166.39830017 1.0060000420 -38.48730087 1.1131000519 1.0846999884
 1221.6384277 12.766401291 12.250000954  -999.250000  -999.250000 77.316596985 164.82629395 1.0235999823 -38.71530151 1.1172000170 1.0806000233
 1221.7907715 12.747799873 12.250000954  -999.250000  -999.250000 79.284103394 163.40234375 1.0408999920 -38.96149826 1.1213999987 1.0779999495
 1221.9432373 12.729100227 12.250000954  -999.250000  -999.250000 81.251602173 161.97610474 1.0582000017 -39.20759964 1.1255999804 1.0752999783
 1222.0955811 12.694499969 12.250000954  -999.250000  -999.250000 81.867797852 160.14186096 1.0686000586 -39.35689926 1.1310000420 1.0810999870
 1222.2480469 12.650400162 12.250000954  -999.250000  -999.250000 81.681297302 158.06071472 1.0749000311 -39.44860077 1.1371999979 1.0918999910
 1222.4003906 12.606300354 12.250000954  -999.250000  -999.250000 81.494697571 155.98255920 1.0812000036 -39.54019928 1.1433999538 1.1025999784
 1222.5527344 12.576299667 12.250000954  -999.250000  -999.250000 80.929801941 154.56562805 1.0873999596 -39.58349991 1.1512000561 1.1111999750
 1222.7052002 12.572699547 12.250000954  -999.250000  -999.250000 79.651199341 154.39944458 1.0935000181 -39.53549957 1.1620999575 1.1154999733
 1222.8575439 12.569199562 12.250000954  -999.250000  -999.250000 78.372596741 154.23425293 1.0995999575 -39.48740005 1.1729999781 1.1198999882
 1223.0100098 12.564800262 12.250000954  -999.250000  -999.250000 77.001602173 154.06820679 1.1053999662 -39.44359970 1.1832000017 1.1239999533
 1223.1623535 12.547299385 12.250000954  -999.250000  -999.250000 74.313796997 153.89294434 1.1057000160 -39.45869827 1.1838999987 1.1258000135
 1223.3148193 12.529899597 12.250000954  -999.250000  -999.250000 71.626098633 153.71739197 1.1060999632 -39.47380066 1.1845999956 1.1275999546
 1223.4671631 12.512500763 12.250000954  -999.250000  -999.250000 68.938301086 153.54214478 1.1065000296 -39.48889923 1.1852999926 1.1294000149
 1223.6196289 12.503700256 12.250000954  -999.250000  -999.250000 69.105903625 153.27630615 1.1013000011 -39.49950027 1.1833000183 1.1338000298
 1223.7719727 12.497300148 12.250000954  -999.250000  -999.250000 70.056503296 152.98603821 1.0945999622 -39.50889969 1.1806000471 1.1389000416
 1223.9244385 12.490899086 12.250000954  -999.250000  -999.250000 71.007102966 152.69540405 1.0879000425 -39.51819992 1.1778999567 1.1440999508
 1224.0767822 12.477398872 12.250000954  -999.250000  -999.250000 72.042503357 152.93539429 1.0805000067 -39.40810013 1.1727999449 1.1486999989
 1224.2292480 12.456898689 12.250000954  -999.250000  -999.250000 73.161598206 153.69830322 1.0722999573 -39.18040085 1.1655000448 1.1526999474
 1224.3815918 12.436499596 12.250000954  -999.250000  -999.250000 74.280700684 154.46051025 1.0642000437 -38.95270157 1.1582000256 1.1567000151
 1224.5339355 12.420900345 12.250000954  -999.250000  -999.250000 74.954498291 154.96768188 1.0576000214 -38.78630066 1.1500999928 1.1603000164
