# LAS format log file from PETREL
# Project units are specified as depth units
#==================================================================
~Version information
VERS.   2.0:
WRAP.   NO:
#==================================================================
~Well
STRT .m      1216.1519775 :
STOP .m      3001.3652344 :
STEP .m     0.00000000 :
NULL .        -999.250000 :
COMP.           : COMPANY
WELL.  7/8-2 Cero   : WELL
FLD.            : FIELD
LOC.            : LOCATION
SRVC.           : SERVICE COMPANY
DATE.  2018-09-11 21:49:23   : Log Export Date {yyyy-MM-dd HH:mm:ss}
PROV.           : PROVINCE
UWI.   7/8-2   : UNIQUE WELL ID
API.            : API NUMBER
#==================================================================
~Curve
DEPT .m                   : DEPTH
CALI .in                  : CALI
BS .in                    : BS
DRHO .g/cm3               : DRHO
RHOB .g/cm3               : RHOB
GR .gAPI                  : GR
DTC .us/ft                : DTC
RDEP .ohm.m               : RDEP
SP .mV                    : SP
RSHA .ohm.m               : RSHA
RMED .ohm.m               : RMED
~Parameter
#==================================================================
~Ascii
# ...
 2991.3068848 9.1902999878 8.5000000000  -999.250000  -999.250000 34.265251160 81.739425659 1.2770962715 -21.50132561 1.4482504129 1.8041700125
 2991.4592285 9.2481002808 8.5000000000  -999.250000  -999.250000 36.851810455 84.651466370 1.2170922756 -21.67275047 1.4169005156 1.7606394291
 2991.6118164 9.2615003586 8.5000000000  -999.250000  -999.250000 37.454444885 85.299179077 1.2162010670 -21.83893394 1.4126067162 1.7257558107
 2991.7641602 9.2588996887 8.5000000000  -999.250000  -999.250000 37.331096649 85.118392944 1.2369666100 -22.00273705 1.4182908535 1.6941506863
 2991.9165039 9.2562999725 8.5000000000  -999.250000  -999.250000 37.206600189 84.936286926 1.2577666044 -22.16653633 1.4240907431 1.6625506878
 2992.0688477 9.2628002167 8.5000000000  -999.250000  -999.250000 37.745368958 84.922439575 1.2631827593 -22.28173256 1.4323734045 1.6441588402
 2992.2214355 9.2802000046 8.5000000000  -999.250000  -999.250000 39.085552216 85.110893250 1.2502208948 -22.33900833 1.4437817335 1.6417038441
 2992.3737793 9.2976999283 8.5000000000  -999.250000  -999.250000 40.426151276 85.299697876 1.2371209860 -22.39600754 1.4551817179 1.6393038034
 2992.5261230 9.3098001480 8.5000000000  -999.250000  -999.250000 41.605411530 85.484802246 1.2247198820 -22.40688324 1.4599922895 1.6383014917
 2992.6784668 9.2962999344 8.5000000000  -999.250000  -999.250000 42.014247894 85.652336121 1.2148158550 -22.19763565 1.4326438904 1.6439908743
 2992.8310547 9.2827997208 8.5000000000  -999.250000  -999.250000 42.421848297 85.819831848 1.2050157785 -21.98803520 1.4052438736 1.6495910883
 2992.9833984 9.2692003250 8.5000000000  -999.250000  -999.250000 42.829349518 85.987335205 1.1952157021 -21.77843475 1.3779437542 1.6552908421
 2993.1357422 9.2574996948 8.5000000000  -999.250000  -999.250000 41.801052094 86.172203064 1.1939020157 -22.00633430 1.3584312201 1.6375285387
 2993.2880859 9.2460002899 8.5000000000  -999.250000  -999.250000 40.597229004 86.359100342 1.1936005354 -22.28764915 1.3398298025 1.6168330908
 2993.4404297 9.2344999313 8.5000000000  -999.250000  -999.250000 39.394954681 86.545806885 1.1933009624 -22.56859970 1.3213592768 1.5961662531
 2993.5930176 9.1773996353 8.5000000000  -999.250000  -999.250000 39.553241730 86.911109924 1.1998894215 -22.43820953 1.3331809044 1.5756329298
 2993.7453613 9.0915002823 8.5000000000  -999.250000  -999.250000 40.582248688 87.389526367 1.2107825279 -22.04473114 1.3644498587 1.5551328659
 2993.8977051 9.0054998398 8.5000000000  -999.250000  -999.250000 41.612648010 87.868125916 1.2217823267 -21.65083122 1.3957498074 1.5347326994
 2994.0500488 8.9472999573 8.5000000000  -999.250000  -999.250000  -999.250000 87.802803040 1.2390446663 -21.29822922 1.4225143194 1.5322079659
 2994.2026367 8.9451999664 8.5000000000  -999.250000  -999.250000  -999.250000 86.635574341 1.2692515850 -21.02703285 1.4403715134 1.5661455393
 2994.3549805 8.9429998398 8.5000000000  -999.250000  -999.250000  -999.250000 85.466773987 1.2994515896 -20.75653267 1.4580715895 1.6001455784
 2994.5073242 8.9412002563 8.5000000000  -999.250000  -999.250000  -999.250000 84.362068176 1.3293520212 -20.50939751 1.4753721952 1.6336463690
 2994.6596680 8.9455995560 8.5000000000  -999.250000  -999.250000  -999.250000 84.480514526 1.3514293432 -20.70746231 1.4824771881 1.6577228308
 2994.8122559 8.9498996735 8.5000000000  -999.250000  -999.250000  -999.250000 84.601211548 1.3736644983 -20.90688133 1.4896883965 1.6817615032
 2994.9645996 8.9541997910 8.5000000000  -999.250000  -999.250000  -999.250000 84.721801758 1.3958644867 -21.10598183 1.4968883991 1.7058613300
 2995.1169434 8.9622001648 8.5000000000  -999.250000  -999.250000  -999.250000 84.667778015 1.5024290085 -21.43487167 1.5522111654 1.7205764055
 2995.2692871 8.9713001251 8.5000000000  -999.250000  -999.250000  -999.250000 84.561065674 1.6345881224 -21.80290985 1.6220879555 1.7325807810
 2995.4216309 8.9804000854 8.5000000000  -999.250000  -999.250000  -999.250000 84.454345703 1.7664772272 -22.17032242 1.6917766333 1.7444620132
 2995.5742188 8.9907999039 8.5000000000  -999.250000  -999.250000  -999.250000 83.701705933 2.0731084347 -22.23150444 1.8176981211 1.7710573673
 2995.7265625 9.0026998520 8.5000000000  -999.250000  -999.250000  -999.250000 82.271194458 2.5626151562 -21.96932220 2.0023040771 1.8130326271
 2995.8789063 9.0145998001 8.5000000000  -999.250000  -999.250000  -999.250000 80.839599609 3.0524151325 -21.70652199 2.1869041920 1.8550326824
 2996.0312500 9.0215997696 8.5000000000  -999.250000  -999.250000  -999.250000 79.037475586 3.6776950359 -21.50484657 2.5183367729 1.9389308691
 2996.1838379 9.0100002289 8.5000000000  -999.250000  -999.250000  -999.250000 75.801689148 4.8271579742 -21.53505135 3.4139640331 2.1836078167
 2996.3361816 8.9983997345 8.5000000000  -999.250000  -999.250000  -999.250000 72.566390991 5.9764580727 -21.56585121 4.3100638390 2.4283077717
 2996.4885254 8.9868001938 8.5000000000  -999.250000  -999.250000  -999.250000 69.331184387 7.1256585121 -21.59665108 5.2061638832 2.6731078625
 2996.6408691 8.9552001953 8.5000000000  -999.250000  -999.250000  -999.250000 64.701049805 9.1475152969 -21.66547966 7.5760965347 3.4398398399
 2996.7934570 8.9221000671 8.5000000000  -999.250000  -999.250000  -999.250000 59.942512512 11.246641159 -21.73768425 10.073103905 4.2513017654
 2996.9458008 8.8888998032 8.5000000000  -999.250000  -999.250000  -999.250000 55.191215515 13.342640877 -21.80978394 12.566504478 5.0616016388
 2997.0981445 8.8816995621 8.5000000000  -999.250000  -999.250000  -999.250000 53.156055450 14.643017769 -21.84504318 14.619811058 6.1478586197
 2997.2504883 8.8887996674 8.5000000000  -999.250000  -999.250000  -999.250000 52.615863800 15.505619049 -21.86007500 16.430698395 7.3858160973
 2997.4028320 8.8958997726 8.5000000000  -999.250000  -999.250000  -999.250000 52.078819275 16.366041183 -21.87515259 18.238405228 8.6221370697
 2997.5554199 8.9001998901 8.5000000000  -999.250000  -999.250000  -999.250000 51.426143646 16.975826263 -21.87350273 19.699863434  -999.250000
 2997.7077637 8.8998003006 8.5000000000  -999.250000  -999.250000  -999.250000 50.575862885 17.142633438 -21.84294891 20.544948578  -999.250000
 2997.8601074 8.8993997574 8.5000000000  -999.250000  -999.250000  -999.250000 49.725162506 17.308732986 -21.81225014 21.389047623  -999.250000
 2998.0124512 8.8985004425 8.5000000000  -999.250000  -999.250000  -999.250000 48.919277191 17.427021027 -21.79186440 22.184850693  -999.250000
 2998.1650391 8.8921003342 8.5000000000  -999.250000  -999.250000  -999.250000 48.585830688 17.025444031 -21.88245583 22.468948364  -999.250000
 2998.3173828 8.8856000900 8.5000000000  -999.250000  -999.250000  -999.250000 48.254329681 16.622844696 -21.97325516 22.751047134  -999.250000
 2998.4697266 8.8791999817 8.5000000000  -999.250000  -999.250000  -999.250000 47.922824860 16.220245361 -22.06405449 23.033147812  -999.250000
 2998.6220703 8.8825998306 8.5000000000  -999.250000  -999.250000  -999.250000 48.108501434 16.074865341 -22.14434242 23.267747879  -999.250000
 2998.7746582 8.8884000778 8.5000000000  -999.250000  -999.250000  -999.250000 48.422397614 15.992431641 -22.22247505 23.491340637  -999.250000
 2998.9270020 8.8942003250 8.5000000000  -999.250000  -999.250000  -999.250000 48.736095428 15.910331726 -22.30037689 23.714641571  -999.250000
 2999.0793457 8.8964004517 8.5000000000  -999.250000  -999.250000  -999.250000 49.331745148 16.465709686 -22.32875443 23.998844147  -999.250000
 2999.2316895 8.8950996399 8.5000000000  -999.250000  -999.250000  -999.250000 50.185729980 17.605072021 -22.31192589 24.339054108  -999.250000
 2999.3840332 8.8938999176 8.5000000000  -999.250000  -999.250000  -999.250000 51.038764954 18.743650436 -22.29505348 24.678710938  -999.250000
 2999.5366211 8.8930997849 8.5000000000  -999.250000  -999.250000  -999.250000 51.860584259 20.000988007 -22.31546783 25.097330093  -999.250000
 2999.6889648 8.8936996460 8.5000000000  -999.250000  -999.250000  -999.250000 52.574554443 21.618606567 -22.45307922 25.760137558  -999.250000
