# LAS format log file from PETREL
# Project units are specified as depth units
#==================================================================
~Version information
VERS.   2.0:
WRAP.   NO:
#==================================================================
~Well
STRT .m      2127.0468750 :
STOP .m      3314.3952637 :
STEP .m     0.00000000 :
NULL .        -999.250000 :
COMP.           : COMPANY
WELL.  7/8-1 T2   : WELL
FLD.            : FIELD
LOC.            : LOCATION
SRVC.           : SERVICE COMPANY
DATE.  2018-09-11 21:49:23   : Log Export Date {yyyy-MM-dd HH:mm:ss}
PROV.           : PROVINCE
UWI.   7/8-1 T2   : UNIQUE WELL ID
API.            : API NUMBER
#==================================================================
~Curve
DEPT .m                   : DEPTH
CALI .in                  : CALI
BS .in                    : BS
DRHO .g/cm3               : DRHO
NPHI .m3/m3               : NPHI
RHOB .g/cm3               : RHOB
GR .gAPI                  : GR
DTC .us/ft                : DTC
RDEP .ohm.m               : RDEP
SP .mV                    : SP
RSHA .ohm.m               : RSHA
RMIC .ohm.m               : RMIC
RMED .ohm.m               : RMED
~Parameter
#==================================================================
~Ascii
# ...
 2675.6867676 11.557699203 8.5000000000 -0.001141026 0.1814009994 2.3636999130 11.650484085 85.113250732 1.1217000484 78.585800171 1.6050000191 1.2023999691 1.2718000412
 2675.8391113 11.578500748 8.5000000000 0.0028589743 0.1816619933 2.3631000519 11.311635017 85.934318542 1.0849000216 78.597801208 1.5647000074 1.1244000196 1.2429000139
 2675.9916992 11.599200249 8.5000000000 0.0039648004 0.1819240004 2.3624999523 11.176505089 86.326156616 1.0480999947 78.609901428 1.5245000124 1.0463000536 1.2138999701
 2676.1440430 11.626799583 8.5000000000 0.0049647433 0.1900310069 2.3513998985 10.947215080 86.799575806 0.9981999993 78.793998718 1.4937000275 1.0161999464 1.1856000423
 2676.2963867 11.654700279 8.5000000000 0.0049999999 0.1985950023 2.3396000862 10.519336700 87.046493530 0.9476000071 78.988098145 1.4636000395 0.9887999892 1.1574000120
 2676.4487305 11.682700157 8.5000000000 0.0030705128 0.2071599960 2.3278000355 9.8055257797 87.054901123 0.8970000148 79.182197571 1.4334000349 0.9613999724 1.1291999817
 2676.6010742 11.706399918 8.5000000000 0.0001057692 0.2150419950 2.3169999123 9.3034172058 87.609710693 0.8578000069 79.376502991 1.4033999443 0.9422000051 1.1035000086
 2676.7536621 11.727999687 8.5000000000 0.0009648001 0.2225790024 2.3068997860 10.145636559 87.995567322 0.8244000077 79.570800781 1.3734999895 0.9272000194 1.0789999962
 2676.9060059 11.749500275 8.5000000000 0.0067884619 0.2301149964 2.2967000008 11.432130814 88.238990784 0.7908999920 79.765098572 1.3436000347 0.9121000171 1.0546000004
 2677.0583496 11.780200005 8.5000000000 0.0098942304 0.2345860004 2.2915000916 12.233393669 88.247398376 0.7652999759 79.972198486 1.3190000057 0.9126999974 1.0342999697
 2677.2106934 11.825600624 8.5000000000 0.0022820514 0.2341219932 2.2943000793 12.426935196 88.570678711 0.7519999743 80.199996948 1.3028999567 0.9384999871 1.0209000111
 2677.3632813 11.870900154 8.5000000000 0.0000704000 0.2336580008 2.2971000671 12.297927856 88.719505310 0.7387999892 80.427696228 1.2869000435 0.9642999768 1.0074000359
 2677.5156250 11.910600662 8.5000000000 0.0086826915 0.2337320000 2.3001000881 12.730993271 88.724502563 0.7264000177 80.627197266 1.2724000216 0.9789999723 0.9948999882
 2677.6679688 11.900500298 8.5000000000 0.0099647436 0.2385270000 2.3052000999 14.156490326 88.494308472 0.7210999727 80.578002930 1.2716000080 0.8959000111 0.9904999733
 2677.8203125 11.890399933 8.5000000000 0.0138589749 0.2433210015 2.3103001118 14.986548424 88.716087341 0.7157999873 80.528800964 1.2709000111 0.8127999902 0.9861999750
 2677.9729004 11.880299568 8.5000000000 0.0284719989 0.2481160015 2.3153998852 15.094113350 88.817222595 0.7105000019 80.479698181 1.2700999975 0.7297000289 0.9818000197
 2678.1252441 11.865099907 8.5000000000 0.0425064117 0.2414389998 2.3173000813 15.009207726 88.727890015 0.7185000181 80.330596924 1.2659000158 0.6938999891 0.9832000136
 2678.2775879 11.848798752 8.5000000000 0.0391410254 0.2322710007 2.3185000420 14.681846619 88.494308472 0.7293999791 80.159896851 1.2609000206 0.6683999896 0.9858999848
 2678.4299316 11.832401276 8.5000000000 0.0119871795 0.2231020033 2.3197000027 13.591416359 88.716087341 0.7402999997 79.989196777 1.2560000420 0.6428999901 0.9884999990
 2678.5825195 11.811300278 8.5000000000 0.0032692307 0.2138990015 2.3222999573 11.684053421 88.817367554 0.7540000081 79.923698425 1.2654999495 0.6924999952 0.9940000176
 2678.7348633 11.786000252 8.5000000000 -0.001824000 0.2046680003 2.3259999752 10.555790901 88.267578125 0.7700999975 79.947502136 1.2875000238 0.8058000207 1.0017999411
 2678.8872070 11.760700226 8.5000000000 -0.004894231 0.1954369992 2.3297998905 10.654957771 86.636764526 0.7863000035 79.971298218 1.3093999624 0.9192000031 1.0096999407
 2679.0395508 11.741399765 8.5000000000 -0.005000000 0.1893279999 2.3331000805 11.060368538 85.197341919 0.8083000183 80.017402649 1.3327000141 1.0116000175 1.0198999643
 2679.1918945 11.739299774 8.5000000000 -0.002105769 0.1921139956 2.3354001045 11.330657005 83.637069702 0.8474000096 80.127098083 1.3596999645 1.0443999767 1.0369000435
 2679.3444824 11.737098694 8.5000000000 0.0028240001 0.1948989928 2.3375999928 11.413325310 83.020767212 0.8865000010 80.236701965 1.3868000507 1.0772000551 1.0539000034
 2679.4968262 11.734900475 8.5000000000 -0.000858974 0.1976850033 2.3397998810 11.159378052 83.230392456 0.9254999757 80.346298218 1.4138000011 1.1101000309 1.0708999634
 2679.6491699 11.731201172 8.5000000000 -0.001000000 0.1971379966 2.3382999897 10.821022034 83.698982239 0.9337999821 80.447502136 1.4225000143 1.0863000154 1.0780999660
 2679.8015137 11.727299690 8.5000000000 0.0028589743 0.1965200007 2.3366000652 10.738574028 83.025520325 0.9413999915 80.548400879 1.4307999611 1.0614000559 1.0850000381
 2679.9541016 11.723500252 8.5000000000 0.0068592001 0.1959020048 2.3348999023 11.021580696 82.412734985 0.9490000010 80.649398804 1.4392000437 1.0363999605 1.0920000076
 2680.1064453 11.717200279 8.5000000000 0.0166474376 0.1899590045 2.3401000500 11.680308342 81.828369141 0.9532999992 80.937896729 1.4398000240 1.0630999804 1.0931999683
 2680.2587891 11.709699631 8.5000000000 0.0044583334 0.1817139983 2.3482000828 12.833714485 83.878631592 0.9560999870 81.307403564 1.4370000362 1.1119999886 1.0918999910
 2680.4111328 11.702299118 8.5000000000 -0.006612180 0.1734690070 2.3564000130 13.054442406 82.343666077 0.9588999748 81.677001953 1.4342999458 1.1608999968 1.0907000303
 2680.5637207 11.697600365 8.5000000000 -0.016663462 0.1717759967 2.3578999043 12.208683014 78.705841064 0.9600999951 82.068801880 1.4299999475 1.1902999878 1.0902999640
 2680.7160645 11.696999550 8.5000000000 -0.008316800 0.1792310029 2.3503000736 11.911750793 78.702766418 0.9588000178 82.491600037 1.4236999750 1.1922999620 1.0910999775
 2680.8684082 11.696299553 8.5000000000 -0.001246795 0.1866859943 2.3427999020 12.315875053 79.397476196 0.9574999809 82.914398193 1.4174000025 1.1943999529 1.0917999744
 2681.0207520 11.695299149 8.5000000000 -0.006788462 0.1937550008 2.3366999626 12.440016747 79.882881165 0.9563999772 83.273200989 1.4108999968 1.1957000494 1.0930000544
 2681.1730957 11.692500114 8.5000000000 -0.003141026 0.1983820051 2.3401999474 11.917249680 80.695327759 0.9559999704 83.227203369 1.4034999609 1.1923999786 1.0972000360
 2681.3256836 11.689700127 8.5000000000 0.0018240000 0.2030089945 2.3438000679 11.103969574 80.619041443 0.9556999803 83.181297302 1.3960000277 1.1891000271 1.1013000011
 2681.4780273 11.687000275 8.5000000000 0.0087532047 0.2076359987 2.3473000526 10.976595879 81.305480957 0.9552999735 83.135299683 1.3884999752 1.1858999729 1.1054999828
 2681.6303711 11.675298691 8.5000000000 0.0138237188 0.2099539936 2.3454000950 11.503608704 82.021072388 0.9549000263 83.001502991 1.3875000477 1.1390999556 1.1046999693
 2681.7827148 11.662098885 8.5000000000 0.0168942325 0.2118819952 2.3426001072 11.614650726 82.506484985 0.9545000196 82.852897644 1.3876999617 1.0850000381 1.1030000448
 2681.9353027 11.648899078 8.5000000000 0.0160352010 0.2138109952 2.3397998810 11.601597786 81.476974487 0.9541000128 82.704200745 1.3877999783 1.0309000015 1.1014000177
 2682.0876465 11.644000053 8.5000000000 0.0053878203 0.2145799994 2.3385000229 11.929978371 81.334518433 0.9520999789 82.613098145 1.3851000071 1.0204000473 1.0958000422
 2682.2399902 11.645401001 8.5000000000 -0.002717949 0.2144919932 2.3382999897 12.004708290 82.251167297 0.9491000175 82.564598083 1.3802000284 1.0421999693 1.0872000456
 2682.3923340 11.646699905 8.5000000000 -0.001070513 0.2144040018 2.3380000591 11.197580338 83.665344238 0.9459999800 82.516098022 1.3753999472 1.0641000271 1.0786000490
 2682.5449219 11.642000198 8.5000000000 0.0028653846 0.2145500034 2.3368999958 10.008384705 83.816490173 0.9430000186 82.462196350 1.3681000471 1.0866999626 1.0706000328
 2682.6972656 11.622599602 8.5000000000 0.0010704000 0.2152580023 2.3336000443 9.4460430145 83.259262085 0.9399999976 82.395599365 1.3551000357 1.1114000082 1.0640000105
 2682.8496094 11.603299141 8.5000000000 -0.007682693 0.2159660012 2.3303000927 10.002951622 80.937782288 0.9369999766 82.329002380 1.3420000076 1.1360000372 1.0573999882
