# LAS format log file from PETREL
# Project units are specified as depth units
#==================================================================
~Version information
VERS.   2.0:
WRAP.   NO:
#==================================================================
~Well
STRT .m      1216.1519775 :
STOP .m      3001.3652344 :
STEP .m     0.00000000 :
NULL .        -999.250000 :
COMP.           : COMPANY
WELL.  7/8-2 Cero   : WELL
FLD.            : FIELD
LOC.            : LOCATION
SRVC.           : SERVICE COMPANY
DATE.  2018-09-11 21:49:23   : Log Export Date {yyyy-MM-dd HH:mm:ss}
PROV.           : PROVINCE
UWI.   7/8-2   : UNIQUE WELL ID
API.            : API NUMBER
#==================================================================
~Curve
DEPT .m                   : DEPTH
CALI .in                  : CALI
BS .in                    : BS
DRHO .g/cm3               : DRHO
RHOB .g/cm3               : RHOB
GR .gAPI                  : GR
DTC .us/ft                : DTC
RDEP .ohm.m               : RDEP
SP .mV                    : SP
RSHA .ohm.m               : RSHA
RMED .ohm.m               : RMED
~Parameter
#==================================================================
~Ascii
# ...
 1805.0255127 12.338000298 12.250000954  -999.250000  -999.250000 96.529167175 143.50030518 0.5783048272 -37.50125122 0.7660021186 0.7504982352
 1805.1778564 12.326199532 12.250000954  -999.250000  -999.250000 96.508216858 143.41477966 0.5723048449 -37.48351669 0.7619032860 0.7516990304
 1805.3303223 12.314299583 12.250000954  -999.250000  -999.250000 96.487213135 143.32887268 0.5663048029 -37.46591568 0.7578032613 0.7528990507
 1805.4826660 12.302499771 12.250000954  -999.250000  -999.250000 96.466217041 143.24307251 0.5602048635 -37.44831467 0.7537032962 0.7541989684
 1805.6351318 12.321399689 12.250000954  -999.250000  -999.250000 96.721191406 142.87338257 0.5710912943 -37.63455200 0.7567974925 0.7608946562
 1805.7874756 12.344400406 12.250000954  -999.250000  -999.250000 97.011367798 142.46731567 0.5841895342 -37.84682846 0.7607967854 0.7681941390
 1805.9399414 12.367300034 12.250000954  -999.250000  -999.250000 97.301673889 142.06132507 0.5971895456 -38.05912781 0.7647967935 0.7755941153
 1806.0922852 12.387499809 12.250000954  -999.250000  -999.250000 96.151321411 142.40872192 0.6266763210 -38.21737289 0.7688966990 0.7764992714
 1806.2447510 12.405900002 12.250000954  -999.250000  -999.250000 94.064369202 143.24592590 0.6667678952 -38.34040070 0.7730966806 0.7733025551
 1806.3970947 12.424301147 12.250000954  -999.250000  -999.250000 91.976669312 144.08352661 0.7069678307 -38.46330261 0.7771967053 0.7702025175
 1806.5494385 12.437700272 12.250000954  -999.250000  -999.250000 88.573654175 142.45941162 0.7413449287 -38.58200836 0.7854866982 0.7735945582
 1806.7019043 12.440799713 12.250000954  -999.250000  -999.250000 82.432617188 135.72560120 0.7640818357 -38.69221115 0.8021866083 0.7907862067
 1806.8542480 12.443900108 12.250000954  -999.250000  -999.250000 76.297134399 128.99449158 0.7868634462 -38.80232620 0.8189731240 0.8080722690
 1807.0067139 12.446800232 12.250000954  -999.250000  -999.250000 70.432189941 122.60382843 0.8076832891 -38.90481567 0.8357865214 0.8252862096
 1807.1590576 12.446800232 12.250000954  -999.250000  -999.250000 70.577957153 123.73727417 0.7882312536 -38.84189987 0.8521736860 0.8411745429
 1807.3115234 12.446900368 12.250000954  -999.250000  -999.250000 70.728874207 124.87869263 0.7687156200 -38.77885056 0.8686867952 0.8570872545
 1807.4638672 12.446900368 12.250000954  -999.250000  -999.250000 70.879577637 126.01918793 0.7492156029 -38.71574783 0.8851867914 0.8729872704
 1807.6163330 12.474900246 12.250000954  -999.250000  -999.250000 75.789161682 129.93127441 0.7285165787 -38.51066589 0.8771064878 0.8614093065
 1807.7686768 12.511599541 12.250000954  -999.250000  -999.250000 82.174377441 134.70266724 0.7073169947 -38.26149750 0.8614125848 0.8413161039
 1807.9211426 12.548299789 12.250000954  -999.250000  -999.250000 88.560791016 139.47488403 0.6861169934 -38.01229858 0.8457126021 0.8212161064
 1808.0734863 12.569100380 12.250000954  -999.250000  -999.250000 91.944892883 141.64405823 0.6702127457 -37.75350571 0.8304122686 0.8085101843
 1808.2259521 12.572999954 12.250000954  -999.250000  -999.250000 92.112266541 141.02430725 0.6599082351 -37.48451233 0.8155119419 0.8036039472
 1808.3782959 12.576800346 12.250000954  -999.250000  -999.250000 92.276969910 140.40240479 0.6496082544 -37.21541595 0.8007118702 0.7987039089
 1808.5306396 12.573300362 12.250000954  -999.250000  -999.250000 92.325325012 139.88832092 0.6410137415 -37.03838348 0.7900171280 0.7959044576
 1808.6831055 12.540499687 12.250000954  -999.250000  -999.250000 91.914527893 139.79797363 0.6390016079 -37.22394943 0.7961950302 0.8012956381
 1808.8354492 12.507599831 12.250000954  -999.250000  -999.250000 91.503555298 139.70843506 0.6369033456 -37.40970230 0.8022902012 0.8066913486
 1808.9879150 12.474800110 12.250000954  -999.250000  -999.250000 91.091697693 139.61888123 0.6348016858 -37.59575272 0.8083950877 0.8120956421
 1809.1402588 12.508600235 12.250000954  -999.250000  -999.250000 93.044403076 139.03872681 0.6333023906 -37.65560532 0.8177849054 0.8129985929
 1809.2927246 12.548000336 12.250000954  -999.250000  -999.250000 95.199096680 138.41529846 0.6319011450 -37.70466232 0.8274922371 0.8134995699
 1809.4450684 12.587400436 12.250000954  -999.250000  -999.250000 97.353897095 137.79229736 0.6304011941 -37.75356293 0.8371922374 0.8139995933
 1809.5975342 12.597500801 12.250000954  -999.250000  -999.250000 97.586601257 137.88542175 0.6378939748 -37.82064819 0.8440944552 0.8217937350
 1809.7498779 12.591000557 12.250000954  -999.250000  -999.250000 96.740097046 138.38140869 0.6503899693 -37.89783859 0.8495956063 0.8335905075
 1809.9023438 12.584600449 12.250000954  -999.250000  -999.250000 95.893699646 138.87760925 0.6628899574 -37.97493744 0.8549956679 0.8454904556
 1810.0546875 12.586199760 12.250000954  -999.250000  -999.250000 94.212501526 137.65968323 0.6806857586 -38.05723572 0.8696882129 0.8588892817
 1810.2071533 12.602299690 12.250000954  -999.250000  -999.250000 91.044700623 133.38751221 0.7078782320 -38.14862823 0.9007750750 0.8746873736
 1810.3594971 12.618301392 12.250000954  -999.250000  -999.250000 87.876899719 129.11282349 0.7349783182 -38.24002838 0.9319750071 0.8905872703
 1810.5118408 12.633999825 12.250000954  -999.250000  -999.250000 84.881103516 125.35951233 0.7602594495 -38.33953857 0.9602547288 0.9055759907
 1810.6643066 12.646499634 12.250000954  -999.250000  -999.250000 83.897499084 127.66414642 0.7630977631 -38.53494263 0.9556037784 0.9115951657
 1810.8166504 12.658999443 12.250000954  -999.250000  -999.250000 82.913902283 129.97489929 0.7659953237 -38.73018646 0.9510073662 0.9175903797
 1810.9691162 12.671500206 12.250000954  -999.250000  -999.250000 81.930297852 132.28926086 0.7687977552 -38.92564392 0.9463037848 0.9234952927
 1811.1214600 12.664401054 12.250000954  -999.250000  -999.250000 84.629501343 133.25236511 0.7603135705 -38.76765060 0.9253336191 0.9080247879
 1811.2739258 12.652299881 12.250000954  -999.250000  -999.250000 88.261703491 133.87429810 0.7490090728 -38.51949692 0.9001201987 0.8870168328
 1811.4262695 12.640299797 12.250000954  -999.250000  -999.250000 91.893798828 134.49519348 0.7376091480 -38.27139664 0.8749201894 0.8660168052
 1811.5787354 12.622099876 12.250000954  -999.250000  -999.250000 93.544296265 134.62249756 0.7340028882 -38.07465744 0.8638088703 0.8578065634
 1811.7310791 12.598199844 12.250000954  -999.250000  -999.250000 93.344001770 134.28837585 0.7375971675 -37.92591858 0.8659982085 0.8616968989
 1811.8835449 12.574299812 12.250000954  -999.250000  -999.250000 93.143600464 133.95387268 0.7411971092 -37.77721786 0.8680983186 0.8655968904
 1812.0358887 12.560799599 12.250000954  -999.250000  -999.250000 93.501197815 133.72758484 0.7444973588 -37.62422180 0.8701983094 0.8683977127
 1812.1883545 12.581100464 12.250000954  -999.250000  -999.250000 95.663002014 133.85081482 0.7466982007 -37.45693207 0.8723981977 0.8682001829
 1812.3406982 12.601498604 12.250000954  -999.250000  -999.250000 97.824699402 133.97430420 0.7488982081 -37.28963470 0.8745982051 0.8679002523
 1812.4931641 12.621801376 12.250000954  -999.250000  -999.250000 99.986396790 134.09780884 0.7510982156 -37.12243271 0.8766983151 0.8677001595
 1812.6455078 12.634499550 12.250000954  -999.250000  -999.250000 99.381599426 133.56742859 0.7500008941 -37.24830246 0.8791979551 0.8722963333
 1812.7978516 12.646900177 12.250000954  -999.250000  -999.250000 98.647499084 133.00650024 0.7487021089 -37.38797379 0.8816959858 0.8771921396
 1812.9503174 12.659299850 12.250000954  -999.250000  -999.250000 97.913497925 132.44454956 0.7474009991 -37.52798843 0.8841979504 0.8820960522
 1813.1026611 12.662599564 12.250000954  -999.250000  -999.250000 96.374801636 132.07827759 0.7434063554 -37.61765671 0.8866959810 0.8848955035
 1813.2551270 12.661600113 12.250000954  -999.250000  -999.250000 94.447998047 131.80570984 0.7380043268 -37.68334579 0.8891979456 0.8866985440
 1813.4074707 12.660598755 12.250000954  -999.250000  -999.250000 92.521102905 131.53364563 0.7326086164 -37.74889374 0.8915961981 0.8884971142
