# LAS format log file from PETREL
# Project units are specified as depth units
#==================================================================
~Version information
VERS.   2.0:
WRAP.   NO:
#==================================================================
~Well
STRT .m      2126.7421875 :
STOP .m      3314.5480957 :
STEP .m     0.00000000 :
NULL .        -999.250000 :
COMP.           : COMPANY
WELL.  7/8-1   : WELL
FLD.            : FIELD
LOC.            : LOCATION
SRVC.           : SERVICE COMPANY
DATE.  2018-09-11 21:49:23   : Log Export Date {yyyy-MM-dd HH:mm:ss}
PROV.           : PROVINCE
UWI.   7/8-1   : UNIQUE WELL ID
API.            : API NUMBER
#==================================================================
~Curve
DEPT .m                   : DEPTH
CALI .in                  : CALI
DRHO .g/cm3               : DRHO
NPHI .m3/m3               : NPHI
RHOB .g/cm3               : RHOB
GR .gAPI                  : GR
DTC .us/ft                : DTC
RDEP .ohm.m               : RDEP
SP .mV                    : SP
RSHA .ohm.m               : RSHA
RMIC .ohm.m               : RMIC
RMED .ohm.m               : RMED
~Parameter
#==================================================================
~Ascii
# ...
 3308.1472168 16.037000656  -999.250000  -999.250000  -999.250000  -999.250000 187.14198303 0.2842999995 73.260101318 0.3639999926  -999.250000 0.4794000089
 3308.2995605 16.037000656  -999.250000  -999.250000  -999.250000  -999.250000 188.40499878 0.2466000021 73.446998596 0.3379999995  -999.250000 0.4005999863
 3308.4519043 16.028999329  -999.250000  -999.250000  -999.250000  -999.250000 188.89900208 0.2173999995 73.595802307 0.3039999902  -999.250000 0.3628999889
 3308.6042480 16.006999969  -999.250000  -999.250000  -999.250000  -999.250000 188.70100403 0.2057999969 73.543098450 0.2809999883  -999.250000 0.3404000103
 3308.7568359 15.996999741  -999.250000  -999.250000  -999.250000  -999.250000 187.50799561 0.1941999942 73.457801819 0.2720000148  -999.250000 0.3301999867
 3308.9091797 15.996000290  -999.250000  -999.250000  -999.250000  -999.250000 186.91200256 0.1846999973 73.759902954 0.2700000107  -999.250000 0.3213999867
 3309.0615234 15.996000290  -999.250000  -999.250000  -999.250000  -999.250000 187.11099243 0.1942999959 73.944000244 0.2649999857  -999.250000 0.3142000139
 3309.2138672 15.996000290  -999.250000  -999.250000  -999.250000  -999.250000 187.20399475 0.2045000046 74.036399841 0.2610000074  -999.250000 0.3120000064
 3309.3664551 16.000999451  -999.250000  -999.250000  -999.250000  -999.250000 187.48500061 0.2148000002 74.241401672 0.2579999864  -999.250000 0.3028999865
 3309.5187988 16.035999298  -999.250000  -999.250000  -999.250000  -999.250000 188.30499268 0.2249999940 74.249702454 0.2610000074  -999.250000 0.2969000041
 3309.6711426 15.996000290  -999.250000  -999.250000  -999.250000  -999.250000 187.09300232 0.2352000028 74.066902161 0.2680000067  -999.250000 0.2975000143
 3309.8234863 15.991000175  -999.250000  -999.250000  -999.250000  -999.250000 185.74499512 0.2453999966 73.881202698 0.2720000148  -999.250000 0.3009999990
 3309.9760742 15.956000328  -999.250000  -999.250000  -999.250000  -999.250000 185.28100586 0.2556000054 73.767997742 0.2680000067  -999.250000 0.3043999970
 3310.1284180 15.956000328  -999.250000  -999.250000  -999.250000  -999.250000 184.92599487 0.2657999992 73.638702393 0.2639999986  -999.250000 0.3000999987
 3310.2807617 15.994999886  -999.250000  -999.250000  -999.250000  -999.250000 184.90399170 0.2761000097 73.560600281 0.2560000122  -999.250000 0.3012999892
 3310.4331055 15.994999886  -999.250000  -999.250000  -999.250000  -999.250000 185.12600708 0.2856000066 73.545799255 0.2540000081  -999.250000 0.3104000092
 3310.5854492 15.994999886  -999.250000  -999.250000  -999.250000  -999.250000 184.72799683 0.2777000070 73.419998169 0.2579999864  -999.250000 0.3134999871
 3310.7380371 15.994999886  -999.250000  -999.250000  -999.250000  -999.250000 184.90800476 0.2680999935 73.495201111 0.2639999986  -999.250000 0.3127999902
 3310.8903809 15.994999886  -999.250000  -999.250000  -999.250000  -999.250000 185.62300110 0.2583999932 73.688499451 0.2820000052  -999.250000 0.3120000064
 3311.0427246 15.994999886  -999.250000  -999.250000  -999.250000  -999.250000 186.63699341 0.2487999946 73.813697815 0.3039999902  -999.250000 0.3113000095
 3311.1950684 15.994999886  -999.250000  -999.250000  -999.250000  -999.250000 187.70101929 0.2391999960 73.850700378 0.3240000010  -999.250000 0.3125000000
 3311.3476563 15.994999886  -999.250000  -999.250000  -999.250000  -999.250000 187.51300049 0.2294999957 73.850799561 0.3300000131  -999.250000 0.3165000081
 3311.5000000 15.994000435  -999.250000  -999.250000  -999.250000  -999.250000 186.99299622 0.2198999971 73.811996460 0.3350000083  -999.250000 0.3215000033
 3311.6523438 15.994000435  -999.250000  -999.250000  -999.250000  -999.250000 186.33299255 0.2169000059 73.715301514 0.3379999995  -999.250000 0.3262000084
 3311.8046875 15.994000435  -999.250000  -999.250000  -999.250000  -999.250000 184.92999268 0.2610999942 73.689002991 0.3389999866  -999.250000 0.3332999945
 3311.9572754 15.994000435  -999.250000  -999.250000  -999.250000  -999.250000 180.55599976 0.3052999973 73.588897705 0.3560000062  -999.250000 0.3544999957
 3312.1096191 15.994000435  -999.250000  -999.250000  -999.250000  -999.250000 182.54499817 0.3495000005 73.596397400 0.3899999857  -999.250000 0.3853999972
 3312.2619629 15.994000435  -999.250000  -999.250000  -999.250000  -999.250000  -999.250000 0.3937000036 73.765403748 0.3009999990  -999.250000 0.4063000083
 3312.4143066 15.954001427  -999.250000  -999.250000  -999.250000  -999.250000  -999.250000 0.4379000068 73.817596436 0.3280000091  -999.250000 0.4345000088
 3312.5668945 15.994000435  -999.250000  -999.250000  -999.250000  -999.250000  -999.250000 0.4815999866 73.464797974 0.3580000103  -999.250000 0.4758000076
 3312.7192383 15.993000031  -999.250000  -999.250000  -999.250000  -999.250000  -999.250000 0.5123000145 73.150299072 0.3759999871  -999.250000 0.5080999732
 3312.8715820 15.993000031  -999.250000  -999.250000  -999.250000  -999.250000  -999.250000 0.5266000032 73.432601929 0.3829999864  -999.250000 0.5275999904
 3313.0239258 15.958999634  -999.250000  -999.250000  -999.250000  -999.250000  -999.250000 0.5109000206 73.672798157 0.3829999864  -999.250000 0.5426999927
 3313.1762695 15.993000031  -999.250000  -999.250000  -999.250000  -999.250000  -999.250000 0.4968000054 73.882598877 0.3729999959  -999.250000 0.5446000099
 3313.3288574 15.993000031  -999.250000  -999.250000  -999.250000  -999.250000  -999.250000 0.4826999903 73.914703369 0.3700000048  -999.250000 0.5241000056
 3313.4812012 15.993000031  -999.250000  -999.250000  -999.250000  -999.250000  -999.250000 0.4686000049 73.931503296 0.3569999933  -999.250000 0.5091999769
 3313.6335449 15.993000031  -999.250000  -999.250000  -999.250000  -999.250000  -999.250000 0.4546000063 73.830398560 0.3459999859  -999.250000 0.4977999926
 3313.7858887 15.993000031  -999.250000  -999.250000  -999.250000  -999.250000  -999.250000 0.4404999912 73.682403564 0.3240000010  -999.250000 0.4668999910
 3313.9384766 15.993000031  -999.250000  -999.250000  -999.250000  -999.250000  -999.250000 0.4264000058 73.624496460 0.2820000052  -999.250000 0.4241999984
 3314.0908203 15.992000580  -999.250000  -999.250000  -999.250000  -999.250000  -999.250000 0.4171000123 73.456001282 0.2370000035  -999.250000 0.3919000030
 3314.2431641 15.992000580  -999.250000  -999.250000  -999.250000  -999.250000  -999.250000 0.4199000001 73.422203064 0.2169999927  -999.250000 0.3740000129
 3314.3955078 15.992000580  -999.250000  -999.250000  -999.250000  -999.250000  -999.250000 0.4226000011 73.498298645 0.2160000056  -999.250000 0.3607000113
 3314.5480957 16.031999588  -999.250000  -999.250000  -999.250000  -999.250000  -999.250000 0.4253999889 73.698997498 0.2160000056  -999.250000 0.3486999869
