# LAS format log file from PETREL
# Project units are specified as depth units
#==================================================================
~Version information
VERS.   2.0:
WRAP.   NO:
#==================================================================
~Well
STRT .m      2674.6198730 :
STOP .m      4399.4833984 :
STEP .m     0.00000000 :
NULL .        -999.250000 :
COMP.           : COMPANY
WELL.  7/8-4 T2   : WELL
FLD.            : FIELD
LOC.            : LOCATION
SRVC.           : SERVICE COMPANY
DATE.  2018-09-11 21:49:25   : Log Export Date {yyyy-MM-dd HH:mm:ss}
PROV.           : PROVINCE
UWI.   7/8-4 T2   : UNIQUE WELL ID
API.            : API NUMBER
#==================================================================
~Curve
DEPT .m                   : DEPTH
DCAL .in                  : DCAL
CALI .in                  : CALI
BS .in                    : BS
ROP .m/h                  : ROP
DRHO .g/cm3               : DRHO
NPHI .m3/m3               : NPHI
RHOB .g/cm3               : RHOB
PEF .b/e                  : PEF
GR .gAPI                  : GR
DTC .us/ft                : DTC
RDEP .ohm.m               : RDEP
SP .mV                    : SP
RSHA .ohm.m               : RSHA
RMED .ohm.m               : RMED
~Parameter
#==================================================================
~Ascii
# ...
 3249.4731445 -0.213699996 12.036362648 12.250000954 35.955432892 -0.024104714 0.1431098878 2.5258791447 12.993156433 47.064144135 66.271797180 1.4593669176 70.924407959 1.1950999498 1.2161252499
 3249.6254883 -0.193700001 12.056335449 12.250000954 34.743289948 -0.025888421 0.1259029508 2.5505466461 12.729716301 46.890346527 64.924499512 1.4802489281 71.611877441 3.3208999634 2.0355851650
 3249.7778320 -0.172199979 12.077834129 12.250000954 33.421440125 -0.028022422 0.1021629572 2.5796468258 12.428116798 46.733947754 63.220497131 1.5107489824 72.407577515 5.9154000282 3.0870850086
 3249.9301758 -0.150800005 12.099190712 12.250000954 32.100051880 -0.030157015 0.0784575343 2.6086881161 12.127318382 46.579017639 61.516601563 1.5413879156 73.201492310 8.5100002289 4.1369042397
 3250.0827637 -0.157299995 12.092601776 12.250000954 31.065717697 -0.032041337 0.0763527527 2.6011774540 12.327695847 47.279552460 61.216999054 1.5963416100 72.881362915 8.3906002045 4.1994261742
 3250.2351074 -0.187700003 12.062251091 12.250000954 30.278263092 -0.033706676 0.0924989134 2.5629386902 12.950399399 48.699478149 62.110500336 1.6717209816 71.621879578 5.9656000137 3.4276611805
 3250.3874512 -0.217999995 12.031975746 12.250000954 29.492015839 -0.035373863 0.1086648628 2.5246562958 13.573201180 50.120193481 63.004001617 1.7471839190 70.361007690 3.5406000614 2.6548850536
 3250.5397949 -0.233300015 12.016744614 12.250000954 30.249038696 -0.036534555 0.1210416257 2.4974064827 13.696226120 50.673343658 63.694198608 1.7994778156 69.556884766 1.6830999851 2.0222227573
 3250.6921387 -0.205400005 12.044644356 12.250000954 35.380599976 -0.036257558 0.1226776242 2.5014064312 12.402026176 48.766242981 63.805599213 1.7856780291 70.047584534 1.4423999786 1.7869229317
 3250.8447266 -0.177499995 12.072590828 12.250000954 40.520359039 -0.035981115 0.1243152320 2.5054128170 11.105658531 46.856098175 63.916900635 1.7719558477 70.539169312 1.2015999556 1.5512467623
 3250.9970703 -0.149599999 12.100446701 12.250000954 45.636211395 -0.035700593 0.1259159893 2.5094382763 9.8146934509 44.954372406 64.028297424 1.7585412264 71.029640198 0.9607999921 1.3178639412
 3251.1494141 -0.120700002 12.129346848 12.250000954 45.877513885 -0.032950506 0.1078143194 2.5333390236 9.3112201691 44.562625885 62.684398651 1.9714490175 71.866752625 1.6851999760 2.1065990925
 3251.3017578 -0.091700003 12.158348083 12.250000954 46.014324188 -0.030147510 0.0892903134 2.5577390194 8.8246202469 44.203224182 61.309398651 2.1892488003 72.711250305 2.4302999973 2.9171991348
 3251.4543457 -0.062799998 12.187252045 12.250000954 46.150810242 -0.027354497 0.0707783699 2.5821025372 8.3373813629 43.843872070 59.934398651 2.4082162380 73.554603577 3.1754999161 3.7270758152
 3251.6066895 -0.046300001 12.203718185 12.250000954 46.116622925 -0.028761171 0.0652871877 2.5828850269 7.8946194649 43.679870605 59.418598175 2.9127087593 73.588493347 3.1614999771 3.9062511921
 3251.7590332 -0.035200000 12.214818001 12.250000954 46.008029938 -0.031987172 0.0654041842 2.5735850334 7.4699192047 43.599670410 59.274299622 3.5421085358 73.272895813 2.8194000721 3.8134512901
 3251.9113770 -0.024100000 12.225919724 12.250000954 45.899211884 -0.035210997 0.0655182898 2.5642981529 7.0452303886 43.519866943 59.130104065 4.1708855629 72.957099915 2.4772999287 3.7211799622
 3252.0639648 -0.011600000 12.238445282 12.250000954 45.445846558 -0.037075914 0.0638165101 2.5631318092 6.6894721985 43.687633514 58.995601654 4.4727096558 72.581840515 2.4642999172 3.9601330757
 3252.2163086 0.0027999999 12.252822876 12.250000954 44.517864227 -0.037048955 0.0596062429 2.5730159283 6.4311857224 44.197620392 58.874599457 4.3197546005 72.126068115 2.9109001160 4.6568183899
 3252.3686523 0.0173000004 12.267312050 12.250000954 43.587860107 -0.037019935 0.0553910881 2.5829122066 6.1728177071 44.708309174 58.753700256 4.1664028168 71.669815063 3.3573999405 5.3542346954
 3252.5209961 0.0252000000 12.275146484 12.250000954 42.519870758 -0.036349475 0.0517074317 2.5904891491 6.1233177185 45.151432037 58.782501221 3.9806761742 71.364425659 3.6607000828 5.8732399940
 3252.6733398 -0.008200000 12.241746902 12.250000954 40.587123871 -0.031654473 0.0513514318 2.5836889744 7.3821167946 45.171428680 59.758800507 3.5913760662 72.004219055 3.0573000908 5.2742400169
 3252.8259277 -0.041700002 12.208192825 12.250000954 38.651290894 -0.026951976 0.0509948619 2.5767784119 8.6428279877 45.191463470 60.735099792 3.2014541626 72.645042419 2.4539000988 4.6742830276
 3252.9782715 -0.075099997 12.174864769 12.250000954 36.724060059 -0.022272121 0.0506630316 2.5699803829 9.8994960785 45.210716248 61.711399078 2.8129882813 73.282646179 1.8504999876 4.0762834549
 3253.1306152 -0.097400010 12.152566910 12.250000954 36.507659912 -0.022348408 0.0650390163 2.5577790737 11.082675934 44.785198212 62.412101746 2.5561237335 73.186050415 1.6656999588 3.5043909550
 3253.2829590 -0.117899999 12.132066727 12.250000954 36.579837799 -0.023227409 0.0818950161 2.5446786880 12.253075600 44.284599304 63.066303253 2.3214240074 72.965446472 1.5514999628 2.9370908737
 3253.4355469 -0.138300002 12.111654282 12.250000954 36.655010223 -0.024107873 0.0987415612 2.5314917564 13.420881271 43.785778046 63.720500946 2.0869204998 72.744056702 1.4372999668 2.3699197769
 3253.5878906 -0.152600005 12.097384453 12.250000954 37.522018433 -0.025004463 0.1042063162 2.5289080143 13.163999557 44.091545105 63.811298370 1.9999345541 72.387168884 1.4184999466 2.1268928051
 3253.7402344 -0.162300006 12.087684631 12.250000954 38.977725983 -0.025917465 0.1012833118 2.5339078903 11.853500366 44.992847443 63.485198975 2.0215349197 71.928764343 1.4701999426 2.1224927902
 3253.8925781 -0.172099993 12.077920914 12.250000954 40.432369232 -0.026829327 0.0983537287 2.5390148163 10.543050766 45.893997192 63.159099579 2.0433211327 71.470603943 1.5219000578 2.1183733940
 3254.0451660 -0.159099996 12.091116905 12.250000954 41.217876434 -0.027027195 0.0912768841 2.5482609272 9.2621488571 46.704185486 62.557701111 2.1194574833 71.162261963 1.7474999428 2.3535706997
 3254.1975098 -0.091399997 12.158708572 12.250000954 40.407161713 -0.025528595 0.0743939057 2.5673308372 8.0605716705 47.292644501 61.295097351 2.3246293068 71.211677551 2.3905000687 3.1555871964
 3254.3498535 -0.023800001 12.226306915 12.250000954 39.595005035 -0.024027670 0.0574842505 2.5865302086 6.8570971489 47.881893158 60.032501221 2.5301399231 71.261177063 3.0336000919 3.9588744640
 3254.5021973 0.0428000018 12.292779922 12.250000954 38.676738739 -0.022579314 0.0408184193 2.6054100990 5.6714034081 48.434986115 58.781795502 2.7430438995 71.309097290 3.6707999706 4.7531032562
 3254.6545410 0.0306000002 12.280579567 12.250000954 30.630805969 -0.024647314 0.0404564179 2.6116099358 5.6736040115 46.554687500 58.419300079 3.4568440914 71.245903015 3.8664999008 4.9423031807
 3254.8071289 0.0183000006 12.268260956 12.250000954 22.571693420 -0.026718622 0.0400938429 2.6179196835 5.6759071350 44.671283722 58.056800842 4.1718840599 71.182594299 4.0623002052 5.1317057610
 3254.9594727 0.0061000003 12.256077766 12.250000954 14.547495842 -0.028782154 0.0397236012 2.6241159439 5.6780962944 42.795722961 57.694198608 4.8846654892 71.119689941 4.2581000328 5.3254179955
 3255.1118164 -0.007400000 12.242577553 12.250000954 12.046478271 -0.029500362 0.0338543765 2.6340181828 5.6133575439 41.997856140 56.926700592 5.6744098663 71.241104126 6.9039001465 8.5206775665
 3255.2641602 -0.021400001 12.228576660 12.250000954 11.568459511 -0.029726362 0.0259773750 2.6453180313 5.5242571831 41.594856262 56.011001587 6.4918098450 71.429908752 10.445500374 12.812578201
 3255.4167480 -0.035399999 12.214572906 12.250000954 11.090961456 -0.029950561 0.0180951320 2.6566250324 5.4351005554 41.192501068 55.095298767 7.3114814758 71.617103577 13.987000465 17.123046875
 3255.5690918 -0.043600000 12.206398010 12.250000954 10.912366867 -0.029499963 0.0128376298 2.6644058228 5.4041628838 41.193386078 54.451999664 8.4294815063 71.242103577 16.803199768 25.069570541
