# LAS format log file from PETREL
# Project units are specified as depth units
#==================================================================
~Version information
VERS.   2.0:
WRAP.   NO:
#==================================================================
~Well
STRT .m      2674.6198730 :
STOP .m      4399.4833984 :
STEP .m     0.00000000 :
NULL .        -999.250000 :
COMP.           : COMPANY
WELL.  7/8-4 T2   : WELL
FLD.            : FIELD
LOC.            : LOCATION
SRVC.           : SERVICE COMPANY
DATE.  2018-09-11 21:49:25   : Log Export Date {yyyy-MM-dd HH:mm:ss}
PROV.           : PROVINCE
UWI.   7/8-4 T2   : UNIQUE WELL ID
API.            : API NUMBER
#==================================================================
~Curve
DEPT .m                   : DEPTH
DCAL .in                  : DCAL
CALI .in                  : CALI
BS .in                    : BS
ROP .m/h                  : ROP
DRHO .g/cm3               : DRHO
NPHI .m3/m3               : NPHI
RHOB .g/cm3               : RHOB
PEF .b/e                  : PEF
GR .gAPI                  : GR
DTC .us/ft                : DTC
RDEP .ohm.m               : RDEP
SP .mV                    : SP
RSHA .ohm.m               : RSHA
RMED .ohm.m               : RMED
~Parameter
#==================================================================
~Ascii
# ...
 4280.4589844 -0.479499996 8.0205001831 8.5000000000  -999.250000 -0.015147026 0.1255548447 2.4466927052 9.6827955246 46.036491394 71.543701172 0.8561249375 47.816574097 3.5959999561 1.7691999674
 4280.6113281 -0.490400016 8.0095996857 8.5000000000  -999.250000 -0.015467000 0.1258179992 2.4444000721 10.055800438 45.597698212 71.866996765 0.8639000058 47.808498383 3.2869999409 1.6863000393
 4280.7636719 -0.495299995 8.0046997070 8.5000000000  -999.250000 -0.015538000 0.1239079982 2.4416000843 10.221500397 45.421798706 72.414001465 0.8668000102 48.116600037 2.7957000732 1.5357999802
 4280.9160156 -0.500299990 7.9997000694 8.5000000000  -999.250000 -0.015608000 0.1219990030 2.4388000965 10.387100220 45.245998383 72.960998535 0.8697000146 48.424598694 2.3043999672 1.3853000402
 4281.0688477 -0.503099978 7.9969000816 8.5000000000  -999.250000 -0.015848426 0.1213689968 2.4392137527 11.041592598 45.041740417 73.246803284 0.8674724698 48.651908875 2.0230998993 1.3186000586
 4281.2211914 -0.503300011 7.9966998100 8.5000000000  -999.250000 -0.016293427 0.1223039925 2.4435141087 12.287392616 44.804340363 73.211997986 0.8588724732 48.779109955 1.9996000528 1.3547999859
 4281.3735352 -0.503499985 7.9964003563 8.5000000000  -999.250000 -0.016737875 0.1232377589 2.4479122162 13.533102036 44.566188812 73.177200317 0.8502942324 48.906856537 1.9760999680 1.3910000324
 4281.5258789 -0.503199995 7.9967994690 8.5000000000  -999.250000 -0.017008150 0.1240955591 2.4517030716 14.750254631 44.091072083 73.138496399 0.8486012816 49.207771301 1.9737000465 1.4242999554
 4281.6782227 -0.500100017 7.9998993874 8.5000000000  -999.250000 -0.016431155 0.1245815530 2.4527034760 15.828043938 42.460388184 73.080596924 0.8802009821 50.352958679 2.0757000446 1.4428999424
 4281.8305664 -0.497099996 8.0029001236 8.5000000000  -999.250000 -0.015854999 0.1250659972 2.4537999630 16.902399063 40.834899902 73.022796631 0.9117000103 51.494400024 2.1775999069 1.4615000486
 4281.9829102 -0.494000018 8.0059995651 8.5000000000  -999.250000 -0.015277000 0.1255519986 2.4549002647 17.980199814 39.204299927 72.964897156 0.9431999922 52.639598846 2.2795999050 1.4800000191
 4282.1352539 -0.438199997 8.0618000031 8.5000000000  -999.250000 -0.013359000 0.1185730025 2.4669001102 15.305800438 41.551399231 72.521202087 1.0290999413 52.953300476 2.4858000278 1.6414999962
 4282.2875977 -0.375800014 8.1241998672 8.5000000000  -999.250000 -0.011270000 0.1106450036 2.4804000854 12.154100418 44.404598236 72.028396606 1.1218999624 53.161201477 2.7053999901 1.8212000132
 4282.4404297 -0.313300043 8.1866998672 8.5000000000  -999.250000 -0.009174930 0.1027169600 2.4939320087 8.9971551895 47.275074005 71.535598755 1.2149749994 53.370574951 2.9249000549 2.0007998943
 4282.5927734 -0.271800011 8.2281999588 8.5000000000  -999.250000 -0.007281333 0.1027224436 2.5039253235 7.3951740265 52.669147491 71.184997559 1.3007609844 53.832202911 3.0996999741 2.1212000847
 4282.7451172 -0.243699998 8.2562999725 8.5000000000  -999.250000 -0.005513337 0.1078534424 2.5118250847 6.7942733765 59.704448700 70.926597595 1.3821609020 54.457504272 3.2455000877 2.2032001019
 4282.8974609 -0.215599999 8.2843999863 8.5000000000  -999.250000 -0.003750218 0.1129965484 2.5195987225 6.1951336861 66.730613708 70.668296814 1.4634079933 55.081790924 3.3912000656 2.2852001190
 4283.0498047 -0.208500013 8.2915000916 8.5000000000  -999.250000 -0.003202249 0.1219294742 2.5191445351 6.1782765388 70.866104126 70.799896240 1.4967926741 55.358295441 3.4398000240 2.2973001003
 4283.2021484 -0.244700000 8.2552995682 8.5000000000  -999.250000 -0.005152000 0.1386120021 2.5018000603 7.3565001488 69.056198120 71.739700317 1.4321000576 54.920299530 3.2867000103 2.1644999981
 4283.3544922 -0.280900002 8.2190999985 8.5000000000  -999.250000 -0.007108000 0.1553480029 2.4844000340 8.5383996964 67.240402222 72.679603577 1.3672000170 54.480899811 3.1335999966 2.0318000317
 4283.5068359 -0.316599995 8.1834001541 8.5000000000  -999.250000 -0.008905000 0.1711799949 2.4677000046 9.6674995422 65.383399963 73.613998413 1.3018000126 54.072601318 2.9835999012 1.9009000063
 4283.6596680 -0.339899987 8.1600999832 8.5000000000  -999.250000 -0.007285830 0.1676457077 2.4672987461 9.6647911072 62.635822296 74.432998657 1.2239513397 54.333637238 2.8979001045 1.8112000227
 4283.8120117 -0.363200009 8.1367998123 8.5000000000  -999.250000 -0.005672827 0.1641236991 2.4668991566 9.6620912552 59.897121429 75.252006531 1.1463513374 54.593833923 2.8122000694 1.7216000557
 4283.9643555 -0.386599988 8.1134004593 8.5000000000  -999.250000 -0.004070426 0.1605961770 2.4666061401 9.6576938629 57.167533875 76.070991516 1.0690643787 54.852813721 2.7265000343 1.6318999529
 4284.1166992 -0.381900012 8.1181001663 8.5000000000  -999.250000 -0.006079013 0.1553434581 2.4685084820 9.1249694824 57.306285858 75.984199524 1.0892611742 54.763465881 2.6431999207 1.6354999542
 4284.2690430 -0.368499994 8.1315002441 8.5000000000  -999.250000 -0.009203013 0.1495584548 2.4712083340 8.4288692474 58.331184387 75.617210388 1.1395611763 54.566471100 2.5606999397 1.6679999828
 4284.4213867 -0.355199963 8.1448001862 8.5000000000  -999.250000 -0.012321603 0.1437619030 2.4738440514 7.7324705124 59.363265991 75.250297546 1.1899616718 54.372203827 2.4783000946 1.7005000114
 4284.5737305 -0.312799990 8.1871995926 8.5000000000  -999.250000 -0.013758000 0.1346819997 2.4876000881 6.9120998383 62.596698761 74.349197388 1.2716000080 54.996700287 2.5230998993 1.9103000164
 4284.7260742 -0.239199996 8.2608003616 8.5000000000  -999.250000 -0.013395000 0.1220149994 2.5132000446 5.9530000687 68.216201782 72.876197815 1.3871999979 56.505001068 2.7042999268 2.3097999096
 4284.8784180 -0.165600002 8.3344001770 8.5000000000  -999.250000 -0.013033000 0.1093479991 2.5387001038 4.9939999580 73.835700989 71.403297424 1.5029000044 58.013301849 2.8854999542 2.7093000412
 4285.0312500 -0.105200000 8.3948001862 8.5000000000  -999.250000 -0.012224904 0.1030118689 2.5597085953 4.2690281868 78.016265869 70.323600769 1.6315673590 59.345508575 3.0186998844 3.0014998913
 4285.1835938 -0.096500009 8.4034996033 8.5000000000  -999.250000 -0.009698904 0.1213788688 2.5624086857 4.4649281502 76.538963318 70.796401978 1.8085672855 59.972610474 2.9630000591 2.8696999550
 4285.3359375 -0.087800004 8.4121999741 8.5000000000  -999.250000 -0.007172901 0.1397448778 2.5651082993 4.6608276367 75.061759949 71.269203186 1.9855676889 60.599609375 2.9072000980 2.7379999161
 4285.4882813 -0.079099998 8.4209003448 8.5000000000  -999.250000 -0.004643337 0.1580789685 2.5677256584 4.8559479713 73.590270996 71.741996765 2.1623749733 61.224258423 2.8513998985 2.6063001156
 4285.6406250 -0.078400001 8.4216003418 8.5000000000  -999.250000 -0.001316150 0.1661801040 2.5757272243 4.8396902084 73.923858643 72.171501160 2.2481498718 61.085449219 2.8926000595 2.5622999668
 4285.7929688 -0.078199998 8.4217996597 8.5000000000  -999.250000 0.0020689999 0.1733839959 2.5841999054 4.8055000305 74.410102844 72.597198486 2.3261001110 60.882099152 2.9421000481 2.5257999897
 4285.9453125 -0.078100003 8.4218997955 8.5000000000  -999.250000 0.0054649999 0.1806109995 2.5926001072 4.7712001801 74.897903442 73.022903442 2.4042000771 60.678100586 2.9916000366 2.4893000126
 4286.0976563 -0.078100003 8.4218997955 8.5000000000  -999.250000 0.0064960001 0.1828410029 2.5940999985 4.7536001205 75.973800659 73.210700989 2.4233999252 60.683799744 3.0474998951 2.5246999264
 4286.2500000 -0.078100003 8.4218997955 8.5000000000  -999.250000 0.0061989999 0.1822669953 2.5917000771 4.7453999519 77.380096436 73.264900208 2.4096000195 60.807300568 3.1068999767 2.6005001068
 4286.4028320 -0.078100003 8.4218997955 8.5000000000  -999.250000 0.0058987308 0.1816949248 2.5891747475 4.7370829582 78.787269592 73.319099426 2.3956160545 60.931243896 3.1663000584 2.6761999130
 4286.5551758 -0.078299999 8.4216995239 8.5000000000  -999.250000 0.0051883878 0.1826144010 2.5812425613 4.7004213333 79.084075928 73.386199951 2.3379669189 61.069023132 3.1614999771 2.6616001129
