# LAS format log file from PETREL
# Project units are specified as depth units
#==================================================================
~Version information
VERS.   2.0:
WRAP.   NO:
#==================================================================
~Well
STRT .m      2674.6198730 :
STOP .m      4399.4833984 :
STEP .m     0.00000000 :
NULL .        -999.250000 :
COMP.           : COMPANY
WELL.  7/8-4 T2   : WELL
FLD.            : FIELD
LOC.            : LOCATION
SRVC.           : SERVICE COMPANY
DATE.  2018-09-11 21:49:25   : Log Export Date {yyyy-MM-dd HH:mm:ss}
PROV.           : PROVINCE
UWI.   7/8-4 T2   : UNIQUE WELL ID
API.            : API NUMBER
#==================================================================
~Curve
DEPT .m                   : DEPTH
DCAL .in                  : DCAL
CALI .in                  : CALI
BS .in                    : BS
ROP .m/h                  : ROP
DRHO .g/cm3               : DRHO
NPHI .m3/m3               : NPHI
RHOB .g/cm3               : RHOB
PEF .b/e                  : PEF
GR .gAPI                  : GR
DTC .us/ft                : DTC
RDEP .ohm.m               : RDEP
SP .mV                    : SP
RSHA .ohm.m               : RSHA
RMED .ohm.m               : RMED
~Parameter
#==================================================================
~Ascii
# ...
 4161.7392578 -0.064999998 8.4350004196 8.5000000000  -999.250000 -0.004704664 0.1578270048 2.4261000156 16.916891098 42.152000427 75.899299622 0.8457999825 53.414699554 1.7400000095 1.1978000402
 4161.8920898 -0.027400000 8.4726285934 8.5000000000  -999.250000 -0.004916583 0.1516341865 2.4387278557 17.290588379 42.128681183 75.725807190 0.8425146937 52.775596619 1.7352000475 1.1886852980
 4162.0444336 -0.018600000 8.4811992645 8.5000000000  -999.250000 -0.005798038 0.1473389417 2.4473972321 17.884935379 42.374698639 75.417999268 0.8471763134 52.212677002 1.8918000460 1.2784615755
 4162.1967773 -0.081000000 8.4188003540 8.5000000000  -999.250000 -0.008300042 0.1476329416 2.4464969635 19.013629913 43.278999329 74.779098511 0.8709765673 51.830677032 2.4458999634 1.6096615791
 4162.3491211 -0.143299997 8.3564996719 8.5000000000  -999.250000 -0.010809025 0.1479271054 2.4454967976 20.145933151 44.183383942 74.140197754 0.8948749900 51.448684692 3.0000000000 1.9408477545
 4162.5014648 -0.205799997 8.2939414978 8.5000000000  -999.250000 -0.013310926 0.1482885182 2.4444651604 21.280218124 45.081081390 73.511497498 0.9180734754 51.070587158 3.5457999706 2.2660200596
 4162.6538086 -0.286799997 8.2131996155 8.5000000000  -999.250000 -0.015159926 0.1546899974 2.4335999489 22.596618652 45.386501312 74.160598755 0.8786000013 51.035099030 3.0434999466 2.0539000034
 4162.8061523 -0.367900014 8.1321001053 8.5000000000  -999.250000 -0.017008927 0.1611119956 2.4226000309 23.913019180 45.692901611 74.809799194 0.8389000297 50.999500275 2.5411999226 1.8409999609
 4162.9584961 -0.448900014 8.0510997772 8.5000000000  -999.250000 -0.018856557 0.1675339937 2.4116001129 25.224735260 45.999298096 75.458900452 0.7993000150 50.963901520 2.0388998985 1.6281000376
 4163.1113281 -0.497000009 8.0028858185 8.5000000000  -999.250000 -0.020282084 0.1690328866 2.4052855968 25.075349808 46.058593750 76.094703674 0.7661019564 51.175674438 1.8154000044 1.4602179527
 4163.2636719 -0.532800019 7.9670848846 8.5000000000  -999.250000 -0.021543058 0.1686838865 2.4007856846 24.381162643 46.025192261 76.725402832 0.7355019450 51.479072571 1.6964999437 1.3098179102
 4163.4160156 -0.568599999 7.9313306808 8.5000000000  -999.250000 -0.022795070 0.1683401912 2.3962962627 23.693126678 45.991863251 77.356201172 0.7049307823 51.781932831 1.5777000189 1.1596214771
 4163.5683594 -0.590099990 7.9098873138 8.5000000000  -999.250000 -0.022498902 0.1693425477 2.3951101303 24.236629486 45.980045319 77.546699524 0.6833666563 51.947586060 1.5054999590 1.0729737282
 4163.7207031 -0.594099998 7.9058880806 8.5000000000  -999.250000 -0.020283904 0.1720095575 2.3982102871 26.305130005 45.994850159 77.190902710 0.6729666591 51.943389893 1.4912999868 1.0647740364
 4163.8730469 -0.597999990 7.9020032883 8.5000000000  -999.250000 -0.018070970 0.1746757329 2.4014079571 28.370418549 46.009807587 76.834999084 0.6625667810 51.939449310 1.4769999981 1.0566737652
 4164.0253906 -0.596899986 7.9031000137 8.5000000000  -999.250000 -0.016195368 0.1767760068 2.4038999081 29.389205933 46.042701721 76.723098755 0.6521999836 51.986400604 1.4665999413 1.0484999418
 4164.1777344 -0.570500016 7.9294996262 8.5000000000  -999.250000 -0.015998369 0.1760559976 2.4036002159 25.210205078 46.167499542 77.842300415 0.6420000196 52.292701721 1.4756000042 1.0398999453
 4164.3300781 -0.544099987 7.9559001923 8.5000000000  -999.250000 -0.015801368 0.1753360033 2.4031999111 21.031106949 46.292198181 78.961402893 0.6317999959 52.598899841 1.4846999645 1.0313999653
 4164.4829102 -0.517600000 7.9824924469 8.5000000000  -999.250000 -0.015574282 0.1746329069 2.4028420448 16.904392242 46.420032501 80.080596924 0.6216832995 52.904491425 1.4937000275 1.0229641199
 4164.6352539 -0.488799989 8.0112934113 8.5000000000  -999.250000 -0.010778553 0.1799144298 2.4159476757 22.980117798 47.366874695 79.759002686 0.6476980448 52.682567596 1.5915000439 1.0741888285
 4164.7875977 -0.459699988 8.0403938293 8.5000000000  -999.250000 -0.005404721 0.1859764308 2.4308474064 30.361734390 48.420677185 79.249298096 0.6782984138 52.391967773 1.7007999420 1.1330888271
 4164.9399414 -0.430500001 8.0695323944 8.5000000000  -999.250000 -0.000028516 0.1920261681 2.4456067085 37.741073608 49.472877502 78.739501953 0.7089672685 52.102264404 1.8100999594 1.1921278238
 4165.0922852 -0.420399994 8.0795927048 8.5000000000  -999.250000 0.0007367724 0.1942541152 2.4476795197 37.092761993 50.026626587 78.237396240 0.7299466729 52.123416901 1.9232000113 1.2945176363
 4165.2446289 -0.422899991 8.0770998001 8.5000000000  -999.250000 -0.001518228 0.1939789951 2.4412999153 31.185266495 50.252998352 77.740196228 0.7444999814 52.347499847 2.0387001038 1.4248000383
 4165.3969727 -0.425399989 8.0746002197 8.5000000000  -999.250000 -0.003775301 0.1937029958 2.4349000454 25.286085129 50.480098724 77.242996216 0.7591999769 52.572200775 2.1542000771 1.5555000305
 4165.5493164 -0.431399971 8.0685997009 8.5000000000  -999.250000 -0.006681651 0.1918929964 2.4289999008 22.022945404 50.524101257 77.231399536 0.7612000108 52.595500946 2.1396000385 1.5832999945
 4165.7016602 -0.444799989 8.0551996231 8.5000000000  -999.250000 -0.010940650 0.1868669987 2.4242999554 24.252145767 50.183898926 78.238601685 0.7368000150 52.196098328 1.8519999981 1.3952000141
 4165.8544922 -0.458200008 8.0417623520 8.5000000000  -999.250000 -0.015212352 0.1818232834 2.4194881916 26.486713409 49.842525482 79.245697021 0.7123311162 51.795619965 1.5636413097 1.2066298723
 4166.0068359 -0.469900012 8.0301904678 8.5000000000  -999.250000 -0.019301722 0.1765913218 2.4158618450 28.416141510 49.473995209 80.139801025 0.6910365820 51.429809570 1.2971785069 1.0294694901
 4166.1591797 -0.441599995 8.0584907532 8.5000000000  -999.250000 -0.020038372 0.1670183241 2.4351618290 24.429080963 48.505596161 78.454399109 0.7336365581 51.776210785 1.4776781797 1.0823699236
 4166.3115234 -0.413199991 8.0868902206 8.5000000000  -999.250000 -0.020778369 0.1574463248 2.4544618130 20.429380417 47.537094116 76.769096375 0.7762365341 52.122608185 1.6580785513 1.1353698969
 4166.4638672 -0.384900004 8.1151971817 8.5000000000  -999.250000 -0.021507459 0.1478857547 2.4737801552 16.444498062 46.566207886 75.083702087 0.8192048073 52.470336914 1.8409624100 1.1895073652
 4166.6162109 -0.354399979 8.1456003189 8.5000000000  -999.250000 -0.019151349 0.1421959996 2.4988000393 17.103578568 44.821899414 73.196098328 0.9767000079 53.230899811 2.7651998997 1.5973999500
 4166.7685547 -0.323199987 8.1767997742 8.5000000000  -999.250000 -0.015828349 0.1377000064 2.5257000923 19.218278885 42.826599121 71.245002747 1.1707999706 54.124599457 3.9267001152 2.1182999611
 4166.9208984 -0.291999996 8.2080001831 8.5000000000  -999.250000 -0.012508170 0.1332039982 2.5525999069 21.333627701 40.831401825 69.293998718 1.3650000095 55.018398285 5.0882000923 2.6393001080
 4167.0737305 -0.263000011 8.2370853424 8.5000000000  -999.250000 -0.010063442 0.1338336766 2.5638821125 23.659961700 41.359874725 68.138397217 1.5767349005 55.470317841 6.0476579666 3.3434731960
 4167.2260742 -0.236499995 8.2635850906 8.5000000000  -999.250000 -0.008572472 0.1399686635 2.5582816601 26.196807861 44.597377777 67.843399048 1.8060349226 55.444614410 6.7833585739 4.2398729324
 4167.3784180 -0.209900022 8.2901821136 8.5000000000  -999.250000 -0.007086026 0.1461099982 2.5525772572 28.720449448 47.836723328 67.548500061 2.0351731777 55.418796539 7.5177664757 5.1353087425
 4167.5307617 -0.184400007 8.3156700134 8.5000000000  -999.250000 -0.005533247 0.1539334506 2.5454568863 29.651762009 51.657329559 67.661903381 2.2133233547 55.386108398 7.8136792183 5.7269382477
 4167.6831055 -0.162800014 8.3372688293 8.5000000000  -999.250000 -0.003738247 0.1684234440 2.5319571495 24.242362976 57.781631470 69.414100647 2.1894235611 55.326007843 6.3720793724 5.1148381233
 4167.8354492 -0.141299993 8.3587684631 8.5000000000  -999.250000 -0.001943244 0.1829143018 2.5185570717 18.832862854 63.905765533 71.166198730 2.1655237675 55.266010284 4.9304943085 4.5027441978
